~Version information
VERS.                            2.00: CWLS LAS  -  VERSION 2.00
WRAP.                              NO: One line per depth step
~Well information
#MNEM.UNIT                  DATA TYPE  INFORMATION
#===.================================:==================
STRT.M                       3000.000: First depth in file
STOP.M                       3105.000: Last depth in file
STEP.M                          0.100: Depth increment
NULL.                       -9999.00 : Null values
DATE.                       : LOG DATE
TIME.                                : LOG TIME
WELL.                             F8: Well name
GRP.                        : Group name
FLD.                    F: Field name
ISS.            Окончательный каротаж: Well surveys
SRVC.     : Service Company
~Curve information
#MNEM.UNIT                   API CODE   CURVE DESCRIPTION
#===.================================:==================
DEPT.M                               : Depth curve
MGZ .OHMM                            : Градиент-микрозонд, Ом*м -  250.0 
MPZ .OHMM                            : Потенциал-микрозонд, Ом*м -  250.0
BMK .OHMM                            : БМК, Ом*м -  250.0 см
MKB .MM                              : Микрокаверномер, мм -  250.0 см
#
~Other information
#------------------ REMARKS AREA -----------------------
#=======================================================
# The file is generated by the program GeoTech-EditLog v2000.12
#Number of Curves = 4
~A Log Data Section
# ...
3032.80    8.9790    8.0625    8.5045  216.4976 
3032.90    9.8875    8.6939    9.2290  216.3144 
3033.00   11.4780    9.4189   10.1024  216.2812 
3033.10   12.1865    9.9581   10.6932  216.3648 
3033.20   13.0458    9.8481   10.8884  216.4646 
3033.30   12.9659    9.4086   10.4752  216.6484 
3033.40   12.5029    8.9630   10.1314  216.8480 
3033.50   13.0456    9.5490   10.5304  216.9646 
3033.60   11.5060    8.7769   10.2521  217.0648 
3033.70   11.0632    8.3831   10.2718  216.8310 
3033.80   11.2741    8.5658   10.3318  216.6140 
3033.90   11.4535    8.2180   10.6486  216.3310 
3034.00   12.5143    8.6155   10.0427  216.2812 
3034.10   13.1381    8.7351    9.8013  216.1976 
3034.20   12.6111    8.7317    9.6048  216.1812 
3034.30   13.5018    9.4157   11.0082  216.1812 
3034.40   14.5425   10.1840   13.3837  216.1812 
3034.50   13.3920   10.0097   12.4904  216.4314 
3034.60   11.8924    9.9584   12.6397  216.8157 
3034.70   11.0828    9.7765   17.9251  217.2983 
3034.80    8.4865   10.1748   45.0908  218.0502 
3034.90   10.2772    9.8012   27.0708  217.4305 
3035.00    5.5666    6.4902   12.6855  216.3636 
3035.10    8.1607    7.2213    9.6028  215.9304 
3035.20    9.7208    7.8403    9.5969  216.1314 
3035.30    9.7144    7.7678    9.9076  216.5157 
3035.40    9.2796    7.4480   10.6690  216.8315 
3035.50    6.9228    7.3650   12.1446  216.8812 
3035.60    8.2009    7.3516    9.2409  216.7140 
3035.70    9.6411    8.2008    8.7701  216.5978 
3035.80    9.9353    8.3700    8.6328  216.4976 
3035.90   10.5840    8.6953    8.5249  216.1476 
3036.00   11.5024    9.6859    8.1346  215.8310 
3036.10   11.0663    9.6860    7.1820  215.5303 
3036.20    8.2891    8.1986    7.0851  215.4812 
3036.30    7.3921    6.6892    6.8910  215.3140 
3036.40    7.0114    6.2081    6.6415  215.3646 
3036.50    6.8833    5.9515    6.6334  215.5480 
3036.60    7.5724    6.4953    6.7654  215.8321 
3036.70    7.7434    6.6684    7.1904  215.7978 
3036.80    8.1765    6.5295    7.6463  215.6976 
3036.90    8.4185    6.7920    7.8618  215.6812 
3037.00    8.9588    6.9334    8.5073  215.7646 
3037.10    9.6202    6.9416    8.8056  215.7812 
3037.20    9.6132    6.8649    8.6899  215.8646 
3037.30    9.4729    6.6828    8.4928  215.8812 
3037.40   10.0840    7.2005    8.7019  215.9646 
3037.50   11.5113    8.3694   10.4350  215.9812 
3037.60   14.0361    9.4162   13.9224  216.0648 
3037.70   23.2052   13.4588   30.7224  215.8310 
3037.80   25.1574   15.6515   39.0156  215.7812 
3037.90   27.2437   17.6233   36.6234  215.8646 
3038.00   21.4606   12.5631   22.1199  215.7978 
3038.10   13.4653    9.8762   12.8812  215.6976 
3038.20   11.9565    9.1429   11.3514  215.6812 
3038.30   11.5604    8.9095   10.8652  215.5976 
3038.40   10.6725    8.7716   10.6048  215.5812 
3038.50    9.3172    8.5415   10.6701  215.2475 
3038.60    8.5448    8.4582   10.5980  214.8467 
3038.70    9.3492    8.6001   10.5300  214.8646 
3038.80    9.8059    8.6133   10.3026  214.9648 
3038.90   10.3271    8.3848    9.6344  215.1480 
3039.00   10.4033    8.0564    9.1096  215.3480 
3039.10   10.1408    7.5819    8.9046  215.5484 
3039.20    9.7063    7.0829    8.6548  215.9149 
3039.30    9.0865    6.4983    8.2337  216.3993 
3039.40    8.0958    5.9245    8.0099  216.8983 
3039.50    7.8616    6.2137    7.6380  217.0646 
3039.60    7.6242    6.2733    7.4613  217.2484 
3039.70    8.0888    6.5786    7.2315  217.0310 
3039.80    8.2769    6.5911    7.0597  216.7098 
3039.90    8.3707    6.6031    6.9382  216.3336 
3040.00    8.6384    6.8038    6.9248  215.9812 
3040.10    9.2221    7.0273    7.0783  215.9812 
3040.20    9.2962    7.1164    7.2980  215.8927 
3040.30    8.9721    7.0718    7.1766  215.6516 
3040.40    8.5433    7.1708    7.4997  215.4632 
3040.50    8.3895    7.3725    8.2705  215.0927 
3040.60    8.4600    7.4293    8.5590  214.9108 
3040.70    8.5574    7.4243    8.4195  215.0993 
3040.80    8.8018    7.4028    8.2740  215.3516 
3040.90    8.8979    7.0026    7.7364  215.3992 
3041.00    9.0777    6.7789    7.6446  215.7697 
3041.10    9.1170    6.8325    7.5807  216.0995 
3041.20    9.2871    7.0812    7.7776  216.3812 
3041.30    9.4674    7.3865    8.0294  216.4404 
3041.40    8.9815    7.1961    7.9612  216.5812 
3041.50    9.0760    7.2031    8.1634  216.6107 
3041.60    8.6380    6.8349    7.6641  216.6220 
3041.70    8.5686    6.7420    7.5969  216.5697 
3041.80    9.3727    7.0764    7.4730  216.7516 
3041.90    9.8338    7.6410    7.5154  216.6812 
3042.00   10.0661    8.0185    7.8213  216.5927 
3042.10    9.6675    7.9046    8.5985  216.3812 
3042.20    8.9106    7.0533   11.0345  216.4402 
3042.30    9.8785    7.3522   16.7328  216.6404 
3042.40    8.7990    7.9983   16.1033  216.6336 
3042.50    7.7769    6.8531    7.2382  216.2222 
3042.60    8.1865    6.9504    7.1982  216.0516 
3042.70    8.4961    6.8534    7.1641  216.0107 
3042.80    8.5590    6.6510    7.0494  216.1108 
3042.90    8.2483    6.1783    6.6005  216.2697 
3043.00    7.8746    5.8311    5.9967  216.5402 
3043.10    8.0711    5.9047    5.9364  216.7404 
3043.20    8.2796    5.9736    6.2324  216.9402 
3043.30    7.4167    5.7035    5.9540  217.1108 
3043.40    8.4463    6.1802    6.3454  217.2107 
3043.50   10.4749    7.2288    7.3292  217.2222 
3043.60   12.5860    8.4052    8.4175  216.8445 
3043.70   11.8257    8.0749    8.0744  216.1041 
3043.80   10.3708    7.4292    7.5199  215.5925 
3043.90   10.7258    8.3550    8.5157  215.3812 
3044.00   13.8785   12.1217   16.0857  215.3517 
3044.10   17.8433   16.4092   29.2712  215.2220 
3044.20   14.9449   15.0514   27.9845  214.9632 
3044.30   11.6390   13.0520   25.7639  214.4741 
3044.40   10.6400   13.4094   23.1686  213.9222 
3044.50   12.0578   15.0809   21.0776  213.8402 
3044.60   13.8219   16.1307   19.7284  214.0995 
3044.70   15.2632   15.8819   20.6044  214.7058 
3044.80   16.4541   15.0635   20.6791  215.8066 
3044.90   17.0905   14.6772   20.6358  216.8468 
3045.00   17.8809   14.5607   21.0388  217.6878 
3045.10   19.2058   14.4217   18.9782  218.4179 
3045.20   17.8028   11.7459   14.1871  219.0402 
3045.30   12.7167    8.6570    9.4474  219.0629 
3045.40   12.0971    7.9936    8.8110  218.5746 
3045.50   10.9584    7.6997    9.0714  217.8156 
3045.60   11.6062    8.2835   10.1188  217.0333 
3045.70   13.0362    9.4059   10.3005  216.6517 
3045.80   13.1066    9.7376   10.1531  216.6108 
3045.90   12.4487    9.6117    9.9759  216.7107 
3046.00   11.7370    9.8142    9.8985  216.7222 
3046.10   11.3207    9.5078    9.7155  216.6700 
3046.20   11.0424    9.4615   10.0804  216.7336 
3046.30   10.2156    9.2293   10.4630  216.2333 
3046.40   10.0716    9.1977    9.5232  215.9402 
3046.50   10.3460    9.2193    9.3556  216.3468 
3046.60   11.4271    9.4333   10.2721  217.1883 
3046.70   11.9790   10.0866    9.8905  217.7697 
3046.80   12.2827   10.2388    9.8703  218.0995 
3046.90   12.9622   10.5533   10.1464  218.4402 
3047.00   13.7072   10.7469   10.6853  218.5812 
3047.10   14.1839   10.7147   11.3995  218.7291 
3047.20   14.9201   10.8249   12.0538  219.2878 
3047.30   14.7343   10.7630   12.4065  220.0475 
3047.40   15.2868   11.4176   14.5199  220.8288 
3047.50   14.8612   11.1148   15.9193  221.2402 
3047.60   10.3949    8.9642   14.7093  221.5883 
3047.70    6.0773    7.5110   12.3945  221.9927 
3047.80    8.2363    7.8907   12.3424  221.6037 
3047.90   10.6940    9.0208   16.3340  221.3583 
3048.00    9.4039    8.6420   18.2526  221.8107 
3048.10    7.5846    8.2476   20.6974  220.9049 
3048.20    6.6382    8.4670   24.4375  218.4927 
3048.30    9.1233    9.6211   15.9519  218.2220 
3048.40    9.0080    9.3934   10.5695  218.1107 
3048.50    8.3444    8.7967   10.0093  218.2402 
3048.60    8.2583    8.4820    9.4324  218.3812 
3048.70    8.7259    8.0898    8.8636  218.4402 
3048.80    9.3209    7.4365    7.7434  219.1433 
3048.90    9.9810    7.3228    7.1907  221.3075 
3049.00   10.6026    7.7935    7.8943  223.3992 
3049.10    9.5328    7.9973    8.7347  223.0895 
