~Version information
VERS.                            2.00: CWLS LAS  -  VERSION 2.00
WRAP.                              NO: One line per depth step
~Well information
#MNEM.UNIT                  DATA TYPE  INFORMATION
#===.================================:==================
STRT.M                       3000.000: First depth in file
STOP.M                       3106.000: Last depth in file
STEP.M                          0.100: Depth increment
NULL.                       -9999.00 : Null values
DATE.                       : LOG DATE
TIME.                                : LOG TIME
WELL.                             F8: Well name
GRP.                        : Group name
FLD.                    F: Field name
ISS.            Окончательный каротаж: Well surveys
SRVC.     : Service Company
~Curve information
#MNEM.UNIT                   API CODE   CURVE DESCRIPTION
#===.================================:==================
DEPT.M                               : Depth curve
GK  .MKR/H                           : Гамма-активность, мкр./ч -   67.0 
WSAT.PERC                            : Водонасыщенная пористость, % -  22
NKT2.PRIV                            : Малый зонд приведенный,  -  230.0 
NKT1.PRIV                            : Большой зонд приведенный,  -  219.
#
~Other information
#------------------ REMARKS AREA -----------------------
#=======================================================
# The file is generated by the program GeoTech-EditLog v2000.12
#Number of Curves = 4
~A Log Data Section
# ...
3082.00   23.9485   19.7726    1.7900    3.3525 
3082.10   23.5489   19.9041    1.7988    3.3588 
3082.20   23.6313   20.0864    1.7912    3.2724 
3082.30   24.4030   20.3114    1.7812    3.1812 
3082.40   24.6150   20.2962    1.7800    3.2225 
3082.50   24.6825   20.2199    1.7975    3.2563 
3082.60   25.0323   20.2012    1.7912    3.3039 
3082.70   25.0450   20.3576    1.7900    3.3800 
3082.80   24.9875   20.7653    1.8075    3.2061 
3082.90   24.5774   20.9163    1.8100    3.1712 
3083.00   24.6076   20.9037    1.8012    3.2138 
3083.10   24.3216   20.9702    1.8088    3.2376 
3083.20   24.0874   21.0763    1.8188    3.2137 
3083.30   23.6835   20.9849    1.8288    3.2363 
3083.40   23.7525   20.9437    1.8388    3.2400 
3083.50   24.5493   20.8787    1.8400    3.2137 
3083.60   25.2042   20.8261    1.8488    3.2714 
3083.70   25.5777   20.7675    1.8412    3.3150 
3083.80   25.2347   20.8651    1.8488    3.2937 
3083.90   25.1275   20.9063    1.8588    3.2812 
3084.00   25.2513   20.9363    1.8512    3.3500 
3084.10   24.9452   21.0804    1.8412    3.3337 
3084.20   24.3921   21.2751    1.8663    3.1899 
3084.30   23.8297   21.3350    1.8525    3.2138 
3084.40   23.9351   21.3488    1.8500    3.1675 
3084.50   23.7849   21.2800    1.8412    3.2038 
3084.60   23.4967   21.2524    1.8312    3.2276 
3084.70   22.8033   21.3463    1.8300    3.0987 
3084.80   22.6312   21.2900    1.8212    3.0625 
3084.90   22.8738   21.1137    1.8112    3.1038 
3085.00   22.8137   20.8273    1.7925    3.2151 
3085.10   22.8439   20.9041    1.7812    3.1598 
3085.20   22.7624   20.9988    1.7800    3.1325 
3085.30   22.0845   21.1501    1.7625    3.1563 
3085.40   22.1125   21.3100    1.7600    3.0987 
3085.50   21.8848   21.4263    1.7688    3.0550 
3085.60   21.5340   21.4751    1.7612    3.0588 
3085.70   21.8227   21.5588    1.7425    2.9812 
3085.80   21.3271   21.6225    1.7225    2.9612 
3085.90   20.8386   21.6300    1.7112    2.9512 
3086.00   20.9113   21.6388    1.7100    2.9062 
3086.10   21.3777   21.6839    1.7012    2.9000 
3086.20   21.3349   21.6375    1.6912    2.8912 
3086.30   21.0748   21.5424    1.6988    2.9338 
3086.40   21.5914   21.4512    1.6912    2.9050 
3086.50   21.2497   21.5013    1.6725    2.9263 
3086.60   21.2076   21.5539    1.6876    2.9476 
3086.70   20.7634   21.6563    1.6900    2.9150 
3086.80   20.5336   21.7488    1.6812    2.8925 
3086.90   20.7376   21.6375    1.6888    2.8725 
3087.00   20.7175   21.5500    1.6812    2.9488 
3087.10   20.5520   21.7155    1.6537    2.9512 
3087.20   20.5300   22.0377    1.6500    2.9237 
3087.30   20.6876   22.3252    1.6763    2.8762 
3087.40   20.8325   22.3775    1.7150    2.8788 
3087.50   20.1583   22.2399    1.7200    2.8975 
3087.60   20.5428   22.0532    1.7551    2.9614 
3087.70   20.3823   21.9337    1.7512    3.0050 
3087.80   20.1048   21.8412    1.7675    2.9487 
3087.90   20.1313   21.5411    1.7788    2.9488 
3088.00   19.8335   21.2286    1.7888    3.0113 
3088.10   20.3079   20.6370    1.7812    3.1604 
3088.20   20.4238   20.4199    1.7800    3.2500 
3088.30   20.9641   20.4000    1.7888    3.2337 
3088.40   21.0400   20.4350    1.7988    3.2212 
3088.50   20.5934   20.4137    1.8000    3.2725 
3088.60   20.7231   20.4978    1.8000    3.2010 
3088.70   20.9952   20.5625    1.7912    3.1988 
3088.80   21.0913   20.6050    1.7812    3.2525 
3088.90   21.4676   20.7413    1.7888    3.1987 
3089.00   22.0541   20.7425    1.7988    3.0849 
3089.10   22.0510   20.5645    1.8000    3.0524 
3089.20   21.6722   20.1285    1.8088    3.1463 
3089.30   21.4186   19.6672    1.8012    3.3089 
3089.40   21.7139   19.5400    1.8000    3.3563 
3089.50   21.9176   19.6789    1.7912    3.2637 
3089.60   21.7732   19.6298    1.7900    3.2763 
3089.70   21.2859   19.6550    1.7812    3.2537 
3089.80   20.8698   19.6250    1.7800    3.3025 
3089.90   20.0410   19.6813    1.7800    3.3538 
3090.00   19.5798   19.7425    1.8150    3.3425 
3090.10   19.5476   19.8202    1.8200    3.3400 
3090.20   19.2961   19.8212    1.8200    3.2962 
3090.30   19.1374   19.7587    1.8288    3.2812 
3090.40   19.6889   19.6362    1.8300    3.2975 
3090.50   19.4198   19.2260    1.8388    3.3525 
3090.60   18.8521   18.9506    1.8400    3.4478 
3090.70   18.9814   18.8412    1.8488    3.5038 
3090.80   19.1676   18.7600    1.8675    3.5976 
3090.90   19.2600   18.7850    1.8700    3.6275 
3091.00   19.3926   18.9126    1.8788    3.5950 
3091.10   19.0238   18.9914    1.8888    3.6076 
3091.20   18.9087   19.0613    1.8900    3.4962 
3091.30   18.7511   19.1138    1.8812    3.5150 
3091.40   19.0626   19.1112    1.8800    3.5550 
3091.50   19.2764   19.3464    1.8800    3.5075 
3091.60   19.1859   19.4063    1.8888    3.4824 
3091.70   18.9949   19.3837    1.8900    3.5150 
3091.80   19.2765   19.3187    1.8988    3.5288 
3091.90   19.3200   19.3100    1.9088    3.4862 
3092.00   19.7403   19.3012    1.8837    3.4712 
3092.10   19.4752   19.1859    1.8976    3.4173 
3092.20   19.1235   18.7322    1.9175    3.4713 
3092.30   18.8874   18.2935    1.9288    3.5588 
3092.40   18.6674   17.8811    1.9212    3.6838 
3092.50   19.3230   17.5936    1.9288    3.6562 
3092.60   19.7799   17.4283    1.9037    3.7202 
3092.70   20.4780   17.2699    1.9000    3.7650 
3092.80   20.8064   17.2237    1.8912    3.6737 
3092.90   20.8050   17.1675    1.8812    3.7038 
3093.00   20.9313   16.8973    1.9063    3.7188 
3093.10   21.2397   16.4826    1.9188    3.6849 
3093.20   20.9473   15.8696    1.9025    3.8113 
3093.30   20.4447   15.4310    1.9000    3.9526 
3093.40   20.0386   15.1437    1.8825    3.9788 
3093.50   20.1389   14.9611    1.8800    4.0938 
3093.60   20.1951   14.8083    1.9151    4.2066 
3093.70   20.3313   14.7900    1.9200    4.3076 
3093.80   20.3237   14.8338    1.9550    4.3025 
3093.90   19.8736   14.8488    1.9775    4.3963 
3094.00   19.6086   14.8850    1.9888    4.3925 
3094.10   19.8521   14.9076    2.0163    4.4427 
3094.20   19.6623   14.9275    2.0288    4.4062 
3094.30   19.4724   14.8074    2.0650    4.4350 
3094.40   19.4500   14.5537    2.0700    4.4925 
3094.50   19.3362   14.2748    2.0788    4.6226 
3094.60   19.2234   14.1873    2.0888    4.7102 
3094.70   18.7372   14.1450    2.1075    4.7463 
3094.80   18.1271   14.1575    2.1012    4.7150 
3094.90   17.6736   14.1600    2.1088    4.7188 
3095.00   18.1979   14.1075    2.1188    4.6412 
3095.10   17.9991   14.0210    2.1112    4.7002 
3095.20   17.5397   13.9750    2.0837    4.7188 
3095.30   17.9616   13.9788    2.0975    4.6587 
3095.40   18.5114   13.8750    2.1000    4.6150 
3095.50   18.3436   13.6936    2.1175    4.6625 
3095.60   18.2134   13.3979    2.1200    4.7139 
3095.70   18.3839   13.1499    2.1375    4.7463 
3095.80   19.3644   12.8836    2.1400    4.8551 
3095.90   19.6926   12.6224    2.1488    4.8963 
3096.00   19.6675   12.3010    2.1588    5.1714 
3096.10   19.3791   12.0845    2.1512    5.2978 
3096.20   19.3838   12.1125    2.1500    5.2487 
3096.30   19.5651   12.0850    2.1412    5.1524 
3096.40   19.6600   12.0187    2.1225    5.2538 
3096.50   19.5824   12.0363    2.1025    5.2963 
3096.60   20.2195   12.1980    2.1000    5.2034 
3096.70   20.7916   12.3513    2.0825    5.1024 
3096.80   20.3959   12.4488    2.0888    5.0988 
3096.90   19.6910   12.4075    2.1425    5.1788 
3097.00   19.6350   12.3562    2.1675    5.1637 
3097.10   18.4638   12.2271    2.1963    5.2039 
3097.20   18.3175   12.1137    2.1737    5.3413 
3097.30   18.6352   12.1788    2.1525    5.3162 
3097.40   18.9076   12.3213    2.1325    5.3275 
3097.50   19.6317   12.4713    2.1563    5.2687 
3097.60   19.4930   12.5866    2.1512    5.2951 
3097.70   19.5738   12.6525    2.1763    5.2475 
3097.80   20.0015   12.6775    2.1975    5.2838 
3097.90   20.4539   12.5137    2.2613    5.3075 
3098.00   20.7727   12.2886    2.2963    5.3713 
3098.10   21.3367   12.0055    2.3000    5.4063 
3098.20   21.3837   11.7336    2.2912    5.4800 
3098.30   21.8441   11.4986    2.2725    5.5338 
