~Version information
VERS.                            2.00: CWLS LAS  -  VERSION 2.00
WRAP.                              NO: One line per depth step
~Well information
#MNEM.UNIT                  DATA TYPE  INFORMATION
#===.================================:==================
STRT.M                       3000.000: First depth in file
STOP.M                       3105.000: Last depth in file
STEP.M                          0.100: Depth increment
NULL.                       -9999.00 : Null values
DATE.                       : LOG DATE
TIME.                                : LOG TIME
WELL.                             F8: Well name
GRP.                        : Group name
FLD.                    F: Field name
ISS.            Окончательный каротаж: Well surveys
SRVC.     : Service Company
~Curve information
#MNEM.UNIT                   API CODE   CURVE DESCRIPTION
#===.================================:==================
DEPT.M                               : Depth curve
MGZ .OHMM                            : Градиент-микрозонд, Ом*м -  250.0 
MPZ .OHMM                            : Потенциал-микрозонд, Ом*м -  250.0
BMK .OHMM                            : БМК, Ом*м -  250.0 см
MKB .MM                              : Микрокаверномер, мм -  250.0 см
#
~Other information
#------------------ REMARKS AREA -----------------------
#=======================================================
# The file is generated by the program GeoTech-EditLog v2000.12
#Number of Curves = 4
~A Log Data Section
# ...
3016.40   13.1692   15.9300   87.2081  220.6841 
3016.50   17.4239   18.4812   40.2756  221.0338 
3016.60   12.1962   12.4905   16.4991  219.8558 
3016.70    8.5998   10.4680    7.2274  217.5666 
3016.80   16.9379   20.2967  155.0148  216.3778 
3016.90   22.9795   26.3354  224.0332  216.5363 
3017.00   21.6597   22.9540  120.6338  217.8475 
3017.10   17.6393   17.1342   66.2989  219.5968 
3017.20   11.2860   12.6798   35.4354  218.9100 
3017.30    8.6760   12.2557   65.5465  217.0235 
3017.40   10.2426   12.1454  112.1702  216.9363 
3017.50   11.0435   11.2109   95.3168  216.9761 
3017.60   13.6470   12.4936   45.6571  216.4263 
3017.70   17.6971   15.8970   16.9376  215.9275 
3017.80   21.4538   17.0990   23.6767  215.5286 
3017.90   15.5688   12.7201   27.5445  215.1275 
3018.00    9.6629    9.9754   16.7288  214.8812 
3018.10   12.1815   10.1622   14.9828  214.8812 
3018.20   12.0331    9.1308   14.7958  214.8812 
3018.30   11.4276    8.4337   13.0016  214.9321 
3018.40   11.3154    8.3346   12.2308  214.9305 
3018.50   11.2586    8.4575   11.8534  214.7795 
3018.60   10.9302    8.4573   11.5459  214.6812 
3018.70   10.6799    8.2845   11.0863  214.5797 
3018.80   10.6039    8.1025   10.5857  214.5829 
3018.90   10.2610    7.7875   10.1168  214.7827 
3019.00    8.8254    7.3911    9.6254  214.9829 
3019.10    7.9855    6.6500    9.0134  215.1322 
3019.20    8.4680    6.3022    8.8423  215.3334 
3019.30    8.5734    6.7755    8.6033  215.4303 
3019.40    8.3735    6.9277    7.9968  215.3812 
3019.50    8.1225    6.5920    7.6020  215.2795 
3019.60    7.9749    6.3843    7.3280  215.0793 
3019.70    8.0562    6.3551    7.2249  215.0319 
3019.80    8.3689    6.4312    7.2200  215.0303 
3019.90    8.5900    6.5254    7.2454  215.0319 
3020.00    8.8189    6.6365    7.3005  215.1321 
3020.10    9.2133    6.8627    7.4676  215.2832 
3020.20    9.5068    7.0913    7.7319  215.3812 
3020.30    9.6351    7.1546    7.8854  215.4321 
3020.40    9.4624    7.1807    7.8390  215.4812 
3020.50    9.0815    7.1283    7.5971  215.4303 
3020.60    8.8698    7.0198    7.4198  215.3302 
3020.70    8.9006    7.0100    7.4100  215.1797 
3020.80    9.0265    7.1371    7.5168  215.0812 
3020.90    9.1962    7.2346    7.6606  215.1827 
3021.00    9.2597    7.2049    7.7712  215.3321 
3021.10    9.2247    7.2153    7.8604  215.4832 
3021.20    9.0781    7.2604    7.8546  215.6827 
3021.30    8.8686    7.1832    7.7690  215.7303 
3021.40    8.8052    6.9988    7.8115  215.6812 
3021.50    8.9421    7.0065    7.8083  215.7321 
3021.60    9.2588    7.3143    7.5928  215.5773 
3021.70    9.3891    7.3880    7.4496  215.2797 
3021.80    9.4063    7.2754    7.5878  215.1303 
3021.90    9.5764    7.3710    7.7906  215.1827 
3022.00    9.8531    7.4705    7.9978  215.2303 
3022.10   10.1269    7.6020    8.2263  215.2322 
3022.20    9.9105    7.6493    8.0313  215.2305 
3022.30    9.4523    7.5237    7.7393  215.1303 
3022.40    9.2585    7.4403    7.6793  215.0536 
3022.50    9.1768    7.4213    7.6384  214.9991 
3022.60    9.0951    7.4022    7.5975  214.9446 
3022.70    9.0136    7.3832    7.5568  214.8902 
3022.80    9.2090    7.6894    8.1270  214.9648 
3022.90    9.4919    7.4414    8.7655  214.8144 
3023.00    9.9738    7.5218    9.3705  214.8646 
3023.10   10.9296    7.2991   10.2058  215.0484 
3023.20   10.2575    7.7755   11.2926  215.1646 
3023.30   10.7673    8.4904   11.8312  215.2648 
3023.40    9.4903    7.6591   11.1826  215.4480 
3023.50    9.3685    7.5618    9.2382  215.5646 
3023.60    9.6592    7.8727    8.8215  215.5812 
3023.70    9.9436    7.7882    9.1020  215.4144 
3023.80   10.3746    7.8102    9.7955  215.4648 
3023.90   10.6001    7.8951    9.6447  215.3144 
3024.00   10.5132    7.3845    9.2897  215.2812 
3024.10   10.1973    7.1964    9.0795  215.2812 
3024.20    9.8063    7.5220    8.5996  215.3646 
3024.30   10.1999    7.8994    8.5936  215.4648 
3024.40   10.0481    7.6514    8.4932  215.4812 
3024.50    9.7080    7.5316    8.2364  215.3978 
3024.60   10.1684    7.9799    8.9593  215.3812 
3024.70   10.8789    8.5288    9.5271  215.3812 
3024.80   11.0502    8.6451    9.4929  215.4648 
3024.90   11.2519    8.7084    9.4783  215.3978 
3025.00   11.6737    8.5281    9.6468  215.4646 
3025.10   11.2316    8.1890    9.5546  215.6484 
3025.20   10.4210    7.4710    9.2464  215.6812 
3025.30    9.2933    7.5072    8.3287  215.9321 
3025.40    8.7330    7.1813    7.8847  215.9812 
3025.50    8.8185    7.3269    8.1303  215.8978 
3025.60    9.1259    7.3366    8.4576  216.0484 
3025.70    9.6388    7.6637    8.7769  215.9978 
3025.80   10.7669    7.7718    9.4739  216.0648 
3025.90   11.2536    7.7300    9.8836  215.9978 
3026.00   10.8846    8.4791    9.5897  215.6476 
3026.10   10.2230    7.9025    8.9514  215.6648 
3026.20   10.2935    7.8184    8.8483  215.6812 
3026.30   11.1077    7.9722    8.7162  215.6812 
3026.40   11.4852    8.5422    9.4240  215.7646 
3026.50   11.9971    9.1672    9.3364  215.7812 
3026.60   10.9361    9.4038    9.9171  215.6976 
3026.70   11.8695   10.0473   11.8084  215.4310 
3026.80   13.5466   10.2118   13.2303  215.2976 
3026.90   12.5538    8.9771   11.6216  215.2812 
3027.00   10.8986    6.9366    8.8410  215.2812 
3027.10    8.9727    6.8141    7.4235  215.5321 
3027.20    9.0587    7.2103    7.5486  215.8315 
3027.30    9.5330    7.5810    8.1702  215.9648 
3027.40    9.4265    7.7985    8.1549  216.2314 
3027.50    9.2732    7.7132    8.8807  216.3646 
3027.60    8.9908    7.4057    9.0049  216.3812 
3027.70    8.8316    7.2249    8.9583  216.6314 
3027.80    9.0692    7.4843    8.8831  216.7648 
3027.90    9.2785    7.5233    9.2537  216.0305 
3028.00    9.4518    7.5700   10.1141  215.1305 
3028.10   10.4500    8.0566   10.1697  214.8976 
3028.20   11.1155    8.3502    9.8831  214.9646 
3028.30   10.9173    8.1810    9.5959  215.2321 
3028.40   11.2020    8.4570    9.2497  215.4480 
3028.50   11.5620    8.3782    9.3235  215.5646 
3028.60   11.1601    8.2915    9.1075  215.6648 
3028.70   10.7030    8.2967    8.7263  215.6812 
3028.80   10.5882    8.4087    8.6934  215.5976 
3028.90   11.1889    8.8554    8.9336  215.4978 
3029.00   11.5686    8.8399    9.5722  215.4812 
3029.10   12.4060    9.2883   10.3171  215.4812 
3029.20   12.8603    9.4134   10.3983  215.3978 
3029.30   12.4935    9.1106   10.2562  215.5484 
3029.40   12.0096    8.8248    9.7045  215.6646 
3029.50   11.3961    8.4714    9.8169  215.8480 
3029.60   11.3485    8.7194   10.2530  216.1320 
3029.70   12.0940    8.8384   10.3467  216.0978 
3029.80   12.1062    9.0841   10.1242  216.1648 
3029.90   11.6963    8.5961    9.7714  216.0144 
3030.00   11.1445    8.2981    9.7183  215.7310 
3030.10   11.9196    8.7199   10.2802  215.7648 
3030.20   12.9492    9.3355   10.0230  215.9480 
3030.30   14.6669   10.3933   10.2510  215.8976 
3030.40   14.5696   10.1963   10.7354  215.8812 
3030.50   14.4733    9.8864   10.6615  215.8812 
3030.60   14.4700   10.0490   11.2237  215.9648 
3030.70   14.3199   10.4153   12.5412  215.9812 
3030.80   14.7081   11.2493   14.0176  216.0648 
3030.90   16.0412   11.0163   14.7939  216.0812 
3031.00   15.8312   11.4655   14.5163  216.1646 
3031.10   14.5693   11.7122   14.1724  216.0140 
3031.20   14.0647   12.1571   13.4860  215.8144 
3031.30   14.4615   12.1815   13.7781  215.6976 
3031.40   14.4749   11.2274   13.3011  215.9314 
3031.50   14.5017   11.0317   12.8730  216.2314 
3031.60   13.8160   10.9297   13.2699  216.3648 
3031.70   14.9980   12.1445   11.4081  216.5480 
3031.80   14.9506   11.7461   12.1572  216.4976 
3031.90   13.6471   11.3447   12.6886  216.2310 
3032.00   14.0423   12.4661   13.2922  216.0144 
3032.10   14.7804   11.6380   14.2613  216.4829 
3032.20   12.0139    9.5281   14.3800  216.9149 
3032.30    9.9265   11.8843   11.8029  217.0648 
3032.40    9.8969    8.0991    5.2524  217.3315 
3032.50    8.3651    6.8146    6.2772  217.3812 
3032.60    8.9113    7.5829    8.0663  217.0467 
3032.70    8.8214    7.8084    8.1965  216.6476 
