~Version information
VERS.                            2.00: CWLS LAS  -  VERSION 2.00
WRAP.                              NO: One line per depth step
~Well information
#MNEM.UNIT                  DATA TYPE  INFORMATION
#===.================================:==================
STRT.M                       3000.000: First depth in file
STOP.M                       3105.000: Last depth in file
STEP.M                          0.100: Depth increment
NULL.                       -9999.00 : Null values
DATE.                       : LOG DATE
TIME.                                : LOG TIME
WELL.                             F8: Well name
GRP.                        : Group name
FLD.                    F: Field name
ISS.            Окончательный каротаж: Well surveys
SRVC.     : Service Company
~Curve information
#MNEM.UNIT                   API CODE   CURVE DESCRIPTION
#===.================================:==================
DEPT.M                               : Depth curve
MGZ .OHMM                            : Градиент-микрозонд, Ом*м -  250.0 
MPZ .OHMM                            : Потенциал-микрозонд, Ом*м -  250.0
BMK .OHMM                            : БМК, Ом*м -  250.0 см
MKB .MM                              : Микрокаверномер, мм -  250.0 см
#
~Other information
#------------------ REMARKS AREA -----------------------
#=======================================================
# The file is generated by the program GeoTech-EditLog v2000.12
#Number of Curves = 4
~A Log Data Section
# ...
3065.60    5.6796    5.3086    4.4912  212.3587 
3065.70    5.8297    5.1982    4.2711  212.8992 
3065.80    6.0289    5.1611    4.1731  213.2404 
3065.90    6.0618    5.2256    4.0284  213.4107 
3066.00    6.1962    5.4949    4.2262  213.5402 
3066.10    6.3997    5.6855    4.4415  213.6812 
3066.20    6.4099    5.9087    4.3323  213.6222 
3066.30    6.8620    6.2637    4.4113  213.3629 
3066.40    7.0731    6.2138    4.9774  212.9632 
3066.50    6.5280    5.8951    5.6961  212.3861 
3066.60    5.7044    5.6217    6.0282  211.4149 
3066.70    5.0167    5.2544    6.7154  210.6041 
3066.80    4.7375    5.0382    7.2300  210.1516 
3066.90    4.9522    5.1753    6.9467  210.3468 
3067.00    5.6382    5.6084    6.1520  211.1288 
3067.10    5.7816    5.8095    5.8878  211.5108 
3067.20    6.4261    6.1674    5.8503  211.6992 
3067.30    6.8095    6.2669    5.5831  212.1587 
3067.40    6.4272    5.8556    5.2997  212.6992 
3067.50    6.3600    5.4913    5.0482  213.1878 
3067.60    5.8886    5.2428    4.9579  213.7700 
3067.70    6.2917    5.6909    4.7156  214.0402 
3067.80    7.3628    6.2604    4.4308  214.2108 
3067.90    7.1367    6.2697    4.3254  214.2812 
3068.00    7.2875    6.3774    4.4985  214.2517 
3068.10    7.1153    6.1031    4.7928  214.1220 
3068.20    6.7277    5.7813    4.9930  213.9517 
3068.30    6.0471    5.2104    4.8905  213.8220 
3068.40    5.0372    4.4600    4.3526  213.5041 
3068.50    4.2192    4.0123    3.5956  212.5500 
3068.60    4.0411    3.9345    3.2753  211.0445 
3068.70    3.9846    3.8175    3.0411  210.5697 
3068.80    3.9651    3.7933    3.0082  210.8995 
3068.90    4.2292    3.9554    3.0390  211.3878 
3069.00    4.4841    4.0400    3.2390  211.9993 
3069.10    4.4966    4.0163    3.3800  212.3995 
3069.20    4.5511    3.9630    3.3711  212.7402 
3069.30    4.5980    4.0055    3.3500  212.9995 
3069.40    4.7689    4.1195    3.3323  213.3402 
3069.50    4.7989    4.2018    3.2900  213.4812 
3069.60    4.7667    4.2714    3.2930  213.4516 
3069.70    4.6872    4.3966    3.3384  213.3517 
3069.80    4.9568    4.5310    3.4389  213.2220 
3069.90    5.3507    4.7266    3.4511  213.0517 
3070.00    5.3144    4.7369    3.5038  212.9517 
3070.10    5.0065    4.5242    3.7658  212.7924 
3070.20    4.5416    4.2787    4.0261  212.5517 
3070.30    4.0052    4.1179    4.2340  212.4220 
3070.40    3.9995    3.9641    4.4011  212.2517 
3070.50    4.1172    3.9707    4.3151  212.2402 
3070.60    4.3158    4.0466    4.0150  212.5291 
3070.70    4.5643    4.1661    3.6228  212.9993 
3070.80    4.8327    4.4183    3.6402  213.3995 
3070.90    5.4384    4.7708    4.0326  213.6517 
3071.00    5.8774    4.8987    4.3156  213.6402 
3071.10    5.5410    4.7349    4.5052  213.7516 
3071.20    5.1451    4.5180    4.4464  213.5632 
3071.30    4.9575    4.3197    4.2983  213.2516 
3071.40    4.7354    4.1321    3.8941  213.1812 
3071.50    4.3044    3.8962    3.2847  213.1517 
3071.60    4.0320    3.6993    2.9640  212.9924 
3071.70    3.7992    3.5910    3.1311  212.7517 
3071.80    3.5975    3.4322    3.1248  212.6812 
3071.90    3.5141    3.3575    3.1895  212.7402 
3072.00    3.5295    3.3243    3.2128  212.8517 
3072.10    3.7272    3.5040    3.1237  212.8404 
3072.20    4.1362    3.7597    3.1534  213.0993 
3072.30    4.3486    3.9411    3.0841  213.3812 
3072.40    4.2175    3.9082    3.0789  213.4107 
3072.50    4.1725    3.8948    3.0882  213.4222 
3072.60    4.2027    3.9093    3.0541  213.2516 
3072.70    4.0782    3.8364    3.0252  213.1812 
3072.80    4.0234    3.7238    3.0078  213.1812 
3072.90    4.0810    3.6549    3.0854  213.1222 
3073.00    4.3198    3.8425    3.2113  212.8041 
3073.10    4.0610    3.8815    3.3396  212.0854 
3073.20    3.7064    3.7782    3.4454  211.4107 
3073.30    3.7151    3.7411    3.4590  211.5108 
3073.40    3.9143    3.7289    3.3254  211.6697 
3073.50    4.1292    3.8120    3.4779  211.9697 
3073.60    4.4048    3.9630    3.6311  212.2700 
3073.70    4.4193    3.9080    3.5923  212.5993 
3073.80    4.2724    3.7304    3.6121  212.9404 
3073.90    4.0282    3.6777    3.5800  213.0517 
3074.00    4.0590    3.7554    3.0438  212.9517 
3074.10    4.2059    3.8607    2.7575  212.8516 
3074.20    4.3174    3.9808    2.6770  212.7222 
3074.30    4.3074    4.0731    2.7055  212.3445 
3074.40    3.5942    3.8162    2.7989  211.6041 
3074.50    3.2021    3.6223    2.7993  211.1222 
3074.60    3.1317    3.6007    2.7293  211.0995 
3074.70    3.5123    3.6323    2.6948  211.5878 
3074.80    3.9059    3.5693    2.7418  212.2587 
3074.90    3.8698    3.4816    2.7582  212.7697 
3075.00    3.8031    3.4018    2.6887  213.0402 
3075.10    3.9330    3.4241    2.6196  213.3291 
3075.20    3.9164    3.3746    2.7579  213.7402 
3075.30    3.7565    3.2367    2.9851  213.8812 
3075.40    3.5218    3.0982    3.0633  213.8517 
3075.50    3.5205    3.0818    2.8623  213.7812 
3075.60    3.5535    3.1869    2.8170  213.7516 
3075.70    3.9062    3.4261    2.9074  213.6812 
3075.80    4.0742    3.5008    3.0660  213.6516 
3075.90    3.7136    3.3069    2.8487  213.3451 
3076.00    3.3548    3.2007    2.7559  212.5156 
3076.10    3.4433    3.2825    2.7641  211.8516 
3076.20    3.6556    3.4131    2.8621  211.7812 
3076.30    3.9162    3.6258    3.2306  211.8108 
3076.40    4.1769    3.9894    3.4848  211.9107 
3076.50    4.5951    4.4851    3.4521  211.9517 
3076.60    4.9114    4.7866    3.2959  211.9404 
3076.70    5.2254    4.8500    3.3395  212.1107 
3076.80    5.6305    4.7701    3.5402  212.1812 
3076.90    5.2342    4.5859    3.7910  212.1517 
3077.00    4.7064    4.5380    3.4464  211.9336 
3077.10    4.0928    4.2480    2.8594  211.5516 
3077.20    3.6690    3.7536    2.5787  211.4812 
3077.30    3.2202    3.2202    2.4415  211.5108 
3077.40    2.8577    2.8164    2.3500  211.6992 
3077.50    2.9531    2.7659    2.3146  212.0402 
3077.60    3.1303    2.8007    2.2241  212.3587 
3077.70    3.2913    2.8707    2.2336  212.8107 
3077.80    3.4196    2.9437    2.2930  212.9404 
3077.90    3.5343    3.0266    2.2970  213.1402 
3078.00    3.6016    3.0693    2.2575  213.1927 
3078.10    3.4508    2.9667    2.1800  212.9220 
3078.20    3.2893    2.8400    2.1830  212.7517 
3078.30    3.2844    2.8607    2.2225  212.6812 
3078.40    3.3310    2.8746    2.3797  212.5632 
3078.50    3.1369    2.7959    2.6556  212.1632 
3078.60    3.0958    2.8840    2.7772  211.8516 
3078.70    3.3767    3.1338    2.6007  211.8107 
3078.80    3.6428    3.3810    2.6678  211.9404 
3078.90    3.9433    3.6061    2.6805  212.2288 
3079.00    4.1605    3.6839    2.5539  212.6107 
3079.10    3.9480    3.4346    2.4466  212.7700 
3079.20    3.5746    3.1039    2.6103  212.9812 
3079.30    3.4367    2.9463    2.9033  213.0108 
3079.40    3.3572    2.9077    2.9739  213.0222 
3079.50    3.4110    2.9352    2.7249  212.7632 
3079.60    3.3055    2.9503    2.4914  212.4812 
3079.70    3.4343    3.1408    2.5900  212.3041 
3079.80    3.4512    3.2538    2.5545  211.6149 
3079.90    3.1515    3.0757    2.4493  210.8632 
3080.00    2.9370    2.9611    2.3675  210.6107 
3080.10    2.9921    2.9400    2.2959  210.8587 
3080.20    3.1813    2.9489    2.3602  211.3992 
3080.30    3.2534    2.9730    2.5185  211.7108 
3080.40    3.1870    2.9711    2.4890  211.7812 
3080.50    3.1416    2.9293    2.1498  211.8107 
3080.60    3.0589    2.8504    2.0034  211.8812 
3080.70    3.1685    2.7918    1.9548  211.8222 
3080.80    3.2321    2.7520    2.0285  211.6812 
3080.90    2.8534    2.6048    2.1466  211.6222 
3081.00    2.7634    2.6695    2.2011  211.2451 
3081.10    2.6675    2.7341    2.1060  210.6812 
3081.20    2.6461    2.7643    1.9359  210.7107 
3081.30    2.9072    2.9854    1.9796  210.9291 
3081.40    3.2543    3.2216    2.1179  211.2812 
3081.50    3.2065    3.0179    2.2564  211.3697 
3081.60    2.8548    2.7204    2.1734  211.6700 
3081.70    2.8959    2.6264    2.1336  211.9402 
3081.80    2.9100    2.5759    2.2137  212.1108 
3081.90    2.9307    2.6107    2.3113  212.1812 
