~Version information
VERS.                            2.00: CWLS LAS  -  VERSION 2.00
WRAP.                              NO: One line per depth step
~Well information
#MNEM.UNIT                  DATA TYPE  INFORMATION
#===.================================:==================
STRT.M                       3000.000: First depth in file
STOP.M                       3106.000: Last depth in file
STEP.M                          0.100: Depth increment
NULL.                       -9999.00 : Null values
DATE.                       : LOG DATE
TIME.                                : LOG TIME
WELL.                             F8: Well name
GRP.                        : Group name
FLD.                    F: Field name
ISS.            Окончательный каротаж: Well surveys
SRVC.     : Service Company
~Curve information
#MNEM.UNIT                   API CODE   CURVE DESCRIPTION
#===.================================:==================
DEPT.M                               : Depth curve
GK  .MKR/H                           : Гамма-активность, мкр./ч -   67.0 
WSAT.PERC                            : Водонасыщенная пористость, % -  22
NKT2.PRIV                            : Малый зонд приведенный,  -  230.0 
NKT1.PRIV                            : Большой зонд приведенный,  -  219.
#
~Other information
#------------------ REMARKS AREA -----------------------
#=======================================================
# The file is generated by the program GeoTech-EditLog v2000.12
#Number of Curves = 4
~A Log Data Section
# ...
3016.40    2.8585   39.0013    1.3911    1.5289 
3016.50    3.1733   39.0823    1.3700    1.5441 
3016.60    3.4280   38.9720    1.3720    1.5200 
3016.70    3.4550   38.7421    1.3788    1.4862 
3016.80    3.1250   38.3241    1.3718    1.5862 
3016.90    2.9112   38.0522    1.3782    1.6100 
3017.00    2.5859   37.9528    1.4127    1.5855 
3017.10    2.3566   37.4661    1.4445    1.5800 
3017.20    2.5242   36.0371    1.4745    1.6208 
3017.30    2.9132   34.5471    1.5045    1.6872 
3017.40    3.6106   32.6876    1.5263    1.7735 
3017.50    4.2239   30.9900    1.5545    1.9207 
3017.60    4.9591   29.4317    1.5845    2.1052 
3017.70    6.0146   27.6311    1.6635    2.2625 
3017.80    6.9554   25.9582    1.7535    2.5024 
3017.90    7.8386   24.0186    1.8598    2.8113 
3018.00    8.8416   21.5174    1.9944    3.2459 
3018.10    9.7163   19.7327    2.0282    3.5915 
3018.20   11.0378   18.9827    2.0137    3.7725 
3018.30   12.2560   18.6349    2.0590    3.8082 
3018.40   12.8783   18.3432    2.0618    3.8917 
3018.50   13.3213   18.1511    2.0600    3.9509 
3018.60   13.7268   18.0138    2.0600    4.0172 
3018.70   14.1593   17.9573    2.0682    4.0627 
3018.80   14.1011   18.0399    2.0782    4.0128 
3018.90   13.7760   18.1090    2.0637    4.0082 
3019.00   13.8571   18.0791    2.0518    4.0100 
3019.10   13.4243   18.1435    2.0418    3.8956 
3019.20   13.2302   18.0457    2.0563    3.8945 
3019.30   12.8913   17.6523    2.0845    4.0798 
3019.40   12.6077   17.3658    2.1063    4.0628 
3019.50   12.6172   17.1484    2.1100    4.1399 
3019.60   13.0712   16.9302    2.1018    4.2907 
3019.70   13.4803   16.9880    2.0918    4.2220 
3019.80   13.4111   17.1162    2.0818    4.0448 
3019.90   13.1105   16.9767    2.0800    4.0835 
3020.00   12.7967   16.7439    2.0800    4.0673 
3020.10   12.6910   16.4140    2.0718    4.1580 
3020.20   12.7127   16.1295    2.0782    4.3270 
3020.30   12.9651   15.9493    2.0882    4.3110 
3020.40   13.0772   15.8792    2.0737    4.3000 
3020.50   12.6406   15.7638    2.0782    4.3572 
3020.60   12.2704   15.5766    2.1045    4.4762 
3020.70   11.8752   15.4175    2.1182    4.5327 
3020.80   11.7755   15.4063    2.1282    4.5155 
3020.90   11.2800   15.3038    2.1382    4.5835 
3021.00   11.3498   15.1901    2.1563    4.6980 
3021.10   11.6106   15.2435    2.1518    4.7200 
3021.20   11.6355   15.3090    2.1745    4.7200 
3021.30   11.4094   15.4099    2.1882    4.6873 
3021.40   11.3437   15.4545    2.1900    4.6963 
3021.50   11.2910   15.4927    2.1900    4.6673 
3021.60   11.0676   15.4183    2.2145    4.6763 
3021.70   10.8893   15.2693    2.2282    4.7372 
3021.80   11.1460   15.1665    2.2300    4.7990 
3021.90   11.1120   15.1827    2.2055    4.8263 
3022.00   11.4822   15.3126    2.2000    4.8137 
3022.10   11.5618   15.4626    2.1918    4.7528 
3022.20   11.3803   15.6043    2.1900    4.6502 
3022.30   10.9805   15.6709    2.1900    4.6790 
3022.40   11.0552   15.8433    2.1655    4.5920 
3022.50   10.9266   16.0843    2.1518    4.4474 
3022.60   10.7920   16.1055    2.1418    4.4118 
3022.70   10.5985   16.0673    2.1482    4.4182 
3022.80   10.5682   16.0437    2.1173    4.5099 
3022.90   10.1127   16.2360    2.1100    4.4728 
3023.00    9.7894   16.3780    2.1263    4.4682 
3023.10    9.3641   16.5062    2.1300    4.4618 
3023.20    9.3163   16.5948    2.1248    4.4756 
3023.30    9.3672   16.6857    2.1175    4.4974 
3023.40    9.5721   16.8838    2.1148    4.4669 
3023.50   10.2170   17.2173    2.1373    4.2976 
3023.60   10.7571   17.2351    2.1527    4.2827 
3023.70   10.9042   17.2176    2.1348    4.2672 
3023.80   11.1516   17.1931    2.1548    4.3069 
3023.90   11.0845   17.1352    2.1700    4.3455 
3024.00   11.2967   17.0958    2.1748    4.3169 
3024.10   11.0227   16.9956    2.1924    4.3627 
3024.20   10.6634   16.8524    2.2048    4.3569 
3024.30   10.6066   16.5916    2.2152    4.4100 
3024.40   10.6200   16.4086    2.1976    4.4317 
3024.50   10.4678   16.3076    2.1876    4.4758 
3024.60   10.5995   16.2683    2.1824    4.4073 
3024.70   10.2945   16.1096    2.1876    4.4566 
3024.80   10.1611   15.8885    2.1752    4.5376 
3024.90   10.3262   15.7683    2.1624    4.5179 
3025.00   10.4908   15.6564    2.1724    4.4969 
3025.10   10.7427   15.4420    2.1824    4.5988 
3025.20   11.0203   15.1710    2.1972    4.7693 
3025.30   10.9416   15.0727    2.2224    4.8276 
3025.40   10.7634   15.0741    2.2228    4.8152 
3025.50   10.7599   15.1718    2.2000    4.7564 
3025.60   10.9637   15.2254    2.1951    4.6541 
3025.70   10.8031   15.1848    2.1848    4.7552 
3025.80   10.6774   15.1903    2.2048    4.7352 
3025.90   10.3172   15.1359    2.2248    4.7200 
3026.00    9.8008   15.0019    2.2424    4.7442 
3026.10    9.4144   14.7785    2.2476    4.8444 
3026.20    9.2114   14.6476    2.2352    4.9393 
3026.30    9.3027   14.6569    2.2248    4.9782 
3026.40    9.2848   14.7100    2.2328    4.8955 
3026.50    9.3968   14.7124    2.2076    4.8452 
3026.60    9.9512   14.7298    2.1951    4.8129 
3026.70   10.8821   14.7745    2.1752    4.7238 
3026.80   11.4302   14.8224    2.1503    4.5955 
3026.90   11.6717   14.7890    2.1297    4.5645 
3027.00   11.8320   14.5753    2.1648    4.6681 
3027.10   12.1639   14.2490    2.1946    4.8939 
3027.20   12.3072   14.0359    2.2400    5.0252 
3027.30   12.2308   13.9552    2.2400    5.0173 
3027.40   11.7341   13.9231    2.2400    5.0207 
3027.50   11.1911   13.8240    2.2424    5.0181 
3027.60   11.4029   13.6800    2.2524    5.2146 
3027.70   11.6793   13.6921    2.2600    5.2383 
3027.80   11.5972   13.7324    2.2624    5.1845 
3027.90   11.0872   13.7521    2.2700    5.2300 
3028.00   10.9045   13.8166    2.2676    5.2106 
3028.10   10.9256   13.9293    2.2527    5.1427 
3028.20   10.9031   14.0490    2.2276    5.1441 
3028.30   10.9199   14.1787    2.2248    5.1837 
3028.40   10.3244   14.3338    2.2424    5.0676 
3028.50    9.9203   14.4545    2.2500    5.0479 
3028.60    9.8702   14.5081    2.2512    5.0077 
3028.70    9.7894   14.5414    2.2559    4.9982 
3028.80    9.7013   14.5671    2.2629    4.9842 
3028.90    9.6368   14.5372    2.2800    4.9571 
3029.00    9.8840   14.4499    2.2786    4.9986 
3029.10    9.7147   14.3785    2.2714    4.9871 
3029.20    9.9426   14.2884    2.2800    4.9700 
3029.30    9.6466   14.1470    2.2757    4.9614 
3029.40    9.2341   14.0331    2.2500    4.9242 
3029.50    9.3469   13.7726    2.2486    5.0230 
3029.60    9.0317   13.5341    2.2400    5.1274 
3029.70    8.3372   13.4400    2.2429    5.2914 
3029.80    8.3397   13.4486    2.2672    5.3086 
3029.90    8.0390   13.4901    2.3157    5.3813 
3030.00    7.6513   13.4386    2.3486    5.5114 
3030.10    7.4809   13.5044    2.3414    5.5229 
3030.20    7.1170   13.6101    2.3514    5.5443 
3030.30    7.0112   13.7545    2.3614    5.5585 
3030.40    6.8911   13.9227    2.3700    5.4985 
3030.50    7.2345   14.0888    2.3686    5.5356 
3030.60    7.4948   14.3004    2.3614    5.4399 
3030.70    7.8013   14.5803    2.3671    5.3455 
3030.80    7.6180   14.8445    2.3471    5.1285 
3030.90    7.1475   14.9914    2.3300    5.0600 
3031.00    6.9260   14.9986    2.3314    5.0758 
3031.10    7.1559   14.9943    2.3414    5.1960 
3031.20    7.2644   15.0589    2.3529    5.3601 
3031.30    7.3111   15.3418    2.3686    5.3984 
3031.40    7.1282   15.7280    2.3529    5.2445 
3031.50    7.4387   16.2820    2.3042    5.0583 
3031.60    7.5197   16.8594    2.2671    4.8368 
3031.70    7.4076   17.4735    2.2428    4.6414 
3031.80    7.8215   18.0736    2.1914    4.5968 
3031.90    7.8843   18.7907    2.1357    4.2431 
3032.00    7.9047   19.4806    2.1014    3.9768 
3032.10    8.3180   20.0379    2.0399    3.6710 
3032.20    8.8299   20.4928    1.9742    3.3728 
3032.30    8.8060   20.3579    1.9472    3.3473 
3032.40    9.1164   19.6540    2.0056    3.5025 
3032.50    9.7302   18.5618    2.1072    3.8589 
3032.60    9.9288   17.5949    2.1514    4.1160 
3032.70    9.9465   17.0511    2.1614    4.2830 
