~Version information
VERS.                            2.00: CWLS LAS  -  VERSION 2.00
WRAP.                              NO: One line per depth step
~Well information
#MNEM.UNIT                  DATA TYPE  INFORMATION
#===.================================:==================
STRT.M                       3000.000: First depth in file
STOP.M                       3106.000: Last depth in file
STEP.M                          0.100: Depth increment
NULL.                       -9999.00 : Null values
DATE.                       : LOG DATE
TIME.                                : LOG TIME
WELL.                             F8: Well name
GRP.                        : Group name
FLD.                    F: Field name
ISS.            Окончательный каротаж: Well surveys
SRVC.     : Service Company
~Curve information
#MNEM.UNIT                   API CODE   CURVE DESCRIPTION
#===.================================:==================
DEPT.M                               : Depth curve
GK  .MKR/H                           : Гамма-активность, мкр./ч -   67.0 
WSAT.PERC                            : Водонасыщенная пористость, % -  22
NKT2.PRIV                            : Малый зонд приведенный,  -  230.0 
NKT1.PRIV                            : Большой зонд приведенный,  -  219.
#
~Other information
#------------------ REMARKS AREA -----------------------
#=======================================================
# The file is generated by the program GeoTech-EditLog v2000.12
#Number of Curves = 4
~A Log Data Section
# ...
3032.80    9.3238   16.8114    2.1671    4.3801 
3032.90    8.9555   16.7955    2.1486    4.4943 
3033.00    9.1244   17.0402    2.1414    4.4614 
3033.10    9.1912   17.2719    2.1529    4.4527 
3033.20    9.0901   17.6102    2.1700    4.3543 
3033.30    9.1788   17.8145    2.1671    4.3699 
3033.40    9.3429   18.0040    2.1514    4.2873 
3033.50    9.3158   18.2873    2.1600    4.1601 
3033.60    9.4374   18.4102    2.1586    4.2113 
3033.70    9.6173   18.5746    2.1457    4.1514 
3033.80    9.7013   18.8774    2.1171    4.0842 
3033.90    9.5744   19.1184    2.1014    3.9801 
3034.00    9.4584   19.2487    2.1057    3.9229 
3034.10    9.3531   19.3889    2.0771    3.9371 
3034.20    9.5360   19.6176    2.0571    3.9085 
3034.30    9.8489   20.0305    2.0342    3.8141 
3034.40   10.0630   20.5053    1.9957    3.6089 
3034.50    9.9082   20.8256    1.9642    3.2813 
3034.60    9.6029   20.6780    1.9213    3.1541 
3034.70    9.6188   20.2923    1.8691    3.0633 
3034.80    9.6105   20.1693    1.8628    3.0862 
3034.90    9.5994   20.0067    1.8546    3.1165 
3035.00    9.5867   19.8186    1.8450    3.1516 
3035.10    9.6228   19.4346    1.8400    3.2509 
3035.20   10.0637   18.5698    1.9064    3.5060 
3035.30   10.8567   17.5462    2.0228    3.8279 
3035.40   11.4824   16.7532    2.0890    4.0986 
3035.50   11.6163   16.2230    2.1052    4.2490 
3035.60   11.4800   15.9929    2.0952    4.3271 
3035.70   11.3282   15.8778    2.0947    4.4327 
3035.80   10.9698   15.7772    2.1285    4.4990 
3035.90   10.5798   15.5972    2.1885    4.6196 
3036.00   10.6083   15.3644    2.2248    4.7918 
3036.10   10.8124   15.3128    2.2300    4.9076 
3036.20   10.7315   15.5118    2.2205    4.8699 
3036.30   10.5002   15.8132    2.2005    4.7415 
3036.40   10.6120   16.1924    2.1663    4.5630 
3036.50   11.2321   16.5118    2.1448    4.4143 
3036.60   11.7383   16.5895    2.1548    4.4490 
3036.70   12.0659   16.6759    2.1505    4.4747 
3036.80   12.0406   16.8979    2.1305    4.4039 
3036.90   12.1192   17.1923    2.1200    4.3058 
3037.00   12.4970   17.4023    2.1152    4.2805 
3037.10   12.6700   17.6074    2.1005    4.3318 
3037.20   12.8787   18.0309    2.0805    4.3478 
3037.30   13.1623   18.6862    2.0557    4.1568 
3037.40   13.2579   19.4031    2.0400    3.9246 
3037.50   13.2191   19.9498    2.0210    3.7682 
3037.60   13.1966   20.2889    1.9905    3.6382 
3037.70   13.0376   20.5291    1.9658    3.5226 
3037.80   12.7372   20.6880    1.9405    3.3987 
3037.90   12.7327   20.6446    1.9300    3.3058 
3038.00   12.7182   20.2837    1.9633    3.3518 
3038.10   12.6024   19.6333    2.0238    3.4961 
3038.20   12.4314   18.8985    2.0737    3.6796 
3038.30   12.0146   18.2204    2.1238    3.8709 
3038.40   11.5482   17.5248    2.1547    4.0786 
3038.50   11.2754   16.9821    2.1552    4.2813 
3038.60   11.1505   16.8110    2.1452    4.3600 
3038.70   11.3202   16.8232    2.1400    4.3315 
3038.80   11.6627   16.8410    2.1400    4.3238 
3038.90   11.7868   16.8105    2.1447    4.3073 
3039.00   11.9022   16.7762    2.1405    4.2505 
3039.10   12.0938   16.6882    2.1205    4.2495 
3039.20   11.9635   16.5915    2.1053    4.2410 
3039.30   12.1182   16.4934    2.1095    4.1962 
3039.40   12.6508   16.2682    2.1153    4.1842 
3039.50   13.1063   15.8812    2.1195    4.3237 
3039.60   13.3096   15.4926    2.1348    4.5646 
3039.70   13.2527   15.3347    2.1495    4.6610 
3039.80   13.3143   15.3638    2.1695    4.6495 
3039.90   13.4011   15.3094    2.1847    4.7027 
3040.00   13.2993   15.1867    2.2043    4.8023 
3040.10   12.9954   15.1405    2.2248    4.8790 
3040.20   12.9654   15.2249    2.2300    4.8573 
3040.30   13.1932   15.3490    2.2348    4.8052 
3040.40   13.1360   15.4222    2.2258    4.8285 
3040.50   12.6341   15.5276    2.2195    4.8552 
3040.60   12.2729   15.6371    2.2490    4.7787 
3040.70   12.3855   15.7379    2.2558    4.6383 
3040.80   12.4088   15.7800    2.2210    4.6413 
3040.90   12.3291   15.7515    2.2142    4.7105 
3041.00   12.4595   15.6915    2.2300    4.6429 
3041.10   12.3796   15.5696    2.2252    4.6418 
3041.20   12.1756   15.4321    2.2105    4.7005 
3041.30   11.8602   15.4090    2.2000    4.7138 
3041.40   11.4930   15.4585    2.1953    4.8349 
3041.50   11.3015   15.6374    2.1948    4.8877 
3041.60   11.2605   15.9379    2.1952    4.7824 
3041.70   11.2263   16.3604    2.1710    4.5924 
3041.80   11.1905   16.7932    2.1452    4.4115 
3041.90   11.2037   17.1013    2.1210    4.3041 
3042.00   11.3251   17.3989    2.0905    4.1629 
3042.10   11.1351   17.6109    2.0657    4.0239 
3042.20   10.7104   17.7190    2.0358    3.9542 
3042.30   10.5049   17.7828    1.9962    3.8891 
3042.40   10.6182   17.9486    1.9415    3.7194 
3042.50   11.1121   18.0752    1.9005    3.6015 
3042.60   11.6611   17.8227    1.9376    3.6604 
3042.70   12.2256   16.9855    2.0517    3.9308 
3042.80   12.3535   15.9890    2.1390    4.3150 
3042.90   12.0372   15.3760    2.1600    4.5917 
3043.00   11.4952   15.0739    2.1648    4.6743 
3043.10   10.7080   14.9377    2.1843    4.7185 
3043.20   10.0639   14.7994    2.2047    4.7737 
3043.30    9.6468   14.6482    2.2195    4.8048 
3043.40    9.2154   14.4946    2.2347    4.7815 
3043.50    8.8001   14.2002    2.2590    4.7928 
3043.60    8.6377   13.7041    2.2800    4.9541 
3043.70    8.5705   13.2340    2.2942    5.1274 
3043.80    8.2746   12.8550    2.3100    5.2133 
3043.90    7.7371   12.4028    2.3242    5.3733 
3044.00    7.5994   11.9688    2.3638    5.6004 
3044.10    7.5298   11.6183    2.3995    5.9045 
3044.20    7.1208   11.3499    2.4337    6.1964 
3044.30    6.6955   11.2024    2.4790    6.3318 
3044.40    6.4083   11.1263    2.5047    6.4759 
3044.50    6.2924   11.1333    2.5100    6.6028 
3044.60    6.2971   11.2937    2.5148    6.5644 
3044.70    6.3173   11.5770    2.4963    6.4131 
3044.80    6.1844   11.8732    2.4605    6.3548 
3044.90    6.0758   12.1955    2.4453    6.2556 
3045.00    6.1979   12.5612    2.4305    6.1020 
3045.10    6.3785   12.8737    2.4295    6.0220 
3045.20    6.5381   13.1523    2.4495    5.9326 
3045.30    6.6562   13.4860    2.4362    5.7326 
3045.40    6.7676   13.8697    2.3863    5.4324 
3045.50    7.2482   14.1513    2.3315    5.2610 
3045.60    7.6909   14.3204    2.2952    5.2020 
3045.70    7.7468   14.5006    2.2900    5.1363 
3045.80    7.6720   14.6233    2.2900    5.1100 
3045.90    7.4640   14.7074    2.2947    5.0626 
3046.00    7.2324   14.7362    2.3000    5.0100 
3046.10    7.1467   14.7195    2.2905    5.0480 
3046.20    7.0341   14.7537    2.2800    5.0046 
3046.30    7.1260   14.7848    2.2800    4.9576 
3046.40    7.4860   14.8327    2.2610    4.9626 
3046.50    7.6890   14.9418    2.2305    4.8387 
3046.60    7.7005   15.0243    2.2105    4.7838 
3046.70    7.5999   15.0400    2.2142    4.8527 
3046.80    7.2860   15.0162    2.2443    4.9190 
3046.90    7.0737   14.9758    2.2695    4.9447 
3047.00    7.1095   14.9600    2.2752    5.0071 
3047.10    6.9298   15.0551    2.2748    5.0034 
3047.20    6.4781   15.2169    2.2705    4.9395 
3047.30    6.3717   15.3323    2.2552    4.9595 
3047.40    6.7350   15.5181    2.2547    4.8846 
3047.50    6.9923   15.7171    2.2410    4.7567 
3047.60    6.9639   15.8130    2.2163    4.6870 
3047.70    6.7834   15.8821    2.2087    4.6179 
3047.80    6.6025   15.9514    2.2010    4.5486 
3047.90    6.2911   16.0125    2.1825    4.5225 
3048.00    6.3463   15.9850    2.1625    4.4412 
3048.10    6.5619   15.9537    2.1512    4.4037 
3048.20    6.3273   15.8274    2.1325    4.4613 
3048.30    6.1149   15.7575    2.1212    4.4612 
3048.40    6.1338   15.6537    2.1463    4.5563 
3048.50    6.4027   15.5437    2.1850    4.6400 
3048.60    6.7911   15.4773    2.1812    4.6763 
3048.70    7.1552   15.5838    2.1625    4.6800 
3048.80    7.3401   15.7138    2.1688    4.5399 
3048.90    7.6576   15.7300    2.1875    4.5375 
3049.00    8.1466   15.6775    2.1637    4.5050 
3049.10    8.2802   15.5910    2.1688    4.5351 
