~Version information
VERS.                            2.00: CWLS LAS  -  VERSION 2.00
WRAP.                              NO: One line per depth step
~Well information
#MNEM.UNIT                  DATA TYPE  INFORMATION
#===.================================:==================
STRT.M                       3000.000: First depth in file
STOP.M                       3106.000: Last depth in file
STEP.M                          0.100: Depth increment
NULL.                       -9999.00 : Null values
DATE.                       : LOG DATE
TIME.                                : LOG TIME
WELL.                             F8: Well name
GRP.                        : Group name
FLD.                    F: Field name
ISS.            Окончательный каротаж: Well surveys
SRVC.     : Service Company
~Curve information
#MNEM.UNIT                   API CODE   CURVE DESCRIPTION
#===.================================:==================
DEPT.M                               : Depth curve
GK  .MKR/H                           : Гамма-активность, мкр./ч -   67.0 
WSAT.PERC                            : Водонасыщенная пористость, % -  22
NKT2.PRIV                            : Малый зонд приведенный,  -  230.0 
NKT1.PRIV                            : Большой зонд приведенный,  -  219.
#
~Other information
#------------------ REMARKS AREA -----------------------
#=======================================================
# The file is generated by the program GeoTech-EditLog v2000.12
#Number of Curves = 4
~A Log Data Section
# ...
3049.20    8.3425   15.4311    2.1525    4.5575 
3049.30    8.2537   15.3662    2.1500    4.6738 
3049.40    8.2137   15.3863    2.1675    4.7338 
3049.50    7.8160   15.3900    2.2138    4.7050 
3049.60    7.5142   15.2671    2.2463    4.7702 
3049.70    7.2874   15.1449    2.2412    4.9376 
3049.80    7.4439   15.2088    2.2488    4.9075 
3049.90    7.3037   15.3951    2.2237    4.9088 
3050.00    7.4726   15.6564    2.1937    4.7174 
3050.10    7.2806   15.7251    2.2163    4.6373 
3050.20    7.1099   15.7037    2.2112    4.6388 
3050.30    6.9674   15.7175    2.2012    4.6488 
3050.40    7.0550   15.8688    2.1737    4.4662 
3050.50    7.1926   15.8988    2.1262    4.3174 
3050.60    6.9642   15.8386    2.0849    4.3966 
3050.70    7.3065   15.7687    2.0888    4.4188 
3050.80    7.0710   15.7425    2.1075    4.4200 
3050.90    7.1788   15.5824    2.1275    4.5338 
3051.00    7.2525   15.4724    2.1475    4.6463 
3051.10    7.1020   15.4600    2.1588    4.6600 
3051.20    7.3777   15.5213    2.1600    4.6775 
3051.30    7.2711   15.6526    2.1600    4.5749 
3051.40    7.3200   15.7750    2.1337    4.5337 
3051.50    7.1549   15.9213    2.1300    4.5563 
3051.60    7.0510   16.0892    2.1300    4.5249 
3051.70    7.1188   16.2676    2.1300    4.5200 
3051.80    7.0862   16.4476    2.1388    4.4762 
3051.90    6.7736   16.6188    2.1488    4.3912 
3052.00    6.7125   16.5962    2.1500    4.4588 
3052.10    6.5520   16.6427    2.1500    4.4437 
3052.20    6.8540   16.6412    2.1588    4.4750 
3052.30    7.1539   16.7363    2.1512    4.4975 
3052.40    7.0149   16.9513    2.1412    4.3775 
3052.50    7.1564   17.2077    2.1312    4.4125 
3052.60    7.2502   17.5560    2.1212    4.3322 
3052.70    7.3125   17.8802    2.1288    4.3112 
3052.80    7.3200   18.1389    2.1563    4.2049 
3052.90    7.3900   18.2575    2.1688    4.1725 
3053.00    7.6977   18.1912    2.1788    4.1437 
3053.10    7.6961   18.1098    2.1624    4.0961 
3053.20    7.4536   17.9862    2.1512    4.0988 
3053.30    7.4813   17.7774    2.1500    4.0912 
3053.40    7.0874   17.6625    2.1237    4.2388 
3053.50    6.8111   17.6150    2.1375    4.2250 
3053.60    6.9029   17.5837    2.1488    4.3692 
3053.70    6.9813   17.7901    2.1325    4.3200 
3053.80    6.7711   18.0827    2.1388    4.0999 
3053.90    6.9238   18.1725    2.1050    4.0963 
3054.00    6.9938   18.2500    2.0825    4.1000 
3054.10    6.4909   18.3653    2.1063    3.9947 
3054.20    6.3500   18.2224    2.1363    4.0676 
3054.30    6.4100   18.0687    2.1400    4.1763 
3054.40    6.7351   18.1288    2.1137    4.1200 
3054.50    7.1565   18.3064    2.0837    4.0224 
3054.60    7.4558   18.5494    2.0361    3.9398 
3054.70    7.1485   18.6763    2.0300    3.9650 
3054.80    7.1263   18.9702    2.0212    3.8912 
3054.90    7.3313   19.2201    2.0375    3.9063 
3055.00    7.2724   19.3551    2.0488    3.8487 
3055.10    7.2776   19.6333    2.0237    3.7786 
3055.20    7.3150   19.8801    2.0025    3.6737 
3055.30    7.0135   20.0326    2.0000    3.6950 
3055.40    7.0138   20.3038    1.9912    3.7088 
3055.50    7.0550   20.6902    1.9725    3.6400 
3055.60    7.5954   21.2667    1.9524    3.4018 
3055.70    8.0990   21.7778    1.8975    3.2912 
3055.80    8.7379   22.0151    1.8900    3.2975 
3055.90    8.4524   22.0663    1.9075    3.2912 
3056.00    8.2774   22.1751    1.9363    3.2287 
3056.10    8.6023   22.0759    1.9488    3.2112 
3056.20    9.5606   21.8323    1.9412    3.2625 
3056.30   10.5043   21.6249    1.9312    3.4189 
3056.40   11.0489   21.7751    1.9300    3.3787 
3056.50   11.6003   21.8963    1.9475    3.3350 
3056.60   12.0123   21.9100    1.9324    3.3651 
3056.70   12.0337   22.1639    1.9125    3.3087 
3056.80   12.3978   22.4364    1.8925    3.2037 
3056.90   12.4325   22.5750    1.8900    3.1550 
3057.00   12.5176   22.6513    1.8812    3.1325 
3057.10   12.2579   22.8004    1.8537    3.1914 
3057.20   12.0711   23.1702    1.8237    3.0774 
3057.30   12.4265   23.5352    1.8375    2.9111 
3057.40   12.5238   23.5012    1.8312    2.8725 
3057.50   12.8277   23.1485    1.8212    2.9400 
3057.60   12.7471   22.8279    1.8288    2.9588 
3057.70   12.6950   22.6236    1.8475    3.0388 
3057.80   12.9001   22.3986    1.8412    3.1025 
3057.90   13.2801   22.4313    1.8137    3.0487 
3058.00   13.7941   22.7027    1.7925    3.0225 
3058.10   14.6763   22.9770    1.7549    2.9322 
3058.20   15.3504   23.1851    1.7325    2.8324 
3058.30   15.4913   23.2888    1.7212    2.7675 
3058.40   15.8764   23.1862    1.7112    2.7337 
3058.50   15.9125   22.8460    1.7363    2.7825 
3058.60   16.3313   22.2470    1.7663    2.9217 
3058.70   16.5651   21.8373    1.7788    3.0801 
3058.80   16.7914   21.7725    1.7800    3.0037 
3058.90   17.3539   21.7612    1.7625    2.9725 
3059.00   17.5176   21.5674    1.7600    2.9788 
3059.10   17.2403   21.3732    1.7424    2.9976 
3059.20   16.3769   21.1924    1.7488    3.0088 
3059.30   15.7609   21.0737    1.7588    3.1764 
3059.40   15.2699   21.1125    1.7688    3.0862 
3059.50   15.2100   21.1112    1.7612    3.1225 
3059.60   15.7015   21.1627    1.7512    3.1037 
3059.70   15.5423   21.3626    1.7325    3.0475 
3059.80   15.9566   21.4776    1.7212    3.0750 
3059.90   16.3701   21.8489    1.7025    2.9312 
3060.00   16.6126   22.1452    1.6912    2.9538 
3060.10   16.6224   22.2766    1.7076    3.0390 
3060.20   16.9878   22.4826    1.7450    2.9537 
3060.30   17.0663   22.6413    1.7500    2.9575 
3060.40   17.0175   22.5900    1.7675    2.9250 
3060.50   17.4566   22.5012    1.7788    2.8762 
3060.60   17.7570   22.1652    1.7800    2.9139 
3060.70   18.0527   21.9011    1.7800    2.9463 
3060.80   18.2564   21.4760    1.7975    3.0376 
3060.90   18.6826   21.1924    1.8175    3.1200 
3061.00   19.0114   21.0374    1.8025    3.1475 
3061.10   19.2870   20.9498    1.8176    3.1851 
3061.20   20.4233   20.8612    1.8375    3.2600 
3061.30   21.0528   20.7449    1.8488    3.2437 
3061.40   21.4351   20.7125    1.8588    3.3625 
3061.50   22.4957   20.8589    1.8600    3.3362 
3061.60   22.8507   21.0117    1.8600    3.2861 
3061.70   22.8800   21.0212    1.8775    3.2975 
3061.80   23.1865   21.0112    1.8888    3.3525 
3061.90   23.5364   20.9750    1.8812    3.3688 
3062.00   23.6150   21.0838    1.8888    3.2387 
3062.10   23.8394   21.0034    1.8812    3.2463 
3062.20   24.3779   20.9024    1.8712    3.2500 
3062.30   24.6164   20.8812    1.8437    3.2325 
3062.40   24.5525   20.8012    1.8488    3.2738 
3062.50   24.2335   20.6937    1.8588    3.3063 
3062.60   24.2514   20.6186    1.8776    3.3802 
3062.70   24.2600   20.5925    1.8888    3.3287 
3062.80   24.4526   20.5550    1.8900    3.3112 
3062.90   24.4975   20.4362    1.8900    3.2925 
3063.00   24.4387   20.2974    1.8812    3.2988 
3063.10   23.6839   20.1483    1.8537    3.3878 
3063.20   23.4311   20.1738    1.8588    3.4263 
3063.30   23.7602   20.2500    1.8512    3.4475 
3063.40   23.5737   20.3650    1.8675    3.4500 
3063.50   23.4087   20.4500    1.8963    3.3624 
3063.60   23.3198   20.4688    1.9000    3.3237 
3063.70   23.6077   20.3649    1.9088    3.3200 
3063.80   23.4836   20.0435    1.9188    3.3550 
3063.90   23.8714   19.7637    1.9112    3.3688 
3064.00   23.6498   19.5899    1.9012    3.3700 
3064.10   23.6276   19.3506    1.8912    3.4490 
3064.20   23.4461   19.1099    1.8988    3.5125 
3064.30   23.6477   18.9224    1.9175    3.5550 
3064.40   23.4787   18.8300    1.9112    3.6213 
3064.50   23.8265   18.7762    1.9100    3.6563 
3064.60   23.8976   18.8227    1.9188    3.6776 
3064.70   23.5235   18.9526    1.9375    3.7325 
3064.80   23.2774   19.1189    1.9312    3.7750 
3064.90   23.3288   19.3151    1.9475    3.7800 
3065.00   23.3400   19.5064    1.9675    3.7625 
3065.10   22.8923   19.8109    1.9788    3.6547 
3065.20   23.1190   19.9638    1.9800    3.6137 
3065.30   23.1600   20.0851    1.9625    3.5662 
3065.40   23.3788   20.1613    1.9600    3.5250 
3065.50   23.4450   20.3101    1.9162    3.5638 
