~Version information
VERS.                            2.00: CWLS LAS  -  VERSION 2.00
WRAP.                              NO: One line per depth step
~Well information
#MNEM.UNIT                  DATA TYPE  INFORMATION
#===.================================:==================
STRT.M                       3000.000: First depth in file
STOP.M                       3109.000: Last depth in file
STEP.M                          0.100: Depth increment
NULL.                       -9999.00 : Null values
DATE.                       : LOG DATE
TIME.                                : LOG TIME
WELL.                             F8: Well name
GRP.                        : Group name
FLD.                    F: Field name
ISS.            ќкончательный каротаж: Well surveys
SRVC.     : Service Company
~Curve information
#MNEM.UNIT                   API CODE   CURVE DESCRIPTION
#===.================================:==================
DEPT.M                               : Depth curve
GZ3 .OHMM                            : A2.0M0.5N, ќм*м - 1475.0 см
IK  .MSM/M                           : » , м—м/м - 1961.0 см
PS  .MV                              : ѕ—, м¬ - 1025.0 см
BK  .OHMM                            : Ѕ , ќм*м - 1768.0 см
#
~Other information
#------------------ REMARKS AREA -----------------------
#=======================================================
# The file is generated by the program GeoTech-EditLog v2000.12
#Number of Curves = 4
~A Log Data Section
# ...
3098.40    5.1682  138.4374  815.3084    5.2663 
3098.50    5.1773  137.9369  812.0884    5.3752 
3098.60    5.2773  137.0800  810.9306    5.6857 
3098.70    5.2227  136.1142  811.7443    5.8911 
3098.80    5.0454  136.0433  812.4811    5.9399 
3098.90    5.0773  135.6313  810.4539    6.0048 
3099.00    5.2546  134.9015  808.0389    6.0449 
3099.10    5.0680  134.7635  805.8936    6.1073 
3099.20    5.2318  134.8959  803.3312    6.1849 
3099.30    5.1454  134.1015  803.0265    6.2025 
3099.40    5.0227  133.7496  803.3490    6.1974 
3099.50    5.0773  133.6015  801.3297    6.2100 
3099.60    5.2546  132.3596  799.4802    6.2212 
3099.70    5.2227  131.2740  798.4219    6.2363 
3099.80    5.2000  132.3269  797.2121    6.2263 
3099.90    5.1227  131.8654  797.5353    6.2126 
3100.00    5.1000  130.6687  796.8668    6.2000 
3100.10    5.1773  130.8869  795.3029    6.2075 
3100.20    5.1227  130.1850  794.7627    6.2163 
3100.30    5.1000  129.8888  794.0214    6.2063 
3100.40    5.1773  129.7154  793.2764    6.2074 
3100.50    5.2773  130.2115  792.3441    6.2089 
3100.60    5.1454  129.4703  790.1843    6.1975 
3100.70    5.1000  130.4679  787.7629    6.2137 
3100.80    5.1000  131.2915  785.9028    6.2237 
3100.90    5.1000  131.2252  783.2767    6.2300 
3101.00    5.1773  131.1169  -9999.00    6.2263 
3101.10    5.1227  131.8225  -9999.00    6.2125 
3101.20    5.0227  131.3618  -9999.00    6.2186 
3101.30    5.1546  131.6369  -9999.00    6.2388 
3101.40    5.2773  131.1374  -9999.00    6.2089 
3101.50    5.1454  130.7433  -9999.00    6.2049 
3101.60    5.1773  131.0415  -9999.00    6.2375 
3101.70    5.2000  131.4606  -9999.00    6.2389 
3101.80    5.0454  131.0269  -9999.00    6.2275 
3101.90    5.1545  131.5203  -9999.00    6.2326 
3102.00    5.1227  131.7142  -9999.00    6.2200 
3102.10    5.1773  131.8566  -9999.00    6.2200 
3102.20    5.0455  132.1849  -9999.00    6.2200 
3102.30    5.3093  131.9242  -9999.00    6.2237 
3102.40    5.2455  131.3203  -9999.00    6.2300 
3102.50    5.2000  131.9396  -9999.00    6.2374 
3102.60    5.1227  132.0020  -9999.00    6.2388 
3102.70    5.1773  131.1386  -9999.00    6.2274 
3102.80    5.1227  132.0915  -9999.00    6.2325 
3102.90    5.0227  131.9545  -9999.00    6.2348 
3103.00    5.1546  130.9370  -9999.00    6.2563 
3103.10    5.0454  131.3264  -9999.00    6.2388 
3103.20    5.1545  131.8715  -9999.00    6.2386 
3103.30    5.2000  130.7978  -9999.00    6.2625 
3103.40    5.2000  131.6325  -9999.00    6.2500 
3103.50    5.2000  131.6824  -9999.00    6.2611 
3103.60    5.0454  130.8210  -9999.00    6.2763 
3103.70    5.0773  130.9789  -9999.00    6.2700 
3103.80    5.1773  131.0560  -9999.00    6.2700 
3103.90    5.1227  131.4557  -9999.00    6.2663 
3104.00    5.0227  131.6433  -9999.00    6.2563 
3104.10    5.1546  131.3005  -9999.00    6.2575 
3104.20    5.1227  130.8435  -9999.00    6.2663 
3104.30    5.1773  131.3169  -9999.00    6.2637 
3104.40    5.2773  131.6715  -9999.00    6.2626 
3104.50    5.1454  130.7751  -9999.00    6.2574 
3104.60    5.1000  131.4362  -9999.00    6.2775 
3104.70    5.1000  131.0789  -9999.00    6.2826 
3104.80    5.1000  130.9433  -9999.00    6.2924 
3104.90    5.1773  131.3801  -9999.00    6.3300 
3105.00    5.2000  131.8470  -9999.00    6.3263 
3105.10    5.1227  130.8854  -9999.00    6.3200 
3105.20    5.1773  131.4740  -9999.00    6.3274 
3105.30    5.2773  131.6052  -9999.00    6.3251 
3105.40    5.2227  130.3496  -9999.00    6.3148 
3105.50  -9999.00  130.4851  -9999.00    6.3511 
3105.60  -9999.00  130.9703  -9999.00    6.3700 
3105.70  -9999.00  131.5788  -9999.00    6.3700 
3105.80  -9999.00  131.4433  -9999.00    6.3737 
3105.90  -9999.00  130.9252  -9999.00    6.3763 
3106.00  -9999.00  130.6042  -9999.00    6.3774 
3106.10  -9999.00  131.1362  -9999.00    6.4124 
3106.20  -9999.00  130.8496  -9999.00    6.4203 
3106.30  -9999.00  130.7015  -9999.00    6.3812 
3106.40  -9999.00  130.9862  -9999.00    6.4074 
3106.50  -9999.00  131.2924  -9999.00    6.4200 
3106.60  -9999.00  130.0059  -9999.00    6.4125 
3106.70  -9999.00  130.7142  -9999.00    6.4186 
3106.80  -9999.00  131.0333  -9999.00    6.4351 
3106.90  -9999.00  131.0837  -9999.00    6.4063 
3107.00  -9999.00  130.0433  -9999.00    6.4260 
3107.10  -9999.00  130.4484  -9999.00    6.4513 
3107.20  -9999.00  131.4142  -9999.00    6.4200 
3107.30  -9999.00  131.5206  -9999.00    6.4237 
3107.40  -9999.00  131.8910  -9999.00    6.4263 
3107.50  -9999.00  131.4343  -9999.00    6.4200 
3107.60  -9999.00  130.3703  -9999.00    6.4312 
3107.70  -9999.00  130.9081  -9999.00    6.4537 
3107.80  -9999.00  130.3242  -9999.00    6.4525 
3107.90  -9999.00  130.1801  -9999.00    6.4437 
3108.00  -9999.00  131.3560  -9999.00    6.4426 
3108.10  -9999.00  131.6142  -9999.00    6.4375 
3108.20  -9999.00  131.9678  -9999.00  -9999.00 
3108.30  -9999.00  132.3306  -9999.00  -9999.00 
3108.40  -9999.00  131.6727  -9999.00  -9999.00 
3108.50  -9999.00  131.2015  -9999.00  -9999.00 
3108.60  -9999.00  130.8854  -9999.00  -9999.00 
3108.70  -9999.00  130.9081  -9999.00  -9999.00 
3108.80  -9999.00  130.8915  -9999.00  -9999.00 
3108.90  -9999.00  131.1081  -9999.00  -9999.00 
3109.00  -9999.00  131.0560  -9999.00  -9999.00 
