~Version information
VERS.                            2.00: CWLS LAS  -  VERSION 2.00
WRAP.                              NO: One line per depth step
~Well information
#MNEM.UNIT                  DATA TYPE  INFORMATION
#===.================================:==================
STRT.M                       3000.000: First depth in file
STOP.M                       3105.000: Last depth in file
STEP.M                          0.100: Depth increment
NULL.                       -9999.00 : Null values
DATE.                       : LOG DATE
TIME.                                : LOG TIME
WELL.                             F8: Well name
GRP.                        : Group name
FLD.                    F: Field name
ISS.            Окончательный каротаж: Well surveys
SRVC.     : Service Company
~Curve information
#MNEM.UNIT                   API CODE   CURVE DESCRIPTION
#===.================================:==================
DEPT.M                               : Depth curve
MGZ .OHMM                            : Градиент-микрозонд, Ом*м -  250.0 
MPZ .OHMM                            : Потенциал-микрозонд, Ом*м -  250.0
BMK .OHMM                            : БМК, Ом*м -  250.0 см
MKB .MM                              : Микрокаверномер, мм -  250.0 см
#
~Other information
#------------------ REMARKS AREA -----------------------
#=======================================================
# The file is generated by the program GeoTech-EditLog v2000.12
#Number of Curves = 4
~A Log Data Section
# ...
3049.20    8.1539    7.3946    9.3715  220.8844 
3049.30   10.2886    7.1995    8.9914  218.7741 
3049.40   11.8357    8.1135    8.6962  218.2222 
3049.50   11.9130    8.5951    9.4015  218.1107 
3049.60   11.1045    8.7901   10.7078  218.2995 
3049.70    7.9777    8.6266   11.7753  218.5812 
3049.80    8.9686    9.2196   13.5744  218.5812 
3049.90   12.2028   10.6069   14.9674  218.6107 
3050.00   11.1427   10.5352   14.5153  218.6812 
3050.10    8.7084    9.5779   12.8859  218.5629 
3050.20    9.2591    9.3297   12.5134  218.1632 
3050.30   11.9168    9.0338   11.2734  217.9700 
3050.40   12.2057    9.1568   10.9656  218.2697 
3050.50   10.7274    9.9972   11.6493  218.4812 
3050.60   10.6690   10.5075   10.7134  218.5108 
3050.70   10.8436   10.1850   10.6234  218.6107 
3050.80   11.5055    9.5320   10.3795  218.7995 
3050.90   13.7752    9.5559    9.9972  219.4649 
3051.00   13.2215    9.9439   10.2221  220.4697 
3051.10   12.9567    9.6000   10.7444  220.7700 
3051.20   11.1832    8.5835   10.8749  221.0993 
3051.30    7.6642    7.6784    9.5773  221.4700 
3051.40   10.0695    8.7669    9.5087  221.6517 
3051.50   13.5780    9.7154   10.3526  221.5812 
3051.60   13.6647   10.1442   10.4642  221.5812 
3051.70   13.0642    9.9931   10.3810  221.6107 
3051.80   12.6749   10.0194   10.7233  221.7700 
3051.90   12.1570    9.6354   10.7733  222.0402 
3052.00   10.7883    9.1100   10.7818  222.5649 
3052.10    9.3504    8.2747   11.2607  224.0729 
3052.20    7.8120    7.2864   11.1713  224.6549 
3052.30    5.9260    7.2596   10.2306  220.6399 
3052.40    7.3502    7.3890    8.6974  215.0434 
3052.50    8.3034    7.6392    8.1872  213.3107 
3052.60    8.2637    8.1278    7.9459  213.4108 
3052.70    8.8158    8.5815    8.9139  213.5993 
3052.80   10.1953    8.4469    8.4565  214.0883 
3052.90   11.4391    8.8395    8.8930  214.8468 
3053.00   14.5130   10.0483    9.9498  215.6878 
3053.10   17.0313   11.6601   11.7584  216.2108 
3053.20   15.7700   11.0421   12.5164  216.1336 
3053.30   14.6171    9.4638   11.7707  215.8108 
3053.40   13.3150    8.1459    9.3981  215.8517 
3053.50   11.8552    8.2190    7.7031  215.8402 
3053.60   12.0981    8.6292    8.6495  216.2475 
3053.70   12.4973    9.6448   10.3934  216.9697 
3053.80   11.1984   10.4779   10.9266  216.7670 
3053.90    9.1190    9.9611   13.3848  215.0139 
3054.00    7.9523    8.8321   12.3103  213.1517 
3054.10    8.0698    8.4086    9.7310  213.2883 
3054.20    8.5002    8.8307    9.9384  213.9878 
3054.30    8.6348    8.5723    9.6424  214.6291 
3054.40    9.0094    8.3210    8.6816  215.1583 
3054.50   10.6286    9.9924    9.5432  215.7288 
3054.60   13.2671   11.4737   12.0508  216.1108 
3054.70   14.9116   11.8441   13.1312  216.0336 
3054.80   15.1602   11.8497   15.5360  215.5925 
3054.90   15.5332   12.9525   18.3876  215.3812 
3055.00   14.1890   12.4752   17.4592  215.2927 
3055.10   12.7097   10.2832   12.8439  215.0220 
3055.20   10.0235    8.0636    9.1607  214.7632 
3055.30    7.2732    7.5835   11.1951  214.3037 
3055.40    5.4119    7.1175   16.3007  213.5861 
3055.50    5.2784    6.9789   17.0359  213.0583 
3055.60    7.2754    8.2890   15.7798  213.8658 
3055.70    9.1886    9.5077   13.3344  215.0763 
3055.80   10.3488    9.6634   11.5807  216.0475 
3055.90   10.3564    8.2047    9.1461  216.9763 
3056.00    8.4918    5.6582    6.3853  217.8288 
3056.10    5.0284    3.6414    4.3703  218.2108 
3056.20    4.4547    3.5570    4.3985  218.2812 
3056.30    4.0866    3.1141    4.3072  218.1924 
3056.40    4.1559    3.1207    4.3887  217.5090 
3056.50    4.3589    3.3146    3.9102  216.2041 
3056.60    4.9372    3.8878    4.0389  215.8108 
3056.70    5.3079    4.8786    3.9921  215.8517 
3056.80    5.7718    6.4204    4.7264  215.6037 
3056.90    6.0355    6.5218    6.2875  214.9746 
3057.00    5.1300    4.1372    4.6839  214.2746 
3057.10    5.4594    4.3476    4.2324  213.7516 
3057.20    5.2820    4.5652    4.5266  213.8583 
3057.30    5.5217    4.6838    4.5989  214.7841 
3057.40    5.7400    5.0441    4.7144  216.2173 
3057.50    5.7931    5.0182    4.9843  216.4861 
3057.60    6.0413    4.9367    5.2261  215.4854 
3057.70    6.5690    4.8513    5.6444  214.6632 
3057.80    7.8441    5.0890    6.3936  214.2924 
3057.90   10.1486    5.8243    8.6729  214.0222 
3058.00   11.7090    6.6454   10.8036  213.9107 
3058.10   10.4447    5.8355    8.8521  214.1883 
3058.20    6.8078    4.6444    5.6537  214.7697 
3058.30    5.9355    4.3572    4.3802  215.0404 
3058.40    5.4934    4.0449    3.9262  215.1517 
3058.50    5.3444    3.7228    3.7323  214.9336 
3058.60    5.0128    3.5153    3.5953  214.5220 
3058.70    4.5565    3.2457    3.2933  214.3812 
3058.80    4.2196    3.3175    3.1307  214.4404 
3058.90    4.5851    4.0263    3.3276  214.6107 
3059.00    5.1867    4.6451    3.6505  214.9173 
3059.10    5.0169    4.5196    3.6954  215.9250 
3059.20    5.2738    4.6579    4.1264  217.3353 
3059.30    5.5092    4.8170    4.5237  218.4179 
3059.40    5.7621    4.9517    4.6066  219.0993 
3059.50    6.0831    5.2811    4.7940  219.1451 
3059.60    6.0295    5.1772    5.2172  218.5220 
3059.70    5.4377    5.0449    5.2810  218.1451 
3059.80    5.3547    5.2769    4.5384  217.0191 
3059.90    6.1449    5.4570    4.1625  215.5336 
3060.00    6.3236    5.4618    4.2843  215.1222 
3060.10    6.4451    5.4338    4.4373  214.7741 
3060.20    6.4200    5.2292    4.4231  214.2517 
3060.30    6.2208    5.1635    4.1437  214.2108 
3060.40    6.7966    5.5428    4.2118  214.3107 
3060.50    6.9721    5.9515    4.4289  214.4697 
3060.60    7.2311    6.1167    4.9185  214.7995 
3060.70    7.1657    5.9841    5.0041  215.2583 
3060.80    6.8884    5.9167    5.1113  215.7700 
3060.90    6.1140    5.6159    5.1108  215.6566 
3061.00    5.5263    5.2561    4.3256  214.6746 
3061.10    6.0887    5.3308    4.0882  214.1220 
3061.20    5.7646    5.1693    4.0275  213.9517 
3061.30    5.8486    5.1940    4.0299  213.8220 
3061.40    6.1438    5.3523    4.3528  213.6517 
3061.50    5.8369    5.2657    4.8294  213.4927 
3061.60    5.6804    5.1393    5.3224  213.2220 
3061.70    5.5156    5.0841    5.8231  213.0222 
3061.80    5.2427    4.9812    6.2676  212.8812 
3061.90    5.0474    4.7110    5.5426  212.9697 
3062.00    5.0035    4.6585    4.3939  213.3288 
3062.10    5.5505    5.0209    4.3162  213.8291 
3062.20    6.1659    5.5394    4.5326  214.1812 
3062.30    6.7609    5.9910    4.7389  214.2108 
3062.40    6.9311    6.1452    4.7777  214.3697 
3062.50    6.5774    6.0362    4.7669  214.6697 
3062.60    6.6769    5.7062    4.6637  214.8220 
3062.70    6.2567    5.2692    4.5488  214.5927 
3062.80    5.9627    5.0438    4.1311  214.3812 
3062.90    5.8825    4.9189    4.1779  214.3517 
3063.00    5.8154    4.8633    4.2190  214.2222 
3063.10    5.4197    4.6504    3.8265  213.9629 
3063.20    5.1583    4.5210    3.6184  213.3861 
3063.30    4.7638    4.3267    3.6893  212.5629 
3063.40    4.5415    4.1941    3.5780  212.3107 
3063.50    4.3005    4.1741    3.5067  212.3517 
3063.60    4.2507    4.1511    3.7048  212.3108 
3063.70    4.4033    4.1536    3.6839  212.4402 
3063.80    4.7092    4.2485    3.5352  212.6700 
3063.90    5.0064    4.4167    3.5826  213.0878 
3064.00    5.4066    4.6531    3.7711  213.6402 
3064.10    5.5913    4.7800    3.7944  213.8700 
3064.20    5.6734    4.7416    3.8115  214.1697 
3064.30    5.2037    4.7033    3.6237  214.4108 
3064.40    5.4459    4.9540    3.6741  214.4222 
3064.50    6.0287    5.3799    3.6570  214.2812 
3064.60    6.4340    5.7373    3.7003  214.1333 
3064.70    6.6926    5.8441    3.9262  213.5746 
3064.80    6.6385    5.7146    4.4463  212.9333 
3064.90    5.8629    5.3957    5.2748  212.2271 
3065.00    5.1567    5.2251    5.7902  210.8205 
3065.10    4.4711    5.1588    5.7414  209.3333 
3065.20    4.6123    5.4792    5.1452  209.1288 
3065.30    5.1243    5.7725    4.6238  209.7475 
3065.40    5.5115    5.8146    4.5667  210.7058 
3065.50    5.7064    5.6179    4.6998  211.6878 
