~Version information
VERS.                            2.00: CWLS LAS  -  VERSION 2.00
WRAP.                              NO: One line per depth step
~Well information
#MNEM.UNIT                  DATA TYPE  INFORMATION
#===.================================:==================
STRT.M                       3000.000: First depth in file
STOP.M                       3106.000: Last depth in file
STEP.M                          0.100: Depth increment
NULL.                       -9999.00 : Null values
DATE.                       : LOG DATE
TIME.                                : LOG TIME
WELL.                             F8: Well name
GRP.                        : Group name
FLD.                    F: Field name
ISS.            Окончательный каротаж: Well surveys
SRVC.     : Service Company
~Curve information
#MNEM.UNIT                   API CODE   CURVE DESCRIPTION
#===.================================:==================
DEPT.M                               : Depth curve
GK  .MKR/H                           : Гамма-активность, мкр./ч -   67.0 
WSAT.PERC                            : Водонасыщенная пористость, % -  22
NKT2.PRIV                            : Малый зонд приведенный,  -  230.0 
NKT1.PRIV                            : Большой зонд приведенный,  -  219.
#
~Other information
#------------------ REMARKS AREA -----------------------
#=======================================================
# The file is generated by the program GeoTech-EditLog v2000.12
#Number of Curves = 4
~A Log Data Section
# ...
3065.60   23.9152   20.5319    1.9100    3.5261 
3065.70   24.0676   20.7877    1.9188    3.4500 
3065.80   23.7560   20.9601    1.9025    3.3700 
3065.90   23.9463   20.9888    1.9000    3.3863 
3066.00   24.2865   21.0600    1.9263    3.4163 
3066.10   24.2159   21.0524    1.9388    3.5078 
3066.20   23.8760   21.1989    1.9488    3.4149 
3066.30   23.8825   21.3163    1.9588    3.4613 
3066.40   23.5311   21.4263    1.9600    3.4262 
3066.50   24.0929   21.5538    1.9512    3.3937 
3066.60   24.1186   21.6139    1.9588    3.4076 
3066.70   23.5409   21.6463    1.9600    3.4100 
3066.80   23.5563   21.6938    1.9688    3.4275 
3066.90   22.9923   21.7438    1.9612    3.4300 
3067.00   22.6823   21.8813    1.9775    3.3687 
3067.10   22.6061   21.9000    1.9800    3.3863 
3067.20   22.1885   21.8212    1.9888    3.5213 
3067.30   22.3752   21.9851    1.9812    3.4262 
3067.40   23.3203   22.2201    1.9625    3.2962 
3067.50   23.9841   22.2325    1.9600    3.2625 
3067.60   24.2004   22.1861    1.9600    3.2249 
3067.70   24.6578   21.9961    1.9600    3.1675 
3067.80   24.3435   21.5234    1.9512    3.2476 
3067.90   24.3513   21.2674    1.9412    3.2775 
3068.00   24.1849   20.8985    1.9575    3.3150 
3068.10   24.0020   20.5428    1.9776    3.4166 
3068.20   23.8574   20.2636    1.9537    3.4738 
3068.30   23.9538   20.1162    1.9588    3.4975 
3068.40   24.6352   20.0212    1.9512    3.4825 
3068.50   24.5023   19.9487    1.9412    3.5063 
3068.60   23.9521   19.8434    1.9488    3.5276 
3068.70   24.3090   19.7337    1.9588    3.5825 
3068.80   24.8866   19.7550    1.9512    3.5725 
3068.90   24.9688   19.7425    1.9412    3.5262 
3069.00   25.4779   19.7750    1.9312    3.4937 
3069.10   24.9970   19.7712    1.9212    3.4988 
3069.20   24.7799   19.7437    1.9112    3.5438 
3069.30   24.9089   19.7750    1.9188    3.5237 
3069.40   25.3589   19.7712    1.9375    3.4850 
3069.50   24.7983   19.7175    1.9225    3.4275 
3069.60   24.6837   19.6222    1.9112    3.3059 
3069.70   23.9007   19.1459    1.9012    3.4564 
3069.80   24.2366   18.8086    1.9088    3.5851 
3069.90   24.0724   18.7525    1.9012    3.6788 
3070.00   23.6460   18.8288    1.9000    3.6725 
3070.10   23.6602   19.0594    1.9000    3.5647 
3070.20   23.5211   19.0988    1.9088    3.5412 
3070.30   23.5438   19.0912    1.9012    3.4612 
3070.40   23.2349   18.8537    1.9175    3.6426 
3070.50   23.5578   18.6274    1.9463    3.7050 
3070.60   23.4169   18.4771    1.9676    3.6661 
3070.70   23.8366   18.2761    1.9700    3.7213 
3070.80   23.8124   18.1187    1.9700    3.7388 
3070.90   24.0276   17.9249    1.9788    3.8538 
3071.00   24.4102   17.8124    1.9800    3.7737 
3071.10   24.8199   17.7561    1.9712    3.8214 
3071.20   24.7387   17.5749    1.9788    3.9176 
3071.30   24.8689   17.5325    1.9712    3.8775 
3071.40   25.1001   17.5650    1.9612    3.8700 
3071.50   25.2263   17.7451    1.9425    3.8437 
3071.60   25.5033   17.8227    1.9488    3.8839 
3071.70   25.6713   17.9263    1.9500    3.9075 
3071.80   25.5324   18.1939    1.9588    3.9363 
3071.90   25.4662   18.4926    1.9600    3.9225 
3072.00   25.7314   18.9153    1.9600    3.8062 
3072.10   25.9543   19.1631    1.9600    3.7373 
3072.20   25.5247   19.3213    1.9775    3.7037 
3072.30   25.5301   19.4363    1.9712    3.7000 
3072.40   24.9448   19.5463    1.9788    3.5337 
3072.50   25.2102   19.3411    1.9888    3.5538 
3072.60   25.2073   19.0642    1.9988    3.5863 
3072.70   25.5415   18.7148    2.0000    3.6951 
3072.80   25.9402   18.4423    2.0088    3.7538 
3072.90   26.3226   18.2349    2.0012    3.9263 
3073.00   26.3087   18.3238    1.9912    3.9588 
3073.10   26.3966   18.4804    2.0163    3.9424 
3073.20   26.1035   18.7189    2.0200    3.8612 
3073.30   25.7623   18.8288    2.0112    3.7537 
3073.40   26.3415   18.8488    2.0012    3.7050 
3073.50   26.2199   18.7274    2.0000    3.6737 
3073.60   26.2076   18.5169    1.9824    3.6963 
3073.70   26.4201   18.3762    1.9712    3.7438 
3073.80   26.2311   18.4388    1.9437    3.6624 
3073.90   26.1737   18.4325    1.9225    3.6588 
3074.00   26.4590   18.4825    1.8937    3.6512 
3074.10   26.2103   18.6304    1.8900    3.7641 
3074.20   25.9774   18.8339    1.9250    3.6837 
3074.30   26.2390   18.9388    1.9475    3.6700 
3074.40   26.2537   18.8712    1.9588    3.6875 
3074.50   26.4339   18.8162    1.9688    3.6988 
3074.60   26.0562   18.7749    1.9612    3.6649 
3074.70   26.2014   18.7175    1.9775    3.6863 
3074.80   25.5908   18.4823    1.9975    3.7075 
3074.90   25.5963   18.2049    2.0088    3.7888 
3075.00   25.2685   17.9861    2.0100    3.8613 
3075.10   25.5097   17.8547    1.9924    3.8261 
3075.20   25.8565   17.7437    1.9900    3.8988 
3075.30   26.5392   17.6512    2.0075    3.9100 
3075.40   26.7876   17.6137    1.9925    3.8225 
3075.50   26.3985   17.5750    1.9637    3.7925 
3075.60   26.5594   17.4383    1.9688    3.8953 
3075.70   26.4236   17.3850    1.9612    4.0063 
3075.80   26.3825   17.5814    1.9512    3.9587 
3075.90   26.2837   17.8113    1.9412    3.8800 
3076.00   26.1912   18.0064    1.9488    3.8262 
3076.10   26.1800   18.1002    1.9412    3.8112 
3076.20   26.4252   18.2151    1.9312    3.6436 
3076.30   26.6789   18.2212    1.9300    3.6463 
3076.40   26.8325   18.0887    1.9300    3.7200 
3076.50   26.4822   18.0000    1.9388    3.6862 
3076.60   25.7892   17.8496    1.9400    3.7590 
3076.70   25.8401   17.7862    1.9400    3.7963 
3076.80   25.9476   17.7100    1.9488    3.8350 
3076.90   25.6186   17.7613    1.9325    3.8137 
3077.00   25.7189   17.9626    1.8862    3.7487 
3077.10   26.0121   18.2358    1.8712    3.7224 
3077.20   25.7961   18.4013    1.8788    3.7112 
3077.30   26.0139   18.6039    1.8888    3.6400 
3077.40   26.0938   18.7701    1.8812    3.6650 
3077.50   25.7322   19.0790    1.8712    3.6350 
3077.60   25.8731   19.3394    1.8876    3.5773 
3077.70   26.4779   19.5714    1.8812    3.5963 
3077.80   26.7351   19.9152    1.8625    3.4774 
3077.90   27.2239   20.1788    1.8600    3.3637 
3078.00   27.3951   20.2012    1.8688    3.3325 
3078.10   27.7874   20.1473    1.8788    3.3388 
3078.20   28.5492   19.8861    1.8975    3.3925 
3078.30   28.7025   19.7362    1.8912    3.4263 
3078.40   28.3861   19.6237    1.8900    3.3425 
3078.50   27.8497   19.3736    1.8812    3.3125 
3078.60   27.7186   19.0240    1.8800    3.3714 
3078.70   27.5787   18.6560    1.8800    3.4763 
3078.80   27.7089   18.3911    1.8888    3.5776 
3078.90   28.2902   18.2112    1.9075    3.7038 
3079.00   28.7378   18.2425    1.9012    3.7375 
3079.10   28.7461   18.4782    1.8824    3.7400 
3079.20   28.1533   18.7552    1.8888    3.7312 
3079.30   28.0262   19.0702    1.8988    3.6950 
3079.40   27.5123   19.3376    1.9000    3.5500 
3079.50   26.9234   19.5714    1.8737    3.5388 
3079.60   26.8939   19.7492    1.8700    3.5663 
3079.70   26.7336   19.9977    1.8788    3.4912 
3079.80   25.9570   20.3715    1.8712    3.3837 
3079.90   25.2460   20.5688    1.8525    3.3612 
3080.00   24.9761   20.7651    1.8588    3.3250 
3080.10   25.2835   20.8778    1.8512    3.2147 
3080.20   25.2775   20.8462    1.8500    3.1300 
3080.30   25.7603   20.6211    1.8412    3.0937 
3080.40   25.8563   20.1348    1.8225    3.1513 
3080.50   25.7987   19.7110    1.8200    3.2125 
3080.60   25.7812   19.4230    1.8112    3.2376 
3080.70   26.1740   19.1536    1.8100    3.2488 
3080.80   26.5540   18.8573    1.7925    3.3113 
3080.90   27.4140   18.7150    1.7637    3.4075 
3081.00   27.6438   18.7175    1.7775    3.4813 
3081.10   27.0631   18.9658    1.7888    3.4198 
3081.20   26.6385   19.2452    1.7725    3.4012 
3081.30   26.3536   19.5339    1.7700    3.3737 
3081.40   26.3463   19.7188    1.8050    3.2737 
3081.50   26.1223   19.6349    1.8188    3.2075 
3081.60   25.5633   19.3391    1.8024    3.3404 
3081.70   25.3849   19.1949    1.7912    3.3950 
3081.80   24.9234   19.4077    1.7900    3.3825 
3081.90   24.3611   19.6238    1.7900    3.3712 
