~Version information
VERS.                            2.00: CWLS LAS  -  VERSION 2.00
WRAP.                              NO: One line per depth step
~Well information
#MNEM.UNIT                  DATA TYPE  INFORMATION
#===.================================:==================
STRT.M                       3000.000: First depth in file
STOP.M                       3105.000: Last depth in file
STEP.M                          0.100: Depth increment
NULL.                       -9999.00 : Null values
DATE.                       : LOG DATE
TIME.                                : LOG TIME
WELL.                             F8: Well name
GRP.                        : Group name
FLD.                    F: Field name
ISS.            Окончательный каротаж: Well surveys
SRVC.     : Service Company
~Curve information
#MNEM.UNIT                   API CODE   CURVE DESCRIPTION
#===.================================:==================
DEPT.M                               : Depth curve
MGZ .OHMM                            : Градиент-микрозонд, Ом*м -  250.0 
MPZ .OHMM                            : Потенциал-микрозонд, Ом*м -  250.0
BMK .OHMM                            : БМК, Ом*м -  250.0 см
MKB .MM                              : Микрокаверномер, мм -  250.0 см
#
~Other information
#------------------ REMARKS AREA -----------------------
#=======================================================
# The file is generated by the program GeoTech-EditLog v2000.12
#Number of Curves = 4
~A Log Data Section
# ...
3082.00    3.0420    2.7013    2.3392  212.1517 
3082.10    3.3054    2.8237    2.1818  212.0516 
3082.20    3.4118    2.7885    2.1510  212.0107 
3082.30    2.9449    2.5256    1.9775  212.0220 
3082.40    2.6897    2.4052    1.8764  211.7632 
3082.50    2.4234    2.3700    1.7964  211.3336 
3082.60    2.4133    2.3848    1.7548  210.9516 
3082.70    2.5370    2.4200    1.7989  210.9697 
3082.80    2.5655    2.4378    1.8289  211.2995 
3082.90    2.7356    2.4770    1.8323  211.7288 
3083.00    2.9311    2.4641    1.8018  212.1107 
3083.10    2.9011    2.4855    1.8507  212.2404 
3083.20    2.9479    2.6438    1.8941  212.3812 
3083.30    3.2313    2.8880    1.8386  212.3220 
3083.40    3.5672    3.0411    1.7607  212.1812 
3083.50    3.5885    2.9728    1.8808  212.1812 
3083.60    3.3020    2.8482    2.1121  212.1812 
3083.70    3.0485    2.8170    2.1951  212.1517 
3083.80    2.9365    2.9254    2.0104  212.0516 
3083.90    3.2697    3.2797    1.9252  211.8336 
3084.00    3.3980    3.3962    1.9225  211.4812 
3084.10    3.1553    3.1520    2.0444  211.5108 
3084.20    2.9034    2.9339    2.1913  211.5812 
3084.30    2.8015    2.7527    2.2900  211.6404 
3084.40    2.7277    2.6341    2.2398  211.8107 
3084.50    2.7759    2.6111    2.1230  211.8812 
3084.60    2.7101    2.5456    2.1122  211.9404 
3084.70    2.5584    2.4489    2.0464  212.1107 
3084.80    2.7269    2.4878    1.9811  212.1516 
3084.90    2.8982    2.5211    1.9866  212.1107 
3085.00    2.8198    2.4882    2.0648  212.1812 
3085.10    2.6467    2.4363    2.0882  212.1812 
3085.20    2.4551    2.3564    2.0364  212.1812 
3085.30    2.3207    2.3148    1.9534  212.1516 
3085.40    2.3493    2.3411    1.8605  212.1107 
3085.50    2.2646    2.2934    1.7575  212.1812 
3085.60    2.1770    2.2330    1.6682  212.2108 
3085.70    2.2025    2.2636    1.6223  212.2812 
3085.80    2.3421    2.3437    1.6096  212.2812 
3085.90    2.5402    2.4177    1.7302  212.2812 
3086.00    2.7072    2.4836    1.8707  212.2517 
3086.10    2.8644    2.5903    1.9496  212.1812 
3086.20    3.0143    2.7572    1.9905  212.2107 
3086.30    3.1022    2.8611    1.9496  212.3108 
3086.40    2.9803    2.8193    1.9728  212.4402 
3086.50    2.7221    2.7759    1.8423  212.5517 
3086.60    2.5689    2.8285    1.7793  212.4516 
3086.70    2.6461    2.9377    1.7477  212.3517 
3086.80    2.7534    2.9031    1.8669  212.3108 
3086.90    2.6634    2.6757    2.1621  212.3812 
3087.00    2.6236    2.5493    2.4448  212.4107 
3087.10    2.6120    2.4852    2.5037  212.6291 
3087.20    2.3969    2.4470    2.5925  212.8927 
3087.30    2.3262    2.4962    2.6493  212.4741 
3087.40    2.5928    2.7480    2.5557  212.0697 
3087.50    2.9897    3.0654    2.3998  212.3402 
3087.60    3.1622    3.1885    2.2563  212.5108 
3087.70    3.1230    3.3390    2.3092  212.5517 
3087.80    3.2306    3.5303    2.6795  212.3924 
3087.90    3.4936    3.6470    2.9518  212.0927 
3088.00    3.4821    3.5810    3.0184  211.8812 
3088.10    3.2017    3.3453    3.0479  211.8812 
3088.20    2.9348    3.1230    2.8557  211.9402 
3088.30    2.8901    3.1063    2.8920  212.1108 
3088.40    2.6675    3.0382    3.1415  212.1812 
3088.50    2.6785    3.0307    2.8238  212.1517 
3088.60    3.0379    3.2043    2.6380  212.1108 
3088.70    3.5317    3.6623    2.8384  212.1222 
3088.80    3.7250    3.9346    3.4477  212.0108 
3088.90    3.2885    3.6010    4.3819  212.0222 
3089.00    3.1202    3.4423    3.5726  211.7336 
3089.10    3.2459    3.3704    3.2867  211.3220 
3089.20    3.3456    3.4859    3.1659  211.2107 
3089.30    3.5086    3.9152    3.1534  211.2812 
3089.40    3.3657    3.8652    3.1726  211.3107 
3089.50    3.4695    3.9185    3.3493  211.3812 
3089.60    4.1564    4.1980    3.2467  211.3812 
3089.70    4.5587    4.3275    3.5568  211.4107 
3089.80    4.2559    4.1849    4.2982  211.4812 
3089.90    3.6844    3.9916    3.6007  211.4517 
3090.00    3.3974    3.7997    3.5438  211.3222 
3090.10    3.2118    3.5097    3.2604  211.2700 
3090.20    3.4466    3.4608    3.1398  211.5402 
3090.30    3.9725    3.6685    3.0496  211.6812 
3090.40    4.0323    3.7511    3.1702  211.6812 
3090.50    3.9398    3.7389    3.2723  211.6812 
3090.60    3.7963    3.7245    3.2122  211.6516 
3090.70    3.7105    3.5780    3.1021  211.5812 
3090.80    3.5986    3.4182    2.9252  211.5220 
3090.90    3.4115    3.4018    2.9726  211.4402 
3091.00    3.3328    3.5244    3.2025  211.8173 
3091.10    3.6914    3.7293    3.3480  212.4700 
3091.20    3.7074    3.6475    3.5572  212.6517 
3091.30    3.5070    3.6233    3.6730  212.6404 
3091.40    3.5236    3.7500    3.6800  212.7517 
3091.50    3.6243    3.7913    3.6741  212.7107 
3091.60    3.7862    3.9669    3.5860  212.8700 
3091.70    4.0941    4.1825    3.3775  213.2878 
3091.80    4.5455    4.2482    3.2231  213.8995 
3091.90    4.6654    4.2289    3.0489  214.2107 
3092.00    4.7648    4.2441    3.0670  214.2812 
3092.10    4.9331    4.2921    3.1990  214.2516 
3092.20    5.3149    4.5344    3.6746  214.1812 
3092.30    5.4522    4.7600    4.1975  214.2108 
3092.40    5.3775    4.7334    4.5669  214.3402 
3092.50    5.4151    4.6848    4.2482  214.5402 
3092.60    5.6989    4.7200    3.7811  214.6516 
3092.70    5.7761    4.7466    3.7748  214.5812 
3092.80    5.7650    4.6798    3.8307  214.5812 
3092.90    5.2842    4.3611    3.8800  214.5812 
3093.00    5.1518    4.4758    3.8711  214.5812 
3093.10    5.7224    4.9243    3.8115  214.5516 
3093.20    6.0313    5.2613    3.7643  214.4812 
3093.30    6.1980    5.4014    3.8493  214.4516 
3093.40    6.4013    5.5207    3.8708  214.2927 
3093.50    6.6210    5.6172    4.1669  214.0812 
3093.60    6.8893    5.7566    4.5351  214.0812 
3093.70    6.8695    5.8141    4.7608  214.1402 
3093.80    6.9578    5.8444    4.9892  214.3404 
3093.90    7.0148    5.9589    5.1241  214.5107 
3094.00    7.1503    5.9593    5.1248  214.6107 
3094.10    7.5113    5.9988    5.0742  214.7700 
3094.20    7.7646    6.2661    4.7903  215.0107 
3094.30    7.4877    6.3083    4.6680  215.0516 
3094.40    6.9385    5.9926    4.8389  214.9222 
3094.50    6.7938    5.6154    4.9013  214.7812 
3094.60    6.7540    5.5244    5.0059  214.6924 
3094.70    6.4377    6.0621    5.0318  214.4812 
3094.80    6.8863    6.0686    5.0156  214.4220 
3094.90    6.6913    6.2073    4.8480  214.2812 
3095.00    6.3689    5.6331    4.6970  214.2812 
3095.10    6.5468    5.8310    4.7551  214.3404 
3095.20    7.0026    6.0738    4.9808  214.4517 
3095.30    7.1734    6.2234    5.1589  214.3516 
3095.40    7.3077    6.2367    5.1948  214.2517 
3095.50    7.7830    6.4908    5.2684  214.1812 
3095.60    7.8107    6.6245    5.3896  214.1516 
3095.70    7.8748    6.5754    5.5338  214.0517 
3095.80    7.7591    6.6955    5.7544  213.9516 
3095.90    7.5446    6.7092    5.8482  213.8812 
3096.00    8.0582    6.6285    5.9056  213.9993 
3096.10    8.3742    6.9199    6.1425  214.3404 
3096.20    8.2408    6.9329    6.2495  214.4517 
3096.30    8.3834    6.7378    6.3703  214.3516 
3096.40    8.2639    7.1797    6.6966  214.3107 
3096.50    8.0828    6.8485    7.2284  214.3517 
3096.60    7.9286    6.6803    7.2934  214.2812 
3096.70    7.7798    6.7262    7.1120  214.3402 
3096.80    7.6718    6.5411    6.7235  214.3924 
3096.90    7.6970    6.4698    6.3401  214.1517 
3097.00    7.7048    6.4946    5.9857  214.0222 
3097.10    7.8258    6.7986    5.8267  213.9404 
3097.20    8.0123    6.6410    5.7089  214.0517 
3097.30    7.7836    6.5680    5.8572  213.6558 
3097.40    7.5318    6.7300    6.3282  212.7632 
3097.50    7.9015    6.7182    6.8864  212.3041 
3097.60    7.3764    6.5865    7.1831  211.7037 
3097.70    6.2965    6.2101    7.0059  211.0156 
3097.80    5.2042    5.8320    6.6206  210.1741 
3097.90    4.7154    5.8146    5.7762  209.6222 
3098.00    5.2890    6.2456    5.8913  209.4812 
3098.10    5.7081    6.5328    5.6280  209.5404 
3098.20    6.1428    6.6120    6.6665  209.6812 
3098.30    5.6059    6.3300    8.5322  209.6516 
