~Version information
VERS.                            2.00: CWLS LAS  -  VERSION 2.00
WRAP.                              NO: One line per depth step
~Well information
#MNEM.UNIT                  DATA TYPE  INFORMATION
#===.================================:==================
STRT.M                       3000.000: First depth in file
STOP.M                       3105.000: Last depth in file
STEP.M                          0.100: Depth increment
NULL.                       -9999.00 : Null values
DATE.                       : LOG DATE
TIME.                                : LOG TIME
WELL.                             F8: Well name
GRP.                        : Group name
FLD.                    F: Field name
ISS.            Окончательный каротаж: Well surveys
SRVC.     : Service Company
~Curve information
#MNEM.UNIT                   API CODE   CURVE DESCRIPTION
#===.================================:==================
DEPT.M                               : Depth curve
MGZ .OHMM                            : Градиент-микрозонд, Ом*м -  250.0 
MPZ .OHMM                            : Потенциал-микрозонд, Ом*м -  250.0
BMK .OHMM                            : БМК, Ом*м -  250.0 см
MKB .MM                              : Микрокаверномер, мм -  250.0 см
#
~Other information
#------------------ REMARKS AREA -----------------------
#=======================================================
# The file is generated by the program GeoTech-EditLog v2000.12
#Number of Curves = 4
~A Log Data Section
3000.00    6.9792    9.3193    7.3263  221.0709 
3000.10    6.8712    8.8584   10.9648  218.6971 
3000.20    7.2920    9.3764   31.8497  216.6261 
3000.30    8.2711   10.8075  112.8206  217.2983 
3000.40    9.4614   11.2376  244.8481  219.4480 
3000.50    6.6576    9.1896  230.2634  220.9881 
3000.60    4.6018    8.3004  116.3422  221.2283 
3000.70    5.7097    8.6562   69.2282  223.0597 
3000.80    4.8895    8.4959   60.3279  227.9308 
3000.90    3.2415    8.0216   51.3673  232.3032 
3001.00    3.3197    7.0119   25.7310  232.1030 
3001.10    2.9789    5.7961   14.2368  228.4422 
3001.20    3.8064    5.3297   16.9763  228.6627 
3001.30    4.7218    5.6456   21.1565  231.9000 
3001.40    4.2102    6.3657  276.9134  228.3139 
3001.50    5.4767    8.4282  429.9874  219.8653 
3001.60    9.5027   11.8443  292.0561  216.0302 
3001.70   10.1498   12.8800  326.3857  216.3363 
3001.80    8.2822   11.9354  387.7762  217.0880 
3001.90    8.9723   12.2280  270.4328  217.1768 
3002.00    9.7441   11.5240  111.8865  216.4235 
3002.10   12.4070   11.0490   37.6710  216.1341 
3002.20   14.9997   11.9529   18.0490  216.4334 
3002.30   14.3545   11.8042   14.5272  216.3778 
3002.40   13.3543   11.2569   13.8610  215.9275 
3002.50   13.1531   11.1212   14.1487  215.4778 
3002.60   14.0080   11.3633   14.5588  214.9753 
3002.70   14.2694   11.4742   14.3746  214.5797 
3002.80   13.6917   11.2471   13.8879  214.4303 
3002.90   13.2565   10.7502   13.6990  214.4827 
3003.00   12.5979   10.6385   13.4520  214.6829 
3003.10   11.8128   10.7431   12.9843  214.9341 
3003.20   11.2826   10.6754   12.9537  215.3349 
3003.30   10.8962   10.6085   13.4797  215.5812 
3003.40   11.4460   10.6316   13.8718  215.5305 
3003.50   12.5816   10.8722   13.5221  215.5321 
3003.60   12.2820   10.5718   12.7132  215.4793 
3003.70   11.6503    9.9571   11.6242  215.2290 
3003.80   10.6275    9.6176   10.6711  214.8269 
3003.90   10.1780    9.4597   10.7645  214.6319 
3004.00   11.2133    9.4146   11.3751  214.9863 
3004.10   11.4708    9.5429   11.8076  215.4341 
3004.20   11.8434   10.1111   12.0618  215.5812 
3004.30   13.3000   10.7794   12.3529  215.5303 
3004.40   14.2006   10.7713   13.0983  215.5319 
3004.50   13.9705   10.7082   13.8075  215.6321 
3004.60   13.8120   10.6300   14.0418  215.5793 
3004.70   12.6924    9.8828   13.1458  215.4812 
3004.80   11.6371    9.2576   11.8188  215.3795 
3004.90   12.4347    9.7795   11.8253  215.1290 
3005.00   13.1917   10.3386   12.4089  214.8795 
3005.10   12.9230   10.3925   12.3700  214.6793 
3005.20   12.8135   10.3323   12.1454  214.6827 
3005.30   13.0246   10.1602   11.9411  214.8829 
3005.40   13.1979   10.4947   12.0447  215.0827 
3005.50   13.7256   11.1660   13.4229  215.3338 
3005.60   14.7993   11.8515   15.5358  215.5322 
3005.70   15.3780   12.1039   16.3010  215.6319 
3005.80   14.3602   11.8266   15.7605  215.5286 
3005.90   13.2056   11.6503   15.7384  215.2797 
3006.00   12.9354   11.5022   15.2631  215.0795 
3006.10   13.4647   11.2024   13.5911  215.1341 
3006.20   13.8181   11.0091   11.7116  215.4841 
3006.30   14.0256   10.7415   10.8863  215.7829 
3006.40   14.1065   10.3117   10.4070  216.1349 
3006.50   13.7378    9.9476    9.8039  216.4321 
3006.60   13.2940    9.7896    9.5718  216.6341 
3006.70   12.7516    9.6787    9.3542  216.7812 
3006.80   12.6370    9.7985    9.1678  216.7303 
3006.90   13.3436   10.3247    9.3241  216.5290 
3007.00   14.6472   11.0723   10.6934  215.9235 
3007.10   15.2073   11.4696   11.8927  215.1244 
3007.20   14.2583   11.3891   11.8372  214.3246 
3007.30   13.1852   11.1673   11.9144  213.7286 
3007.40   12.3063   10.8527   14.2449  213.5305 
3007.50   11.1860   10.9695   20.2013  213.5829 
3007.60   10.0736   11.1077   41.8871  214.0380 
3007.70    7.9070   10.8885   56.7514  215.3451 
3007.80    8.2213   11.7461   56.0411  216.7898 
3007.90   11.8565   16.2212   49.8541  216.8246 
3008.00   16.4371   23.0977  239.5577  215.7201 
3008.10   19.3847   25.6403  416.1431  214.7244 
3008.20   19.6961   20.9683  323.1523  214.7363 
3008.30   15.7066   16.9974  171.6003  215.6915 
3008.40   12.3685   14.8613   59.5490  218.8178 
3008.50    9.5479   10.3720   12.7813  228.9604 
3008.60    5.1027    5.9221    4.3297  247.3410 
3008.70    2.8740    3.6141    3.2897  255.0910 
3008.80    2.1814    3.4438    6.2959  240.7861 
3008.90    3.9502    4.6340   18.0372  225.7763 
3009.00    7.4968    6.5971   20.2176  219.6401 
3009.10   10.3084    8.1254   12.7705  216.1088 
3009.20   13.1209    9.2740   12.4582  214.7783 
3009.30   13.7710   10.2207   13.0245  214.3778 
3009.40   12.1465   10.4688   13.0499  214.1812 
3009.50   12.3016   10.7765   13.6597  214.2321 
3009.60   12.8125   11.2672   14.3021  214.4341 
3009.70   12.9248   11.1060   14.9086  214.6827 
3009.80   12.5032   10.3620   16.2129  214.9338 
3009.90   12.1912   10.0471   18.7822  215.1319 
3010.00   12.5548   10.3934   22.7363  215.1303 
3010.10   12.4732   10.6869   28.4744  214.8773 
3010.20   11.8814   11.3228   33.5363  214.3768 
3010.30   12.9165   13.9300   34.5777  214.0303 
3010.40   14.2971   16.3154   33.9157  213.8797 
3010.50   14.6638   16.6495   34.1939  213.8321 
3010.60   17.6276   18.1595   33.1405  214.2380 
3010.70   21.7514   20.2944   32.5797  214.7841 
3010.80   22.6509   20.3706   30.9567  215.0321 
3010.90   21.7698   18.7342   24.7167  215.1827 
3011.00   21.0945   17.5683   21.3291  215.2303 
3011.10   20.8004   17.7351   22.0131  215.1302 
3011.20   21.6621   19.0249   27.2127  214.9798 
3011.30   22.1291   21.1132   42.0777  214.6269 
3011.40   20.0550   20.8055   43.3697  214.2797 
3011.50   19.1735   19.3171   32.7323  214.5372 
3011.60   23.0187   20.8832   36.8100  214.9322 
3011.70   26.2287   23.8944   48.5284  215.0319 
3011.80   26.5410   23.2827   44.2034  215.1321 
3011.90   24.1243   19.2688   29.2736  215.2319 
3012.00   19.1925   15.0188   21.8677  215.3321 
3012.10   15.6693   12.1499   18.0474  215.4322 
3012.20   14.3966   11.4103   15.6476  215.3797 
3012.30   14.0073   11.5063   15.2873  215.1795 
3012.40   14.3776   11.8945   15.9222  214.9798 
3012.50   14.8595   11.9610   15.6014  215.0338 
3012.60   15.0186   11.6077   14.1420  215.1812 
3012.70   15.3471   11.1602   13.4443  215.2827 
3012.80   15.1137   10.6874   13.1050  215.3812 
3012.90   14.1869   10.4842   12.5460  215.5334 
3013.00   13.6603   10.4402   12.4936  215.7829 
3013.10   13.5984   10.2563   12.9498  215.8812 
3013.20   13.2055    9.7352   13.0987  215.8305 
3013.30   12.5542    9.4049   12.6489  215.7303 
3013.40   12.3012    9.4964   11.9905  215.7319 
3013.50   12.8784    9.6968   11.3696  215.6795 
3013.60   13.0592    9.5961   10.9122  215.6322 
3013.70   12.8106    9.5979   11.0084  215.6305 
3013.80   12.7737    9.8612   11.0417  215.5303 
3013.90   13.0703    9.8640   10.9312  215.4305 
3014.00   13.3029    9.7898   11.0507  215.3812 
3014.10   13.4400    9.7596   10.9728  215.4322 
3014.20   13.1776    9.5421   10.8904  215.5319 
3014.30   12.4562    9.5280   10.8335  215.6321 
3014.40   11.9153    9.3855   10.3898  215.6305 
3014.50   11.1525    8.4952    9.3636  215.5303 
3014.60   10.4702    7.9096    8.7763  215.4302 
3014.70   10.0930    7.8393    8.6472  215.2290 
3014.80   10.1126    7.8866    8.4549  215.1321 
3014.90   10.0469    7.8532    8.1558  215.1812 
3015.00   10.0485    7.6130    8.0429  215.3846 
3015.10   10.3214    7.5255    8.3272  215.8361 
3015.20    9.9283    7.2862    7.8972  216.0812 
3015.30    9.1698    6.8673    6.6580  216.0303 
3015.40    8.4997    6.3650    6.0360  215.8797 
3015.50    7.6416    5.7757    6.6086  215.7812 
3015.60    7.0580    6.1111    7.1357  215.8831 
3015.70    9.5575    8.5268    9.2855  215.8290 
3015.80   17.0537   14.1950   17.7021  215.7321 
3015.90   26.4208   21.9936   51.0726  216.3392 
3016.00   28.1953   23.2752   63.6315  217.5932 
3016.10   17.7186   17.3152   36.1150  218.6380 
3016.20    9.5266   12.5685   63.9471  219.6407 
3016.30    8.8379   11.8015  112.3479  220.3829 
