~Version information
VERS.                            2.00: CWLS LAS  -  VERSION 2.00
WRAP.                              NO: One line per depth step
~Well information
#MNEM.UNIT                  DATA TYPE  INFORMATION
#===.================================:==================
STRT.M                       3000.000: First depth in file
STOP.M                       3106.000: Last depth in file
STEP.M                          0.100: Depth increment
NULL.                       -9999.00 : Null values
DATE.                       : LOG DATE
TIME.                                : LOG TIME
WELL.                             F8: Well name
GRP.                        : Group name
FLD.                    F: Field name
ISS.            Окончательный каротаж: Well surveys
SRVC.     : Service Company
~Curve information
#MNEM.UNIT                   API CODE   CURVE DESCRIPTION
#===.================================:==================
DEPT.M                               : Depth curve
GK  .MKR/H                           : Гамма-активность, мкр./ч -   67.0 
WSAT.PERC                            : Водонасыщенная пористость, % -  22
NKT2.PRIV                            : Малый зонд приведенный,  -  230.0 
NKT1.PRIV                            : Большой зонд приведенный,  -  219.
#
~Other information
#------------------ REMARKS AREA -----------------------
#=======================================================
# The file is generated by the program GeoTech-EditLog v2000.12
#Number of Curves = 4
~A Log Data Section
3000.00    3.2664   38.3080    1.3959    1.6452 
3000.10    2.6617   38.7793    1.4011    1.6130 
3000.20    2.2059   39.4690    1.3800    1.6200 
3000.30    1.6687   40.3832    1.3830    1.5786 
3000.40    1.3328   41.2295    1.3900    1.4770 
3000.50    1.2377   41.3236    1.3841    1.4670 
3000.60    1.2889   41.3859    1.3670    1.4689 
3000.70    1.3572   41.3292    1.3630    1.4782 
3000.80    1.4937   40.9795    1.3818    1.4589 
3000.90    1.5500   40.4172    1.4070    1.4800 
3001.00    1.5795   39.9200    1.4000    1.5007 
3001.10    1.6411   39.2326    1.4089    1.5530 
3001.20    1.7085   38.4341    1.4359    1.5689 
3001.30    1.9821   37.6705    1.4559    1.6018 
3001.40    2.2628   36.3227    1.4848    1.6566 
3001.50    2.7128   34.2117    1.5348    1.7938 
3001.60    3.2667   31.8810    1.5848    1.9730 
3001.70    4.0838   29.6429    1.6318    2.0420 
3001.80    5.0125   27.2436    1.6807    2.2758 
3001.90    6.1548   24.9047    1.7625    2.6040 
3002.00    7.3923   22.5648    1.8843    3.0033 
3002.10    8.6478   20.3077    2.0285    3.3802 
3002.20    9.8877   18.0786    2.1407    3.8966 
3002.30   10.5553   16.4001    2.1989    4.4403 
3002.40   11.0672   15.6008    2.2230    4.6043 
3002.50   11.1475   15.2839    2.2270    4.7218 
3002.60   11.0404   15.1855    2.2022    4.7678 
3002.70   11.0703   15.3585    2.1570    4.7716 
3002.80   11.4668   15.6883    2.1441    4.6593 
3002.90   11.9138   16.0999    2.1241    4.5303 
3003.00   12.1697   16.4779    2.1100    4.3341 
3003.10   12.3038   16.5601    2.1248    4.3111 
3003.20   12.1434   16.2608    2.1630    4.3077 
3003.30   12.1717   15.9201    2.1641    4.3737 
3003.40   12.3870   15.6503    2.1530    4.4477 
3003.50   12.3121   15.3833    2.1570    4.5166 
3003.60   11.9074   15.1438    2.1589    4.6214 
3003.70   11.2916   14.9746    2.1800    4.7377 
3003.80   11.1290   14.8427    2.1918    4.8037 
3003.90   11.0780   14.7123    2.2141    4.8807 
3004.00   11.4013   14.7054    2.1941    4.8946 
3004.10   11.5888   14.8728    2.1770    4.8218 
3004.20   11.8561   15.1143    2.1818    4.8087 
3004.30   11.8362   15.2082    2.2100    4.7218 
3004.40   11.4611   15.1741    2.2070    4.7352 
3004.50   11.6731   15.1748    2.1941    4.6852 
3004.60   12.1501   15.1863    2.1770    4.6855 
3004.70   11.7888   15.1802    2.1670    4.7611 
3004.80   11.4540   15.3621    2.1570    4.7252 
3004.90   11.5297   15.5336    2.1589    4.6575 
3005.00   11.1690   15.5930    2.1830    4.5741 
3005.10   10.8179   15.6000    2.1841    4.5748 
3005.20   10.8353   15.6148    2.1730    4.6189 
3005.30   11.0347   15.6796    2.1741    4.6163 
3005.40   10.5877   15.7913    2.1630    4.5777 
3005.50   10.6448   15.9372    2.1759    4.6407 
3005.60   10.6800   16.0855    2.1930    4.6841 
3005.70   10.6977   16.2261    2.2059    4.6523 
3005.80   10.6424   16.3896    2.2200    4.6011 
3005.90   10.2772   16.4895    2.2141    4.5505 
3006.00    9.7918   16.5393    2.2118    4.4830 
3006.10    9.2362   16.4367    2.2400    4.5078 
3006.20    8.7401   16.2539    2.2489    4.6474 
3006.30    8.2170   16.1022    2.2818    4.9007 
3006.40    7.7100   16.0748    2.3130    4.9736 
3006.50    7.8251   16.1749    2.3230    5.0448 
3006.60    8.1325   16.5164    2.3182    5.0593 
3006.70    8.2602   17.2286    2.2811    4.9746 
3006.80    8.4037   18.1540    2.2482    4.8160 
3006.90    8.5426   19.2815    2.1993    4.5692 
3007.00    8.7134   20.8558    2.1293    4.3144 
3007.10    8.6944   22.6406    2.0563    3.9621 
3007.20    8.9446   24.5717    1.9705    3.5067 
3007.30    9.1746   26.3173    1.8793    3.1505 
3007.40    8.8528   28.2575    1.7975    2.7867 
3007.50    8.2560   30.3289    1.6934    2.4603 
3007.60    6.8130   32.0098    1.6241    2.1901 
3007.70    5.6401   32.9549    1.6130    1.9734 
3007.80    4.3428   32.9207    1.6082    1.9278 
3007.90    4.1167   32.5025    1.5534    1.9582 
3008.00    4.4092   32.6597    1.4841    1.8857 
3008.10    4.8830   32.5719    1.4759    1.7889 
3008.20    5.4313   31.4437    1.4900    1.8130 
3008.30    5.6247   29.9158    1.4870    1.8614 
3008.40    5.8736   28.4962    1.4859    2.0131 
3008.50    6.1218   26.9465    1.5177    2.1577 
3008.60    6.6244   25.2230    1.5778    2.2740 
3008.70    7.0222   23.5412    1.6495    2.5444 
3008.80    8.0454   21.8175    1.7614    2.8765 
3008.90    9.2892   19.9834    1.9102    3.2480 
3009.00   10.6225   18.2404    2.0477    3.6451 
3009.10   11.2247   17.0112    2.0930    3.9614 
3009.20   11.3142   16.1052    2.1059    4.1426 
3009.30   10.9486   15.3708    2.1378    4.4169 
3009.40   10.8648   14.5647    2.1948    4.6590 
3009.50   10.7554   14.0254    2.2330    4.8354 
3009.60   10.3301   13.6060    2.2370    4.9170 
3009.70    9.9629   13.2677    2.2359    4.9838 
3009.80    9.2323   12.7232    2.2589    5.2014 
3009.90    8.4026   12.1788    2.3007    5.4358 
3010.00    7.7775   11.5132    2.3854    5.9017 
3010.10    6.7690   10.7757    2.4966    6.3672 
3010.20    6.5380   10.3915    2.5748    6.7497 
3010.30    6.2095   10.1001    2.6218    6.9903 
3010.40    5.7830    9.8657    2.6559    7.1218 
3010.50    5.7752    9.7600    2.6582    7.1884 
3010.60    5.7252    9.7748    2.6330    7.3007 
3010.70    5.6900    9.8690    2.6282    7.3234 
3010.80    5.7640   10.0899    2.5941    7.2482 
3010.90    5.9134   10.3833    2.5770    7.1610 
3011.00    5.8441   10.7038    2.5730    7.0289 
3011.10    5.9099   10.9895    2.5830    7.0027 
3011.20    6.0056   11.3858    2.5900    6.8103 
3011.30    5.7918   11.8254    2.5752    6.5667 
3011.40    5.8554   12.1826    2.5311    6.4134 
3011.50    6.0285   12.4774    2.5011    6.3264 
3011.60    6.3524   12.8609    2.4741    6.2315 
3011.70    6.7440   13.4030    2.4541    6.0397 
3011.80    7.0666   14.0116    2.4282    5.7408 
3011.90    7.3218   14.6177    2.3823    5.5026 
3012.00    7.8508   15.2730    2.3252    5.1549 
3012.10    8.0851   15.7514    2.2870    4.8386 
3012.20    8.3285   15.8530    2.2682    4.7164 
3012.30    8.6850   15.8570    2.2341    4.6452 
3012.40    9.1923   15.8264    2.2230    4.6248 
3012.50    9.4974   15.7021    2.2418    4.6689 
3012.60    9.3680   15.4542    2.2789    4.7373 
3012.70    9.5389   15.1998    2.2882    4.8323 
3012.80    9.6044   15.0297    2.2570    4.8433 
3012.90    9.7189   14.9218    2.2470    4.9730 
3013.00    9.7046   15.0208    2.2400    4.9298 
3013.10    9.4957   15.1930    2.2370    4.7834 
3013.20    9.1616   15.1646    2.2270    4.7111 
3013.30    9.1262   15.0031    2.2259    4.7610 
3013.40    9.3308   14.8230    2.2370    4.9448 
3013.50    9.4882   14.8861    2.2270    4.9593 
3013.60    9.5103   15.0733    2.2200    4.8952 
3013.70    9.7038   15.2531    2.2170    4.8482 
3013.80    9.9717   15.4510    2.2070    4.8585 
3013.90   10.1841   15.7705    2.1970    4.8939 
3014.00   10.1789   16.2510    2.1930    4.7748 
3014.10   10.4633   16.6968    2.1970    4.7863 
3014.20   10.9365   17.2471    2.1870    4.6710 
3014.30   10.6351   17.8564    2.1800    4.5004 
3014.40   10.8431   18.4299    2.1770    4.3916 
3014.50   11.0113   18.8728    2.1700    4.2410 
3014.60   11.2283   19.2728    2.1670    4.1000 
3014.70   11.3860   19.5792    2.1482    4.0823 
3014.80   10.9983   19.9643    2.1170    4.0282 
3014.90   10.6442   20.3987    2.1011    3.9498 
3015.00   10.3230   20.8953    2.0711    3.8182 
3015.10   10.4572   21.5326    2.0382    3.8018 
3015.20   10.7836   22.3933    2.0100    3.8093 
3015.30   10.7927   23.5936    1.9982    3.6831 
3015.40   10.4941   25.4539    1.9464    3.4262 
3015.50    9.9201   27.5191    1.8723    3.1585 
3015.60    9.1662   29.5506    1.8034    2.8483 
3015.70    7.5906   31.7267    1.7164    2.4942 
3015.80    5.9536   34.2407    1.6245    2.1138 
3015.90    4.6352   36.5319    1.5223    1.9328 
3016.00    3.5098   38.2455    1.4889    1.7816 
3016.10    2.9156   39.2758    1.5159    1.6604 
3016.20    2.7392   39.3974    1.5123    1.5752 
3016.30    2.6292   39.1290    1.4493    1.5341 
