~Version information
VERS.                            2.00: CWLS LAS  -  VERSION 2.00
WRAP.                              NO: One line per depth step
~Well information
#MNEM.UNIT                  DATA TYPE  INFORMATION
#===.================================:==================
STRT.M                       3000.000: First depth in file
STOP.M                       3109.000: Last depth in file
STEP.M                          0.100: Depth increment
NULL.                       -9999.00 : Null values
DATE.                       : LOG DATE
TIME.                                : LOG TIME
WELL.                             F8: Well name
GRP.                        : Group name
FLD.                    F: Field name
ISS.            ќкончательный каротаж: Well surveys
SRVC.     : Service Company
~Curve information
#MNEM.UNIT                   API CODE   CURVE DESCRIPTION
#===.================================:==================
DEPT.M                               : Depth curve
GZ3 .OHMM                            : A2.0M0.5N, ќм*м - 1475.0 см
IK  .MSM/M                           : » , м—м/м - 1961.0 см
PS  .MV                              : ѕ—, м¬ - 1025.0 см
BK  .OHMM                            : Ѕ , ќм*м - 1768.0 см
#
~Other information
#------------------ REMARKS AREA -----------------------
#=======================================================
# The file is generated by the program GeoTech-EditLog v2000.12
#Number of Curves = 4
~A Log Data Section
# ...
3065.60    6.8000  173.9937  799.0265    4.4988 
3065.70    6.8000  173.4142  798.2673    4.4466 
3065.80    6.8773  173.5915  798.2491    4.3378 
3065.90    6.9000  173.5252  798.1627    4.2240 
3066.00    6.8227  173.2396  797.8853    4.1763 
3066.10    6.8773  173.5157  796.6575    4.2073 
3066.20    6.8227  172.6496  794.9265    4.2626 
3066.30    6.8773  173.2105  794.2079    4.2985 
3066.40    6.8227  174.2203  794.7354    4.4579 
3066.50    6.9546  174.4497  795.3811    4.6197 
3066.60    7.0000  174.2649  795.4399    4.6737 
3066.70    7.2318  173.8142  795.8808    4.6800 
3066.80    7.3773  174.6651  796.5584    4.6613 
3066.90    7.3227  176.6032  796.8718    4.5633 
3067.00    7.3000  177.1369  796.9945    4.4277 
3067.10    7.2227  177.6332  797.2491    4.4348 
3067.20    7.0455  179.1849  796.8536    4.5360 
3067.30    7.0000  179.6687  797.8770    4.5912 
3067.40    7.0000  180.0313  799.3762    4.5989 
3067.50    7.0773  180.6841  800.3358    4.5651 
3067.60    7.1773  182.8854  800.3625    4.5176 
3067.70    7.2773  183.1910  799.8536    4.4911 
3067.80    7.2227  183.0888  799.4080    4.5175 
3067.90    7.3545  181.9959  799.8580    4.5152 
3068.00    7.5546  181.8396  800.2491    4.5049 
3068.10    7.6000  183.7893  800.7038    4.5300 
3068.20    7.5227  186.1264  800.9717    4.5226 
3068.30    7.5773  186.8687  800.7853    4.4615 
3068.40    7.4455  187.8678  800.9490    4.2502 
3068.50    7.4000  188.6915  800.7079    3.8999 
3068.60    7.3227  190.7235  800.2307    3.5979 
3068.70    7.1455  195.0166  800.1945    3.4191 
3068.80    6.9454  197.9232  799.7534    3.3313 
3068.90    6.8227  199.2142  800.0035    3.2889 
3069.00    6.6454  200.2069  800.4265    3.3072 
3069.10    6.6000  201.7293  800.9811    3.4036 
3069.20    6.6000  202.5228  801.1172    3.4749 
3069.30    6.5227  204.5597  802.2770    3.4739 
3069.40    6.7318  204.9752  803.0035    3.4263 
3069.50    6.5680  206.5597  802.4214    3.4163 
3069.60    6.6546  206.4484  801.9080    3.4212 
3069.70    6.6227  207.6618  801.3536    3.4623 
3069.80    6.7546  208.9651  801.2172    3.5336 
3069.90    6.5682  210.5496  802.2989    3.6160 
3070.00    6.7320  211.4296  803.0811    3.6637 
3070.10    6.8000  212.8786  802.5987    3.6737 
3070.20    6.8773  212.3898  802.4172    3.6763 
3070.30    7.0546  212.8196  802.3399    3.6737 
3070.40    7.0227  214.9081  802.7035    3.6837 
3070.50    7.0773  214.9269  803.1265    3.6900 
3070.60    7.1000  215.8127  803.2945    3.6900 
3070.70    7.1000  217.7398  802.3901    3.6454 
3070.80    6.9454  220.6069  802.8130    3.5178 
3070.90    6.8227  222.3435  802.0901    3.3966 
3071.00    6.7227  223.4550  801.0440    3.3920 
3071.10    6.5454  225.7142  800.1214    3.5397 
3071.20    6.3455  226.3862  800.3035    3.6586 
3071.30    6.3000  228.6423  800.1853    3.6788 
3071.40    6.3773  231.2215  798.8810    3.6192 
3071.50    6.2454  232.7624  798.5172    3.4608 
3071.60    6.4320  234.6742  799.7543    3.2391 
3071.70    6.2682  237.4557  799.7310    3.0754 
3071.80    6.1227  238.3169  799.1533    2.9963 
3071.90    5.7910  240.7227  799.7899    3.0011 
3072.00    5.7773  243.0787  800.4811    3.0126 
3072.10    5.6454  243.0854  800.9265    3.0037 
3072.20    5.5227  244.3105  800.4764    3.0100 
3072.30    5.5000  246.2078  801.4769    3.0287 
3072.40    5.4227  246.5800  802.1263    3.0637 
3072.50    5.3227  247.1533  802.2172    3.0663 
3072.60    5.3773  247.1332  800.9802    3.0675 
3072.70    5.4000  248.1898  800.4627    3.0614 
3072.80    5.4773  248.4069  800.6492    3.0263 
3072.90    5.3455  251.3459  799.7128    3.0163 
3073.00    5.4546  252.8824  799.9584    3.0026 
3073.10    5.4227  251.5581  799.5760    2.9900 
3073.20    5.3227  251.7630  799.4945    3.0049 
3073.30    5.3773  253.0306  798.6667    3.0487 
3073.40    5.4000  253.3983  798.2627    3.0911 
3073.50    5.4000  255.1915  798.2945    3.0914 
3073.60    5.4000  256.1908  798.7038    3.0637 
3073.70    5.4773  257.4496  798.9717    3.0886 
3073.80    5.3454  256.9824  799.7131    3.1125 
3073.90    5.4545  257.2167  799.6855    3.0815 
3074.00    5.3454  259.0597  798.4575    3.0166 
3074.10    5.1454  259.7674  797.3441    2.9637 
3074.20    5.2545  262.6033  796.8854    2.9589 
3074.30    5.0680  263.7042  796.7399    2.9400 
3074.40    4.9227  265.0154  796.4855    2.9326 
3074.50    4.9773  266.1852  795.4894    2.9237 
3074.60    4.8454  267.0977  795.5265    2.9113 
3074.70    4.8000  269.4337  795.3854    2.8466 
3074.80    4.8000  272.3905  794.5440    2.7601 
3074.90    4.7227  274.9265  794.8580    2.7100 
3075.00    4.7000  275.9524  795.4038    2.6840 
3075.10    4.4680  277.6128  794.7440    2.6176 
3075.20    4.5545  279.9996  793.9764    2.5614 
3075.30    4.5227  283.0688  793.8945    2.5225 
3075.40    4.4227  284.4569  793.1446    2.5137 
3075.50    4.4773  287.3033  793.9996    2.5200 
3075.60    4.4227  290.7977  795.0904    2.4901 
3075.70    4.2455  292.9216  796.2443    2.4363 
3075.80    4.3546  294.5333  797.5997    2.4263 
3075.90    4.4000  296.3874  797.1446    2.4422 
3076.00    4.3227  298.1470  796.9172    2.5023 
3076.10    4.4546  298.6454  796.9945    2.5437 
3076.20    4.5000  301.9447  797.3263    2.5500 
3076.30    4.5000  303.1270  797.8038    2.5687 
3076.40    4.4227  304.0447  798.3035    2.6037 
3076.50    4.4773  305.1560  798.2626    2.6434 
3076.60    4.5000  305.4854  797.4440    2.7336 
3076.70    4.5000  306.9228  796.9855    2.8123 
3076.80    4.4227  309.0661  796.8399    2.8724 
3076.90    4.4773  308.8972  796.1219    2.9360 
3077.00    4.4227  309.8751  795.8399    2.8239 
3077.10    4.2454  310.8923  795.3533    2.4928 
3077.20    4.2000  312.5228  795.0627    2.3466 
3077.30    4.0454  314.5597  794.0894    2.2676 
3077.40    3.9227  314.6215  793.4309    2.2078 
3077.50    3.7454  317.3323  792.8533    2.1700 
3077.60    3.5454  320.9469  792.9492    2.1775 
3077.70    3.5773  323.1679  792.7082    2.2086 
3077.80    3.5227  324.7360  792.4626    2.2325 
3077.90    3.4227  327.5459  792.8808    2.2089 
3078.00    3.4000  329.8978  793.6357    2.1714 
3078.10    3.4000  331.2332  793.7399    2.1475 
3078.20    3.4000  332.2545  793.5627    2.1786 
3078.30    3.4000  332.0169  793.1306    2.2436 
3078.40    3.4000  331.7703  793.0945    2.3074 
3078.50    3.4000  329.7397  793.3492    2.3274 
3078.60    3.5546  330.8704  793.8038    2.3512 
3078.70    3.6773  332.0801  794.0718    2.3811 
3078.80    3.7000  333.2915  794.1172    2.4037 
3078.90    3.6227  333.1191  794.1172    2.3915 
3079.00    3.6773  332.3206  794.7358    2.3489 
3079.10    3.7000  334.1523  794.2987    2.3188 
3079.20    3.7773  337.2203  793.5764    2.3000 
3079.30    3.7227  338.5842  793.2626    2.2963 
3079.40    3.7000  341.1386  793.1400    2.2752 
3079.50    3.6227  343.1905  793.2719    2.2500 
3079.60    3.5227  346.4757  792.6987    2.2500 
3079.70    3.6545  347.9667  791.3583    2.2426 
3079.80    3.6227  348.8969  791.2491    2.2113 
3079.90    3.5227  350.7423  790.9309    2.1689 
3080.00    3.4227  351.7832  790.4306    2.1351 
3080.10    3.2454  356.5196  790.3172    2.1100 
3080.20    3.2773  357.5435  789.5446    2.1137 
3080.30    3.1454  356.2798  789.0079    2.1051 
3080.40    3.1000  355.4521  788.9172    2.0615 
3080.50    3.0227  358.7778  788.6853    2.0226 
3080.60    3.0773  361.1060  789.0038    2.0175 
3080.70    3.0227  361.3545  788.9627    2.0151 
3080.80    3.0000  360.8688  788.6080    2.0087 
3080.90    3.0773  360.0642  788.6718    2.0660 
3081.00    3.1000  357.7333  788.8719    2.1323 
3081.10    3.1000  358.3499  789.1492    2.1775 
3081.20    3.0227  358.6972  789.2172    2.1937 
3081.30    3.1546  359.9587  788.9080    2.2000 
3081.40    3.2000  361.0313  789.2035    2.1778 
3081.50    3.2773  361.9323  789.4719    2.1289 
3081.60    3.3000  364.1581  789.4399    2.0876 
3081.70    3.3000  364.5752  788.3356    2.0389 
3081.80    3.3000  365.8406  788.1719    2.0088 
3081.90    3.2227  366.1349  788.6808    2.0160 
