~Version information
VERS.                            2.00: CWLS LAS  -  VERSION 2.00
WRAP.                              NO: One line per depth step
~Well information
#MNEM.UNIT                  DATA TYPE  INFORMATION
#===.================================:==================
STRT.M                       3000.000: First depth in file
STOP.M                       3109.000: Last depth in file
STEP.M                          0.100: Depth increment
NULL.                       -9999.00 : Null values
DATE.                       : LOG DATE
TIME.                                : LOG TIME
WELL.                             F8: Well name
GRP.                        : Group name
FLD.                    F: Field name
ISS.            ќкончательный каротаж: Well surveys
SRVC.     : Service Company
~Curve information
#MNEM.UNIT                   API CODE   CURVE DESCRIPTION
#===.================================:==================
DEPT.M                               : Depth curve
GZ3 .OHMM                            : A2.0M0.5N, ќм*м - 1475.0 см
IK  .MSM/M                           : » , м—м/м - 1961.0 см
PS  .MV                              : ѕ—, м¬ - 1025.0 см
BK  .OHMM                            : Ѕ , ќм*м - 1768.0 см
#
~Other information
#------------------ REMARKS AREA -----------------------
#=======================================================
# The file is generated by the program GeoTech-EditLog v2000.12
#Number of Curves = 4
~A Log Data Section
# ...
3016.40   32.0130   41.5337  793.7432  263.6836 
3016.50   31.2163   42.3093  793.7172  242.4385 
3016.60   31.7110   43.4688  792.7571  229.4230 
3016.70   33.4544   44.2284  792.3560  219.9341 
3016.80   34.9190   45.9854  791.4465  179.3806 
3016.90   36.7538   47.6362  792.0135  148.8990 
3017.00   39.9605   48.9665  792.2043  125.9692 
3017.10   43.3677   50.8752  792.2172  109.9893 
3017.20   46.4122   54.5044  792.4785   95.0083 
3017.30   50.8924   58.0937  792.7784  105.9303 
3017.40   55.5039   61.5898  793.1654  124.3048 
3017.50   61.4985   65.8783  793.6526  106.8458 
3017.60   69.8939   70.5547  793.9791   87.1762 
3017.70   79.1849   76.0568  794.3655   60.7774 
3017.80   93.1998   81.9176  795.0267   33.1067 
3017.90  107.8951   87.6703  796.1617   20.1123 
3018.00  129.1302   93.4900  797.5363   14.7265 
3018.10  151.9012   99.4825  798.0664   11.4573 
3018.20  169.0800  104.4306  797.8560    9.6524 
3018.30  179.5590  109.7454  797.9913    8.9394 
3018.40  177.4924  114.8996  797.6691    8.6996 
3018.50  162.7200  119.6211  797.2689    8.5965 
3018.60  147.2452  124.0020  796.3444    8.4759 
3018.70  130.0622  126.8189  795.8689    8.2996 
3018.80  116.3063  129.2298  795.3818    8.1259 
3018.90  103.8939  131.9423  795.8395    7.9120 
3019.00   92.1124  134.3546  796.0043    7.7523 
3019.10   82.6570  137.0205  795.5808    7.6347 
3019.20   73.4893  140.0259  795.4302    7.4186 
3019.30   65.3342  141.8573  795.6785    7.2135 
3019.40   56.2922  142.3920  795.5432    7.1303 
3019.50   52.4333  142.9279  795.3839    7.0881 
3019.60   49.3708  142.7625  795.2308    7.0460 
3019.70   45.1232  143.0497  795.1943    6.9373 
3019.80   38.1849  145.2957  795.3914    6.8686 
3019.90   33.4963  147.8947  795.4453    6.8686 
3020.00   29.1271  147.3913  795.8942    6.9128 
3020.10   25.8244  146.6269  795.8846    6.9457 
3020.20   23.0095  148.6946  795.1659    7.0356 
3020.30   20.8605  149.2820  794.9138    7.1870 
3020.40   19.1390  147.3853  794.4380    7.3127 
3020.50   17.5433  149.1957  793.7632    7.3043 
3020.60   16.4639  148.1040  793.2914    7.2313 
3020.70   15.2433  147.4788  793.1915    7.1001 
3020.80   14.2415  148.5888  793.1172    7.0629 
3020.90   13.3207  147.8078  792.9892    7.0514 
3021.00   12.6973  146.6913  792.6686    7.1099 
3021.10   12.2190  148.0244  792.8431    7.1114 
3021.20   11.7257  147.7272  792.9943    7.0929 
3021.30   11.6707  148.2854  792.9070    7.1670 
3021.40   11.3000  145.7306  792.0428    7.1971 
3021.50   11.3000  144.7108  792.0659    7.1829 
3021.60   11.3000  143.9430  791.9431    7.1113 
3021.70   11.2487  145.3237  791.9915    7.0144 
3021.80   11.0224  144.3557  791.9948    6.9401 
3021.90   10.7488  142.9401  792.3196    6.9557 
3022.00   10.5487  141.6235  792.6429    7.1655 
3022.10   10.3741  140.6591  792.8206    7.4145 
3022.20   10.3513  140.0110  792.9889    7.5699 
3022.30   10.5259  137.7327  792.5139    7.5729 
3022.40   10.6512  137.8174  792.0892    7.5015 
3022.50   10.8000  136.7396  791.7686    7.3873 
3022.60   10.8776  137.5210  791.7363    7.3099 
3022.70   11.1513  136.1208  791.1145    7.5140 
3022.80   11.3776  136.0659  790.7655    7.6784 
3022.90   11.7024  133.6822  790.6172    7.9054 
3023.00   12.0513  132.5430  790.5659    8.0513 
3023.10   12.2776  130.7362  790.4689    8.0872 
3023.20   12.4743  130.1626  790.6429    7.9616 
3023.30   12.3224  131.5406  790.8723    7.6404 
3023.40   12.0232  131.2272  791.4453    7.5215 
3023.50   11.8000  131.7854  791.9713    7.6555 
3023.60   11.8259  130.4040  792.5465    8.0576 
3023.70   11.9770  131.6237  793.0199    8.2912 
3023.80   12.1741  131.7464  793.3948    8.1745 
3023.90   12.1512  131.9658  793.7709    7.9361 
3024.00   12.2230  131.2591  794.2172    7.6774 
3024.10   11.8707  131.9532  794.2948    7.5199 
3024.20   11.3716  132.8690  794.4402    7.3716 
3024.30   10.9224  133.0142  794.2172    7.2558 
3024.40   10.6232  132.8465  794.0123    7.3170 
3024.50   10.4513  132.6464  793.2632    7.7580 
3024.60   10.6517  133.6210  792.6104    8.1904 
3024.70   10.9284  132.5563  791.9659    8.4127 
3024.80   11.3259  132.8176  791.8172    8.4914 
3024.90   11.5280  131.5724  791.8172    8.5428 
3025.00   11.8743  133.2440  791.7402    8.4216 
3025.10   11.8517  134.0337  791.5948    8.1254 
3025.20   12.0000  135.3721  791.6888    7.5407 
3025.30   12.0517  136.0337  791.2138    7.3387 
3025.40   12.2768  137.2883  790.7892    7.3713 
3025.50   12.5513  138.2693  790.4172    7.5255 
3025.60   13.0102  140.0923  790.4689    7.6959 
3025.70   14.1567  138.2338  790.3862    7.9940 
3025.80   15.0034  138.2337  789.6655    8.1085 
3025.90   15.4024  138.3981  789.4148    7.8975 
3026.00   15.6230  140.5957  789.1172    7.4148 
3026.10   15.1673  140.4269  789.2206    6.7736 
3026.20   14.2689  142.4947  789.4402    6.3889 
3026.30   13.4707  142.9142  789.2689    6.3571 
3026.40   12.9976  143.6690  789.5453    6.3686 
3026.50   12.7770  142.0522  790.1996    6.8323 
3026.60   13.0517  141.4625  791.1465    8.1200 
3026.70   13.3797  137.9758  791.7996    9.3730 
3026.80   14.0551  135.8879  792.7982    9.0021 
3026.90   14.5512  134.5240  793.2404    7.5836 
3027.00   14.5716  134.6498  792.9915    6.9320 
3027.10   13.9673  134.3786  792.8397    7.0660 
3027.20   12.8892  133.6433  792.7456    7.3654 
3027.30   11.3639  134.2693  793.1431    7.8038 
3027.40   10.1951  133.5756  793.0123    8.0411 
3027.50    9.5487  132.5752  792.5199    8.1385 
3027.60    9.2707  131.5752  792.6879    8.0899 
3027.70    8.8743  132.6722  792.2145    8.0800 
3027.80    8.8259  131.9074  791.9948    8.1656 
3027.90    8.9512  132.7206  792.2941    8.2741 
3028.00    9.1257  132.9142  792.4146    8.3414 
3028.10    9.3293  134.0049  791.9104    8.2728 
3028.20    9.7513  134.8851  791.1888    8.0032 
3028.30    9.9517  136.5244  790.5845    7.8230 
3028.40   10.0488  137.1497  789.7380    7.6289 
3028.50    9.9513  139.4796  789.2429    7.4545 
3028.60   10.1000  141.5084  789.1104    7.3184 
3028.70   10.2027  143.8269  788.3889    7.3428 
3028.80   10.6034  145.8923  788.0689    7.6154 
3028.90   11.0537  147.6399  787.5002    7.8140 
3029.00   11.6540  149.9279  785.1862    7.8914 
3029.10   12.2810  152.7474  784.5431    7.7112 
3029.20   12.9284  155.5624  784.2578    7.3975 
3029.30   13.4034  157.6084  782.9587    7.1360 
3029.40   13.6488  161.5203  782.0123    6.9973 
3029.50   13.4230  164.8991  781.3915    6.8773 
3029.60   13.0707  167.2601  780.8001    6.7828 
3029.70   12.5460  168.6206  779.4969    6.6073 
3029.80   11.9707  170.5762  779.9914    6.3831 
3029.90   11.3951  173.6817  779.7380    6.2302 
3030.00   10.6973  174.0464  779.0889    6.1929 
3030.10   10.2449  177.0347  778.5621    6.2243 
3030.20    9.7230  177.5303  777.9889    6.2985 
3030.30    9.3966  180.6186  777.3070    6.2501 
3030.40    9.1000  179.1176  776.0843    6.3170 
3030.50    9.1513  180.7279  775.2969    6.4841 
3030.60    9.4293  179.1005  775.6879    6.9048 
3030.70   10.0567  180.2237  775.2659    7.3296 
3030.80   11.0068  178.2488  775.1431    7.5955 
3030.90   11.8049  177.8985  775.3453    7.6557 
3031.00   12.4516  177.9992  775.7043    7.4908 
3031.10   12.6531  176.8225  775.6540    7.2932 
3031.20   12.7732  176.3596  775.6709    7.0960 
3031.30   12.5655  176.1440  776.0323    6.9398 
3031.40   11.9585  176.7084  776.7782    6.6083 
3031.50   11.1659  175.3677  777.3514    6.3864 
3031.60   10.6655  175.7101  777.9593    6.1690 
3031.70   10.3805  172.9284  778.9392    6.2442 
3031.80   10.7883  170.5423  780.1669    6.4337 
3031.90   11.6488  165.5459  781.6002    6.7457 
3032.00   13.1634  161.1406  783.3197    7.3802 
3032.10   15.5068  155.4920  784.9551    7.7565 
3032.20   18.4244  149.6913  786.6319    9.1020 
3032.30   20.6958  146.1765  787.1635   11.2797 
3032.40   21.4195  140.7913  787.1245    9.5193 
3032.50   20.8244  139.9142  787.5245    8.1584 
3032.60   18.9394  138.3820  787.8441    8.2779 
3032.70   15.7683  138.2840  787.6221    8.4242 
