~Version information
VERS.                            2.00: CWLS LAS  -  VERSION 2.00
WRAP.                              NO: One line per depth step
~Well information
#MNEM.UNIT                  DATA TYPE  INFORMATION
#===.================================:==================
STRT.M                       3000.000: First depth in file
STOP.M                       3109.000: Last depth in file
STEP.M                          0.100: Depth increment
NULL.                       -9999.00 : Null values
DATE.                       : LOG DATE
TIME.                                : LOG TIME
WELL.                             F8: Well name
GRP.                        : Group name
FLD.                    F: Field name
ISS.            ќкончательный каротаж: Well surveys
SRVC.     : Service Company
~Curve information
#MNEM.UNIT                   API CODE   CURVE DESCRIPTION
#===.================================:==================
DEPT.M                               : Depth curve
GZ3 .OHMM                            : A2.0M0.5N, ќм*м - 1475.0 см
IK  .MSM/M                           : » , м—м/м - 1961.0 см
PS  .MV                              : ѕ—, м¬ - 1025.0 см
BK  .OHMM                            : Ѕ , ќм*м - 1768.0 см
#
~Other information
#------------------ REMARKS AREA -----------------------
#=======================================================
# The file is generated by the program GeoTech-EditLog v2000.12
#Number of Curves = 4
~A Log Data Section
# ...
3049.20    6.3137  205.0874  778.8808    4.6111 
3049.30    6.0454  201.1924  779.3265    4.6188 
3049.40    6.0773  198.4886  779.4945    4.7075 
3049.50    6.3320  194.9479  779.9811    5.0758 
3049.60    6.5546  190.8103  780.1945    5.5131 
3049.70    6.9090  186.7984  779.8309    5.9467 
3049.80    7.4639  183.4333  779.4080    6.5278 
3049.90    7.9863  182.8825  779.2399    6.9416 
3050.00    8.7959  180.3179  780.1450    6.9276 
3050.10    9.9278  179.1293  781.1130    6.6103 
3050.20   11.3589  179.0032  782.2443    6.4951 
3050.30   12.6278  180.0687  782.5945    6.3207 
3050.40   13.3636  181.1740  781.9991    6.0329 
3050.50   13.5000  181.9787  781.8945    6.0295 
3050.60   13.1907  182.5552  782.0719    6.1449 
3050.70   11.9411  184.7752  782.6580    6.0511 
3050.80   10.6722  187.1751  783.5904    5.6933 
3050.90    9.5501  187.6959  784.4353    5.3559 
3051.00    8.6041  188.2841  785.1584    5.2300 
3051.10    7.7041  189.7376  785.2399    5.2897 
3051.20    7.1137  188.9032  785.0627    5.3082 
3051.30    6.3041  189.2597  784.0121    5.0730 
3051.40    5.6364  187.5179  784.2581    5.0138 
3051.50    5.1907  185.5142  784.2626    5.2755 
3051.60    4.8680  184.8732  784.2172    5.4573 
3051.70    4.6455  182.7593  783.2901    5.5386 
3051.80    4.6000  180.0215  781.6255    5.6036 
3051.90    4.6000  177.1886  779.8265    5.6303 
3052.00    4.9866  175.2787  779.4945    5.5874 
3052.10    5.2546  173.8966  779.2853    5.6522 
3052.20    5.6090  171.0898  779.6035    5.7846 
3052.30    6.0866  169.3570  780.1811    5.8003 
3052.40    6.8954  168.2154  779.7764    5.5665 
3052.50    7.4866  167.8961  779.8492    5.2211 
3052.60    8.3732  165.5991  780.1492    5.1170 
3052.70    9.2181  164.4166  779.7537    5.5922 
3052.80   10.0185  161.4915  775.9833    6.0939 
3052.90   10.3545  160.3288  774.6082    5.9907 
3053.00   10.5546  157.4015  775.2131    6.1018 
3053.10   10.7546  156.3376  775.8811    6.6615 
3053.20   10.7227  155.6093  775.9399    6.9814 
3053.30   10.6227  155.5570  776.0719    6.7560 
3053.40   10.6000  154.8752  775.8082    6.0593 
3053.50   10.7546  156.0697  775.7945    5.3445 
3053.60   10.9546  155.5332  774.5801    5.4463 
3053.70   11.3863  156.0947  774.9899    6.0458 
3053.80   11.4227  154.5915  776.2224    6.5876 
3053.90   11.4000  154.7727  775.7446    7.1294 
3054.00   11.1680  154.8333  774.5121    7.0841 
3054.10   10.4815  155.0937  772.4390    6.3671 
3054.20    9.8364  155.5398  770.6810    6.0860 
3054.30    9.2361  157.3078  770.1626    6.0218 
3054.40    8.7910  157.1142  770.0400    5.8511 
3054.50    8.2361  157.1497  770.2491    6.0893 
3054.60    7.7907  157.6415  770.2399    6.7361 
3054.70    7.5455  158.5910  770.2945    7.2929 
3054.80    7.4227  159.1624  770.7811    7.6478 
3054.90    7.3227  160.2508  771.8444    8.2432 
3055.00    7.3773  161.9106  772.9677    8.4782 
3055.10    7.4773  164.5947  773.7584    7.4968 
3055.20    7.7318  168.5569  775.6942    6.1638 
3055.30    8.1093  171.9350  777.2224    5.9487 
3055.40    8.3545  176.5691  778.9852    6.6336 
3055.50    8.8639  180.2995  781.0409    7.1303 
3055.60    9.4639  184.8401  782.9089    7.3858 
3055.70   10.1408  188.4593  785.2487    7.3442 
3055.80   11.1505  192.7941  787.2863    6.8583 
3055.90   12.4817  197.3264  789.6487    6.2067 
3056.00   14.1144  204.6805  791.3770    5.1478 
3056.10   15.5824  210.0288  793.1863    4.1574 
3056.20   16.3636  215.6642  795.3942    3.6757 
3056.30   16.0361  220.1577  797.2316    3.4940 
3056.40   14.2002  224.5044  798.3126    3.3852 
3056.50   11.9217  227.8741  799.5223    3.3786 
3056.60    9.3124  231.1415  800.5131    3.4697 
3056.70    7.6956  230.2520  801.6443    3.6183 
3056.80    6.7041  227.6396  803.3090    3.8679 
3056.90    6.2682  226.9288  803.4855    4.1945 
3057.00    6.3546  223.3988  803.7265    4.1808 
3057.10    6.6320  220.9884  804.3584    4.0673 
3057.20    7.1636  217.1569  803.5128    4.1932 
3057.30    7.6866  213.0015  802.5987    4.4717 
3057.40    7.9545  211.0581  801.7219    4.8416 
3057.50    8.0773  208.6396  801.5172    4.8722 
3057.60    7.9454  208.8801  801.8265    4.7310 
3057.70    8.1318  208.0203  801.8400    4.8483 
3057.80    9.3598  207.6470  801.8945    5.0494 
3057.90   11.7088  205.5886  802.0718    5.5614 
3058.00   14.2329  204.2105  801.4987    6.4133 
3058.10   16.8102  205.1854  800.8533    6.7249 
3058.20   18.4817  206.0923  800.5627    5.7502 
3058.30   18.6454  208.1523  800.5945    4.4976 
3058.40   17.6729  210.9410  800.4627    3.8843 
3058.50   15.1578  214.1978  799.9533    3.5531 
3058.60   12.4124  215.6401  799.0440    3.3952 
3058.70    9.9457  216.3240  798.4309    3.2568 
3058.80    7.7763  214.5851  798.0853    3.1164 
3058.90    6.1411  214.5727  796.2402    3.1527 
3059.00    4.8722  212.0098  795.9492    3.4141 
3059.10    4.0588  206.5679  795.4760    3.6348 
3059.20    3.3592  202.1569  794.3901    3.7806 
3059.30    2.8907  197.1506  793.8853    3.9970 
3059.40    2.6455  193.7642  793.2764    4.2119 
3059.50    2.4454  189.1643  793.0399    4.3669 
3059.60    2.4773  185.2937  793.1719    4.5360 
3059.70    2.5773  183.1581  792.7537    4.6672 
3059.80    2.7546  180.3851  792.6945    4.7151 
3059.90    3.0318  179.1349  794.1079    4.6492 
3060.00    3.1000  177.1105  795.0584    4.5428 
3060.10    3.4866  177.4444  795.8358    4.4613 
3060.20    3.8318  176.9801  796.7126    4.4003 
3060.30    4.2866  177.4470  797.1492    4.3052 
3060.40    5.0954  176.9093  797.7581    4.2560 
3060.50    5.7639  176.9279  798.0719    4.3409 
3060.60    6.3639  175.3854  797.9626    4.4548 
3060.70    6.8090  176.3276  798.9216    4.5560 
3060.80    7.0546  177.8851  799.1400    4.6000 
3060.90    7.2545  177.7313  798.1901    4.5852 
3061.00    7.3773  177.9587  797.4533    4.5266 
3061.10    7.5546  179.7059  797.5492    4.4252 
3061.20    7.6000  181.1215  797.1536    4.3203 
3061.30    7.8320  183.4423  797.0172    4.2327 
3061.40    7.9773  185.8447  797.0945    4.1811 
3061.50    8.2320  187.9841  796.9626    4.2074 
3061.60    8.2227  190.4347  797.3038    4.2349 
3061.70    8.0455  192.2520  797.7263    4.2563 
3061.80    8.0000  194.3724  797.8172    4.3097 
3061.90    7.8455  195.3874  797.7399    4.4990 
3062.00    8.0320  197.6433  797.7945    4.5868 
3062.10    8.0227  198.1908  797.8945    4.3680 
3062.20    8.0773  199.3081  799.0762    4.1540 
3062.30    8.0227  200.0360  799.8811    4.1473 
3062.40    8.0000  202.2093  800.0945    4.2285 
3062.50    7.7680  203.0433  799.0348    4.2749 
3062.60    7.6227  202.7006  798.1760    4.2552 
3062.70    7.5227  203.2691  797.8627    4.1094 
3062.80    7.3454  205.1915  796.4255    3.9452 
3062.90    7.3000  204.9483  795.7855    3.8440 
3063.00    7.1454  203.7724  795.0987    3.7926 
3063.10    7.0227  203.8347  794.1440    3.7390 
3063.20    6.8455  204.9801  792.9901    3.6328 
3063.30    6.6454  205.1279  792.9492    3.5551 
3063.40    6.5227  204.1862  793.0945    3.5226 
3063.50    6.4227  204.7761  793.0399    3.5063 
3063.60    6.3227  203.7923  793.4811    3.5112 
3063.70    6.2227  203.3715  793.9263    3.5374 
3063.80    6.2000  201.0924  794.5584    3.5537 
3063.90    6.0455  199.5557  795.4126    3.5897 
3064.00    6.0773  199.0697  796.0038    3.6772 
3064.10    6.0227  197.5718  796.6584    3.7400 
3064.20    6.2318  197.1727  797.0490    3.7660 
3064.30    6.3000  195.8506  797.5038    3.8361 
3064.40    6.4545  192.9240  798.0035    3.8578 
3064.50    6.3454  191.1497  797.4987    3.8349 
3064.60    6.4546  189.8966  796.5440    3.9122 
3064.70    6.4227  187.7264  796.7808    4.0297 
3064.80    6.5546  186.9088  797.4584    4.1509 
3064.90    6.7545  184.5374  797.6172    4.3182 
3065.00    6.8000  183.3988  798.4677    4.4223 
3065.10    6.6454  181.5225  799.3358    4.4899 
3065.20    6.6000  179.6471  798.9764    4.5549 
3065.30    6.7546  177.5497  799.0492    4.5651 
3065.40    6.7227  177.1544  798.9627    4.5215 
3065.50    6.7773  175.6052  798.7626    4.4974 
