~Version information
VERS.                            2.00: CWLS LAS  -  VERSION 2.00
WRAP.                              NO: One line per depth step
~Well information
#MNEM.UNIT                  DATA TYPE  INFORMATION
#===.================================:==================
STRT.M                       3000.000: First depth in file
STOP.M                       3109.000: Last depth in file
STEP.M                          0.100: Depth increment
NULL.                       -9999.00 : Null values
DATE.                       : LOG DATE
TIME.                                : LOG TIME
WELL.                             F8: Well name
GRP.                        : Group name
FLD.                    F: Field name
ISS.            ќкончательный каротаж: Well surveys
SRVC.     : Service Company
~Curve information
#MNEM.UNIT                   API CODE   CURVE DESCRIPTION
#===.================================:==================
DEPT.M                               : Depth curve
GZ3 .OHMM                            : A2.0M0.5N, ќм*м - 1475.0 см
IK  .MSM/M                           : » , м—м/м - 1961.0 см
PS  .MV                              : ѕ—, м¬ - 1025.0 см
BK  .OHMM                            : Ѕ , ќм*м - 1768.0 см
#
~Other information
#------------------ REMARKS AREA -----------------------
#=======================================================
# The file is generated by the program GeoTech-EditLog v2000.12
#Number of Curves = 4
~A Log Data Section
# ...
3032.80   12.8007  135.7616  786.8710    8.5876 
3032.90   10.5244  134.1259  787.1514    8.9044 
3033.00    9.2317  132.9783  787.6245    9.3319 
3033.10    8.3386  132.6434  787.9710    9.6939 
3033.20    7.8282  131.7715  788.1172    9.6532 
3033.30    7.5607  130.0597  788.1172    9.5529 
3033.40    7.1910  128.8484  788.2717    9.4678 
3033.50    6.8680  127.2470  788.6265    9.4709 
3033.60    6.9546  125.8937  789.1038    9.5549 
3033.70    6.7682  125.1374  789.9899    9.5837 
3033.80    6.7773  124.0697  790.4492    9.5713 
3033.90    6.7227  122.7849  791.4443    9.3546 
3034.00    7.0093  122.5597  791.3306    8.7910 
3034.10    7.5639  122.3771  792.4543    8.2692 
3034.20    8.0863  122.5423  794.0534    8.0703 
3034.30   10.2876  121.2078  795.0358    8.4081 
3034.40   12.8315  120.2008  794.5991    9.4752 
3034.50   16.2607  118.7497  795.2677   10.2320 
3034.60   21.9710  118.0664  796.2904   10.4805 
3034.70   28.1902  116.9264  796.7490   11.9764 
3034.80   35.1668  116.7470  795.9667   15.7778 
3034.90   39.8905  116.3508  794.7901   17.1378 
3035.00   42.5783  117.8687  794.9038   12.6581 
3035.10   42.0949  119.4044  794.3987    8.9540 
3035.20   38.5550  122.2167  794.6808    7.8825 
3035.30   33.8115  124.7687  792.8843    7.6724 
3035.40   29.3005  126.1215  791.9309    7.8842 
3035.50   25.7485  127.1306  792.2038    8.3249 
3035.60   23.0671  127.3264  792.3172    8.3648 
3035.70   20.6457  128.1544  792.8580    7.8899 
3035.80   18.3990  127.4915  794.5635    7.6513 
3035.90   15.8912  127.9910  795.7126    7.6941 
3036.00   13.7537  128.2787  796.6904    7.9426 
3036.10   11.9856  128.5347  797.8450    8.0343 
3036.20   10.9819  128.9020  798.8899    7.6616 
3036.30   10.0268  128.6915  799.4265    7.2182 
3036.40    9.2592  128.9789  798.0493    6.8910 
3036.50    8.8680  129.2687  797.6945    6.7251 
3036.60    8.5680  130.1635  798.1811    6.7410 
3036.70    8.6545  130.6142  798.7035    6.8472 
3036.80    8.7773  130.4015  799.3584    6.9399 
3036.90    9.2636  129.6959  799.4399    6.9974 
3037.00   10.0185  128.6179  799.2626    7.1103 
3037.10   10.9732  127.3937  798.9853    7.2763 
3037.20   12.0499  126.3191  799.0718    7.2774 
3037.30   13.1505  125.3079  799.8130    7.3385 
3037.40   14.2499  124.6545  800.4808    7.6980 
3037.50   15.7371  122.9279  800.9265    8.5788 
3037.60   17.7237  121.0293  801.2491   10.5127 
3037.70   19.9770  119.3118  802.5534   14.8335 
3037.80   22.5102  117.1851  803.6130   19.2780 
3037.90   25.1088  116.7130  804.7443   18.4277 
3038.00   26.7824  116.0751  803.6255   13.5340 
3038.10   26.6361  117.2347  802.9853   10.2147 
3038.20   25.6501  119.5471  803.2263    8.8813 
3038.30   23.3898  123.6005  802.9306    8.4845 
3038.40   20.6367  126.4166  804.1307    8.2363 
3038.50   18.1444  129.1460  804.9811    8.1966 
3038.60   16.3629  131.6454  802.7204    8.1101 
3038.70   14.6866  135.6874  801.2446    8.0489 
3038.80   13.6041  137.9433  799.8575    7.9180 
3038.90   12.7046  138.9106  799.2082    7.6040 
3039.00   11.8815  141.6942  799.1172    7.3045 
3039.10   11.3907  143.6840  798.7307    7.1003 
3039.20   11.0682  145.4569  797.8446    6.9034 
3039.30   10.9227  147.2396  797.6945    6.6616 
3039.40   10.7455  148.8276  799.0307    6.4188 
3039.50   10.5454  150.4560  799.2626    6.1594 
3039.60   10.4227  151.3908  798.9080    6.0885 
3039.70   10.2455  152.2959  799.1263    6.1589 
3039.80   10.1227  151.9624  799.1400    6.1213 
3039.90   10.1773  152.4849  799.5035    6.1085 
3040.00   10.5866  152.9687  799.5399    6.2366 
3040.10   11.0866  152.9732  799.0533    6.3776 
3040.20   11.4318  151.3898  798.9172    6.3103 
3040.30   11.8093  150.8269  798.9172    6.3831 
3040.40   12.2090  150.6483  798.6082    6.7420 
3040.50   12.3000  149.2597  798.6719    7.0669 
3040.60   12.3000  148.1513  798.4853    7.1800 
3040.70   12.1455  146.8898  797.3356    7.1466 
3040.80   12.0227  146.1142  797.1719    6.9967 
3040.90   11.6910  146.5740  796.8309    6.7955 
3041.00   11.5227  146.7406  796.5626    6.6977 
3041.10   11.0361  145.6566  796.5172    6.6488 
3041.20   10.7455  145.4545  795.9764    6.6932 
3041.30   10.6227  144.4724  796.3584    6.8560 
3041.40   10.2910  143.9666  796.9035    6.9500 
3041.50   10.2773  143.4787  797.0945    6.8831 
3041.60   10.4546  143.7347  797.3492    6.6991 
3041.70   10.8090  144.1020  798.1125    6.5540 
3041.80   11.4412  144.5296  798.7038    6.5175 
3041.90   12.3726  146.0142  800.0534    6.6153 
3042.00   13.7598  146.4396  799.6440    6.8975 
3042.10   15.8783  146.6088  797.5616    7.3091 
3042.20   18.8724  146.7520  796.3991    8.4239 
3042.30   21.8422  148.8369  795.3668   10.2627 
3042.40   24.1998  149.8935  793.8810    9.9167 
3042.50   25.2412  152.8751  792.7440    7.4414 
3042.60   24.7041  155.3522  791.2028    6.4016 
3042.70   22.1049  159.1630  790.5854    6.1920 
3042.80   19.0032  161.7778  789.9760    5.9630 
3042.90   15.8276  163.5374  788.5811    5.5553 
3043.00   13.1671  163.5333  787.1348    5.0397 
3043.10   10.9763  164.5415  785.8121    4.8625 
3043.20    9.4183  164.3947  785.4399    4.8351 
3043.30    8.1722  162.8206  785.4945    4.7578 
3043.40    7.1274  162.1654  785.9808    4.7330 
3043.50    6.4361  159.0188  786.9677    4.9589 
3043.60    5.9907  154.4049  786.9080    5.1637 
3043.70    5.5910  149.8642  786.8945    5.1514 
3043.80    5.2680  144.9098  787.9996    5.2730 
3043.90    5.3545  138.4508  788.9353    6.1640 
3044.00    5.5546  132.4352  789.8904    9.2877 
3044.10    5.9866  127.3406  789.8080   13.8844 
3044.20    6.7181  123.0764  788.7128   15.9052 
3044.30    7.9824  120.7078  788.1080   16.1597 
3044.40    9.2271  121.0447  786.4720   16.5677 
3044.50   10.5824  123.0423  785.4760   17.3167 
3044.60   12.3690  126.6591  784.9306   17.5992 
3044.70   14.2680  131.2288  784.1219   16.8577 
3044.80   15.8598  135.6577  783.1440   15.2780 
3044.90   17.1271  140.6410  782.9172   13.5679 
3045.00   17.7093  146.1313  782.6080   11.9343 
3045.10   17.8773  152.7084  782.8265   10.0665 
3045.20   17.6682  158.7898  783.3035    7.4661 
3045.30   16.7495  165.4059  781.9482    5.6982 
3045.40   15.5729  170.9471  781.1309    4.8695 
3045.50   14.0629  175.6387  780.8625    4.6283 
3045.60   12.3083  179.9454  781.1265    4.8182 
3045.70   10.8956  183.1386  781.6035    5.0334 
3045.80    9.6722  183.9142  782.2584    5.0937 
3045.90    9.1682  184.0910  782.6490    5.1148 
3046.00    8.8680  184.5206  782.5626    5.1549 
3046.10    9.0320  184.0020  783.0584    5.2210 
3046.20    9.5636  182.1483  782.6764    5.3755 
3046.30   10.2412  179.9797  782.2079    5.5573 
3046.40   11.0954  177.9849  783.1989    5.6052 
3046.50   11.8412  177.4406  784.0584    5.5503 
3046.60   12.0000  176.4279  784.2945    5.5299 
3046.70   11.6910  175.7886  784.0082    5.6395 
3046.80   11.1361  174.3751  782.6801    5.7512 
3046.90   10.5364  174.1886  781.4673    5.7960 
3047.00   10.0907  173.4132  780.7534    5.8883 
3047.10    9.6907  174.6308  780.3080    6.0110 
3047.20    9.4455  174.1691  780.2945    6.1246 
3047.30    9.4000  175.4888  780.5492    6.3493 
3047.40    9.4000  175.9166  778.8402    6.7186 
3047.50    9.2454  178.7523  777.1575    6.7676 
3047.60    9.2773  180.3415  777.4358    6.2264 
3047.70    9.1455  182.4935  778.3126    5.7277 
3047.80    9.1000  185.5814  778.1306    6.1378 
3047.90    9.0227  187.7459  777.9399    7.2125 
3048.00    9.0000  189.6015  778.0719    7.9012 
3048.10    9.1546  190.6386  778.3492    8.1101 
3048.20    9.5090  193.3910  777.5673    7.5100 
3048.30    9.7546  195.4868  777.0079    6.1546 
3048.40    9.6455  200.5179  777.3808    5.3028 
3048.50    9.6000  204.9487  777.9811    5.0143 
3048.60    9.0588  208.1893  778.1945    4.8379 
3048.70    8.5910  210.8447  779.2989    4.5551 
3048.80    7.9588  211.8142  779.6945    4.2130 
3048.90    7.4910  211.9557  779.8718    4.0797 
3049.00    7.0907  211.5406  780.0719    4.2043 
3049.10    6.7680  209.0323  778.8029    4.4308 
