~Version information
VERS.                            2.00: CWLS LAS  -  VERSION 2.00
WRAP.                              NO: One line per depth step
~Well information
#MNEM.UNIT                  DATA TYPE  INFORMATION
#===.================================:==================
STRT.M                       3000.000: First depth in file
STOP.M                       3109.000: Last depth in file
STEP.M                          0.100: Depth increment
NULL.                       -9999.00 : Null values
DATE.                       : LOG DATE
TIME.                                : LOG TIME
WELL.                             F8: Well name
GRP.                        : Group name
FLD.                    F: Field name
ISS.            ќкончательный каротаж: Well surveys
SRVC.     : Service Company
~Curve information
#MNEM.UNIT                   API CODE   CURVE DESCRIPTION
#===.================================:==================
DEPT.M                               : Depth curve
GZ3 .OHMM                            : A2.0M0.5N, ќм*м - 1475.0 см
IK  .MSM/M                           : » , м—м/м - 1961.0 см
PS  .MV                              : ѕ—, м¬ - 1025.0 см
BK  .OHMM                            : Ѕ , ќм*м - 1768.0 см
#
~Other information
#------------------ REMARKS AREA -----------------------
#=======================================================
# The file is generated by the program GeoTech-EditLog v2000.12
#Number of Curves = 4
~A Log Data Section
# ...
3082.00    3.3546  369.1624  788.2760    2.0674 
3082.10    3.2454  369.1513  788.5811    2.0725 
3082.20    3.2000  369.1277  788.6400    2.0377 
3082.30    3.2773  370.6852  788.3080    1.9552 
3082.40    3.2227  370.6728  788.7581    1.8726 
3082.50    3.1227  371.8323  788.5306    1.8526 
3082.60    3.1773  376.0167  788.2626    1.8475 
3082.70    3.1227  379.1972  788.4490    1.8674 
3082.80    2.9454  379.1116  788.7491    1.8837 
3082.90    2.9000  377.9082  788.5082    1.8863 
3083.00    2.9000  378.0688  789.0358    1.8911 
3083.10    2.9000  378.8567  789.6811    1.9249 
3083.20    2.9000  378.4777  790.2035    1.9723 
3083.30    2.9000  376.3216  790.7038    2.0436 
3083.40    2.9000  374.4435  790.4309    2.1000 
3083.50    2.9000  374.3142  791.5543    2.0889 
3083.60    3.0546  373.2816  792.6130    2.0663 
3083.70    3.0227  371.7679  793.5126    2.0600 
3083.80    3.0000  371.9179  793.4080    2.0451 
3083.90    2.8455  371.6508  793.1627    2.0200 
3084.00    2.8773  371.5025  792.9626    2.0349 
3084.10    2.9000  370.1113  792.6853    2.0563 
3084.20    2.9773  370.7825  792.6945    2.0574 
3084.30    3.0000  368.8560  792.4853    2.0663 
3084.40    2.9227  368.8667  792.7263    2.0600 
3084.50    3.0546  368.1306  793.5904    2.0637 
3084.60    3.0227  368.0060  792.9667    2.0513 
3084.70    3.0000  368.4313  791.0175    1.9977 
3084.80    3.0773  366.4252  790.3625    1.9563 
3084.90    3.1000  363.7850  788.3857    1.9463 
3085.00    3.0227  364.5169  785.8843    1.9437 
3085.10    2.9227  364.9020  784.4667    1.9537 
3085.20    2.9000  363.0130  784.7581    1.9526 
3085.30    2.9000  361.8788  784.6080    1.9363 
3085.40    2.9000  361.9203  784.4399    1.9189 
3085.50    2.9000  361.0507  784.3399    1.8963 
3085.60    2.8227  358.7938  783.7760    1.8825 
3085.70    2.8000  357.7191  783.3082    1.8663 
3085.80    2.7227  356.5306  782.6760    1.8637 
3085.90    2.6227  354.9533  782.7490    1.8774 
3086.00    2.6000  351.1707  783.2038    1.9086 
3086.10    2.7546  347.9567  783.7811    1.9549 
3086.20    2.7227  347.1887  784.3035    1.9874 
3086.30    2.7000  344.2507  784.8038    2.0037 
3086.40    2.7773  340.3691  785.4581    2.0248 
3086.50    2.8773  335.0771  785.3080    2.0574 
3086.60    2.8227  331.6650  785.6811    2.0737 
3086.70    2.7227  329.8350  785.5854    2.0800 
3086.80    2.8546  325.5062  785.4399    2.0688 
3086.90    2.9000  320.8703  785.2627    2.0537 
3087.00    2.9000  317.9179  784.7534    2.0563 
3087.10    2.9000  315.1270  784.8492    2.0500 
3087.20    2.9000  310.3350  784.5309    2.0723 
3087.30    3.0546  306.9988  784.8038    2.1212 
3087.40    3.1000  303.9582  784.6855    2.1474 
3087.50    2.9454  300.8661  784.2307    2.1786 
3087.60    3.0546  298.3133  784.1172    2.2361 
3087.70    3.1773  293.3825  783.9627    2.3060 
3087.80    3.2000  290.1797  784.0719    2.3761 
3087.90    3.3545  287.5837  784.3490    2.4348 
3088.00    3.4000  285.8343  785.0358    2.4972 
3088.10    3.3227  282.6337  786.2224    2.6010 
3088.20    3.4545  278.8837  786.5172    2.6997 
3088.30    3.4227  276.5316  786.0533    2.7537 
3088.40    3.4773  273.3777  785.6855    2.7229 
3088.50    3.5000  271.9661  785.9265    2.6080 
3088.60    3.6546  271.0869  785.6306    2.5163 
3088.70    3.5455  269.6777  785.8263    2.5137 
3088.80    3.5000  269.0106  785.2214    2.5312 
3088.90    3.5000  268.8532  785.3263    2.5685 
3089.00    3.4227  266.7015  784.4121    2.6372 
3089.10    3.4773  264.9611  784.2719    2.6963 
3089.20    3.5773  262.8679  784.3172    2.6900 
3089.30    3.6773  262.1316  784.0079    2.7310 
3089.40    3.8545  259.0837  783.9945    2.8556 
3089.50    3.9000  257.8661  784.0945    2.9500 
3089.60    3.9773  256.4528  784.1172    2.9052 
3089.70    4.0000  254.8203  785.1216    2.8337 
3089.80    4.0773  254.8015  785.9584    2.8848 
3089.90    3.9455  253.9898  786.4263    2.9897 
3090.00    3.9000  253.7105  787.3677    3.0363 
3090.10    3.7454  254.4005  787.5399    2.9964 
3090.20    3.8545  254.1557  787.6718    2.8954 
3090.30    3.9000  254.5560  788.0265    2.7715 
3090.40    3.9000  254.9557  788.0400    2.6603 
3090.50    3.7454  255.9232  788.3265    2.6063 
3090.60    3.8546  256.7513  788.8038    2.6261 
3090.70    3.9000  256.1618  787.9901    2.6923 
3090.80    3.7454  256.6142  787.3306    2.7337 
3090.90    3.7773  255.7301  786.6764    2.7252 
3091.00    3.7227  253.6888  786.2079    2.6777 
3091.10    3.7000  253.5552  785.8853    2.6251 
3091.20    3.9318  253.2642  786.2808    2.6223 
3091.30    4.0000  250.0115  786.3399    2.7010 
3091.40    4.0773  248.1008  786.2399    2.8034 
3091.50    4.1773  245.6215  786.2945    2.8786 
3091.60    4.2773  243.0308  786.3172    2.9025 
3091.70    4.3773  241.6142  786.6263    2.8974 
3091.80    4.2454  240.3734  786.6400    2.9399 
3091.90    4.2000  237.6544  787.2354    3.0085 
3092.00    4.2000  237.0624  788.4224    3.0400 
3092.10    4.2000  236.7308  789.1811    3.0139 
3092.20    4.1227  234.2179  789.7035    2.9551 
3092.30    4.0227  232.2497  789.2760    2.9188 
3092.40    4.1545  231.2532  788.1128    2.9111 
3092.50    4.2000  228.9242  787.7399    2.9672 
3092.60    4.1227  227.3952  788.1038    3.0785 
3092.70    4.1773  225.2776  788.2945    3.2046 
3092.80    4.1227  222.4125  788.3945    3.2837 
3092.90    4.2545  218.3240  788.0309    3.2900 
3093.00    4.2227  216.2306  789.3862    3.3011 
3093.10    4.3546  215.3225  790.7450    3.2939 
3093.20    4.4000  213.8362  791.9443    3.2240 
3093.30    4.3227  212.5915  792.5265    3.1875 
3093.40    4.3000  211.4288  792.3082    3.2185 
3093.50    4.3773  207.9342  791.0575    3.2686 
3093.60    4.4000  205.6952  790.9492    3.3560 
3093.70    4.3227  203.6483  791.3263    3.4872 
3093.80    4.4546  201.9052  790.9533    3.6022 
3093.90    4.6545  200.5788  791.2035    3.7419 
3094.00    4.7000  198.7416  793.3275    3.8411 
3094.10    4.9320  194.6239  792.9894    3.8936 
3094.20    5.0000  192.2361  794.6487    3.9872 
3094.30    5.0000  190.2824  797.3821    4.0724 
3094.40    5.1545  188.0410  797.5536    4.1322 
3094.50    5.1227  184.9697  798.1130    4.1663 
3094.60    5.2546  183.2937  798.3945    4.1227 
3094.70    5.3000  182.5020  798.7263    4.0414 
3094.80    5.5320  181.4761  799.3584    3.9876 
3094.90    5.9090  179.3593  799.2082    3.9240 
3095.00    6.4639  177.4015  798.3441    3.9655 
3095.10    7.3732  175.8391  796.8029    4.2220 
3095.20    8.2181  173.1130  795.0266    4.4472 
3095.30    8.7093  171.1633  794.2307    4.4876 
3095.40    8.8773  169.0483  794.7354    4.4315 
3095.50    8.3588  167.5179  793.6028    4.4037 
3095.60    7.7361  166.1513  792.7534    4.4287 
3095.70    6.8274  164.8898  791.9219    4.4934 
3095.80    6.1361  163.5824  789.1658    4.5761 
3095.90    5.6910  161.8362  787.7219    4.6571 
3096.00    5.3680  160.2015  788.4450    4.7460 
3096.10    5.3000  158.9596  788.8719    4.8124 
3096.20    5.2227  156.8130  790.3079    4.8760 
3096.30    5.2000  155.4306  790.9492    4.9536 
3096.40    5.1227  154.1008  792.7170    5.0508 
3096.50    5.1773  152.6142  794.9182    5.1534 
3096.60    5.1227  151.9020  797.6594    5.2473 
3096.70    5.1773  150.1191  803.1074    5.2951 
3096.80    5.2000  149.1433  806.9914    5.2625 
3096.90    5.0455  148.1301  808.1808    5.2648 
3097.00    5.0000  146.4433  811.7192    5.2751 
3097.10    5.0773  146.5991  816.0419    5.2164 
3097.20    5.1000  147.0788  818.1761    5.1266 
3097.30    5.1000  146.4115  820.2182    5.0327 
3097.40    5.1773  145.7740  819.8674    4.9515 
3097.50    5.1227  146.4015  819.2307    4.8940 
3097.60    5.1000  145.1596  818.8080    4.8575 
3097.70    5.1773  144.2154  818.7172    4.9518 
3097.80    5.1227  144.6761  818.4853    5.1684 
3097.90    5.0227  142.6654  819.8079    5.3519 
3098.00    5.1546  140.6888  819.5987    5.4289 
3098.10    5.2000  139.4157  818.3348    5.3204 
3098.20    5.1227  139.3630  817.5536    5.1626 
3098.30    5.3320  140.0988  817.3399    5.1948 
