~Version information
VERS.                            2.00: CWLS LAS  -  VERSION 2.00
WRAP.                              NO: One line per depth step
~Well information
#MNEM.UNIT                  DATA TYPE  INFORMATION
#===.================================:==================
STRT.M                       3000.000: First depth in file
STOP.M                       3109.000: Last depth in file
STEP.M                          0.100: Depth increment
NULL.                       -9999.00 : Null values
DATE.                       : LOG DATE
TIME.                                : LOG TIME
WELL.                             F8: Well name
GRP.                        : Group name
FLD.                    F: Field name
ISS.            ќкончательный каротаж: Well surveys
SRVC.     : Service Company
~Curve information
#MNEM.UNIT                   API CODE   CURVE DESCRIPTION
#===.================================:==================
DEPT.M                               : Depth curve
GZ3 .OHMM                            : A2.0M0.5N, ќм*м - 1475.0 см
IK  .MSM/M                           : » , м—м/м - 1961.0 см
PS  .MV                              : ѕ—, м¬ - 1025.0 см
BK  .OHMM                            : Ѕ , ќм*м - 1768.0 см
#
~Other information
#------------------ REMARKS AREA -----------------------
#=======================================================
# The file is generated by the program GeoTech-EditLog v2000.12
#Number of Curves = 4
~A Log Data Section
3000.00   26.4483   43.0025  780.8431  137.1823 
3000.10   27.1983   39.7357  780.9918  142.1674 
3000.20   28.5190   37.3523  781.0172  152.2046 
3000.30   29.7449   36.0523  781.1913  180.1458 
3000.40   30.1611   34.5179  781.1302  255.3185 
3000.50   30.7224   32.9643  781.2043  339.5210 
3000.60   31.3237   32.3586  781.1299  389.6802 
3000.70   32.3578   32.4262  780.9431  403.8055 
3000.80   34.0673   31.9410  781.5267  373.1010 
3000.90   36.6501   33.2069  782.4877  319.5973 
3001.00   39.7863   34.8213  783.2267  274.1584 
3001.10   43.8660   36.3576  782.7935  235.2409 
3001.20   49.3632   38.3832  783.4138  204.9474 
3001.30   56.6305   40.7659  784.0397  192.3104 
3001.40   71.2655   43.8679  785.0747  176.9667 
3001.50   86.3610   46.2832  786.0009  160.3642 
3001.60  108.9868   48.4391  786.8156  144.2494 
3001.70  132.2881   51.6330  787.5267  127.0840 
3001.80  161.1607   55.2113  788.2267  102.9850 
3001.90  194.5071   58.9093  789.1006   68.6938 
3002.00  226.7634   63.1140  789.9138   35.5720 
3002.10  255.5147   67.1835  790.1918   18.5297 
3002.20  268.7651   71.3497  790.3043   14.5062 
3002.30  266.6300   75.5835  790.5785   13.3794 
3002.40  252.0863   79.2935  791.7488   13.2616 
3002.50  231.1051   82.5259  791.7431   13.4848 
3002.60  210.3191   85.1123  792.0664   13.6794 
3002.70  194.1166   87.3093  792.5526   13.5586 
3002.80  179.2132   88.8771  792.6172   13.2547 
3002.90  165.2883   90.0362  792.9654   12.9955 
3003.00  150.9615   91.9998  792.1465   12.7823 
3003.10  138.6257   93.9040  791.3189   12.6076 
3003.20  123.5166   95.1118  791.4785   12.6914 
3003.30  110.1805   96.5308  791.8655   13.0236 
3003.40   97.7068   97.1984  790.6986   13.2676 
3003.50   87.4798   97.5832  789.9948   13.1123 
3003.60   78.6934   98.7410  790.0918   12.4758 
3003.70   70.1988   99.2404  790.7267   11.5781 
3003.80   62.5695   99.8771  791.4267   11.0194 
3003.90   54.8978  100.8557  792.1265   11.1559 
3004.00   48.5015  101.5594  793.3492   11.5789 
3004.10   42.5501  101.4781  794.5646   11.8836 
3004.20   38.7524  100.8167  795.0656   12.2441 
3004.30   35.6007  100.2596  792.6791   12.7130 
3004.40   33.1980   99.9081  791.4468   13.0145 
3004.50   31.3327   99.4594  790.5336   13.1900 
3004.60   29.6161   99.5596  791.2028   12.9693 
3004.70   28.2680   99.5238  790.4465   12.3336 
3004.80   27.0551   99.5503  789.8818   12.0994 
3004.90   26.0296   99.8947  789.9043   12.3455 
3005.00   25.1163  100.1142  789.9172   12.4912 
3005.10   24.4763  100.5679  789.5681   12.4747 
3005.20   24.0517  101.2951  789.4302   12.3767 
3005.30   23.5646  101.6957  788.4594   12.1329 
3005.40   23.3259  102.4557  788.8395   12.3515 
3005.50   23.3871  102.6619  788.5689   13.3625 
3005.60   23.4000  102.2049  788.1681   14.5484 
3005.70   23.7483  102.6761  788.2043   15.1106 
3005.80   24.2354  103.7947  787.8689   15.1330 
3005.90   24.4741  104.7045  787.4691   14.8649 
3006.00   24.5871  105.4475  786.4594   14.0822 
3006.10   24.3381  106.5771  786.3172   12.6532 
3006.20   23.2551  107.5570  785.8818   11.1212 
3006.30   22.3163  108.2142  786.1655   10.2270 
3006.40   20.8073  107.6727  784.7375    9.6516 
3006.50   19.4680  107.1499  783.2111    9.3464 
3006.60   17.9907  105.9532  780.5732    9.0982 
3006.70   17.2776  103.5000  779.5206    8.8373 
3006.80   16.8517  100.8357  779.3301    8.7477 
3006.90   16.8870   96.9642  779.1432    9.0435 
3007.00   17.2483   93.4929  779.4655    9.5042 
3007.10   18.7839   89.2015  779.4299    9.7471 
3007.20   20.8285   83.5074  780.2880   10.1896 
3007.30   24.4088   77.6293  782.0716   11.4020 
3007.40   28.1205   72.0191  786.9304   14.0163 
3007.50   32.9537   67.0003  786.4852   21.0410 
3007.60   36.1313   61.8088  786.7536   41.5669 
3007.70   39.0251   57.9311  788.3846   75.3851 
3007.80   41.0544   54.6986  789.7492  112.5242 
3007.90   43.2149   51.3544  791.5710  147.0679 
3008.00   45.6768   49.3951  791.4689  161.6836 
3008.10   48.0076   49.4781  792.1155  147.9323 
3008.20   51.2605   49.1785  791.4335  127.3770 
3008.30   54.4863   49.6493  791.2302  111.2806 
3008.40   55.3352   51.9483  791.8265   84.7232 
3008.50   53.0490   56.7543  791.5689   58.7682 
3008.60   49.9068   62.1288  791.6046   49.8375 
3008.70   47.8456   66.7568  791.7914   40.3013 
3008.80   46.2939   71.1659  791.0336   25.6214 
3008.90   46.4482   74.0423  790.7432   15.3969 
3009.00   49.7217   75.5499  790.8914   12.0633 
3009.10   53.3423   77.1205  791.1791   11.2612 
3009.20   54.3224   78.9047  791.1302   11.1931 
3009.30   53.1810   79.1049  791.1172   10.9988 
3009.40   51.2592   79.2593  791.1172   10.9808 
3009.50   49.7810   79.0881  790.6819   11.2341 
3009.60   48.2034   78.6781  790.4427   11.3118 
3009.70   47.5646   78.4237  790.6785   11.2800 
3009.80   48.3707   77.9967  791.2396   11.4871 
3009.90   49.3704   77.7947  791.2302   12.1754 
3010.00   50.0224   77.4262  791.0431   13.4149 
3010.10   48.9653   75.9883  790.4062   15.0350 
3010.20   47.0585   74.7976  789.9689   17.0338 
3010.30   45.1456   73.6430  789.3948   19.6916 
3010.40   43.6814   72.4886  788.9691   22.6655 
3010.50   42.7163   71.9428  788.6560   24.6013 
3010.60   41.9890   71.7957  788.5299   25.4254 
3010.70   41.3776   71.7880  787.7336   25.5226 
3010.80   40.6905   71.5596  787.0948   24.0709 
3010.90   39.5555   71.8849  787.0172   21.5562 
3011.00   37.5715   72.4404  786.9302   19.6881 
3011.10   35.7289   72.4420  787.0918   20.2915 
3011.20   34.1939   72.7475  788.0750   23.8388 
3011.30   33.4776   73.4235  787.6948   29.0119 
3011.40   33.6611   74.0813  787.5302   29.9304 
3011.50   34.4837   75.3761  787.8655   26.9362 
3011.60   36.4330   76.9030  788.2664   27.5629 
3011.70   38.4415   78.8022  788.6655   29.8935 
3011.80   40.5285   80.9205  788.5431   28.0628 
3011.90   42.7149   83.5618  788.2561   22.4983 
3012.00   44.8285   85.8450  788.5656   16.6410 
3012.10   47.1076   88.4845  788.7917   12.9957 
3012.20   48.7932   91.2807  788.3818   11.9353 
3012.30   49.9578   93.4040  788.0560   11.7736 
3012.40   50.3611   95.4227  788.1043   12.1388 
3012.50   50.0517   97.6475  788.2914   12.3164 
3012.60   49.3017   99.0947  788.7536   11.9458 
3012.70   47.5456  101.0902  789.0785   11.5943 
3012.80   45.9068  102.8318  789.8138   11.4070 
3012.90   43.3499  103.8459  790.2654   11.2847 
3013.00   40.5620  104.8404  791.1879   11.3841 
3013.10   38.3670  106.2937  791.4045   11.5841 
3013.20   35.8361  107.9856  791.8526   11.6196 
3013.30   33.9327  108.9493  791.3077   11.4223 
3013.40   32.4814  110.2105  790.8690   11.1726 
3013.50   30.9939  111.3570  790.8172   10.8941 
3013.60   29.7526  112.5132  790.7299   10.7394 
3013.70   28.2068  113.8832  791.1526   10.7688 
3013.80   26.6939  115.4947  791.6526   10.7100 
3013.90   25.1073  116.2240  792.2394   10.5731 
3014.00   23.3327  116.7927  792.6655   10.5153 
3014.10   22.1399  118.1132  793.1536   10.5288 
3014.20   20.9551  118.1262  793.9138   10.6674 
3014.30   19.7551  117.8679  794.0172   10.7670 
3014.40   18.7296  118.0532  793.7561   10.4389 
3014.50   17.9034  117.6594  793.1077    9.8793 
3014.60   17.5381  117.2605  792.9299    9.5353 
3014.70   17.4129  116.2619  793.0914    9.3790 
3014.80   17.1388  115.2605  793.2043    9.1688 
3014.90   16.8389  112.6386  793.2172    8.9443 
3015.00   16.9741  108.9834  793.0431    8.9312 
3015.10   17.0873  106.5708  792.8427    8.9576 
3015.20   17.2741  103.2335  792.7302    8.6988 
3015.30   17.7354   98.9449  792.4560    8.3376 
3015.40   18.6704   95.2801  791.9821    7.9841 
3015.50   19.9320   90.8360  792.0914    7.5752 
3015.60   22.3694   85.6274  791.9427    7.8372 
3015.70   25.4863   79.3599  792.0914   10.4806 
3015.80   28.8605   71.2303  792.0302   17.6167 
3015.90   31.1279   63.5752  792.7136   43.6645 
3016.00   32.8802   55.8052  793.2526   93.5557 
3016.10   33.5364   49.4542  793.3172  139.5632 
3016.20   32.8163   45.3597  793.5785  174.1354 
3016.30   32.1776   42.4791  793.8785  226.3756 
