~Version information
VERS.                            2.00: CWLS LAS  -  VERSION 2.00
WRAP.                              NO: One line per depth step
~Well information
#MNEM.UNIT                  DATA TYPE  INFORMATION
#===.================================:==================
STRT.M                          6.560: First depth in file
STOP.M                       3292.880: Last depth in file
STEP.M                          0.100: Depth increment
NULL.                       -9999.00 : Null values
DATE.                       : LOG DATE
TIME.                            8:51: LOG TIME
WELL.                             F1: Well name
GRP.                                1: Group name
FLD.                    F: Field name
ISS.      Тех.состояние экспл.колонны: Well surveys
SRVC.                                : Service Company
~Curve information
#MNEM.UNIT                   API CODE   CURVE DESCRIPTION
#===.================================:==================
DEPT.M                               : Depth curve
LMek.                                : 10 Локатор муфт,  -   28.0 см
GKek.MKR/H                           : :11 Гамма-активность, мкр./ч -   67.0 
TM  .IMP                             : :14 Толщиномер, имп/мин -  170.0 см
DFint.KG/M3                          : :15 Интегральный цементомер, имп/мин -
DF1 .KG/M3                           : :16 Селективный цементомер 1, имп/мин 
DF2 .KG/M3                           : :17 Селективный цементомер 2, имп/мин 
AK1 .                                : Casing wave amplitude (High freq.)
AK2 .                                : Casing wave amplitude (Low freq.)
AP  .                                : Rock wave amplitude
#
~Other information
#------------------ REMARKS AREA -----------------------
#=======================================================
# The file is generated by the program GeoTech-EditLog v2000.12
#Number of Curves = 9
~A Log Data Section
# ...
3274.76   301.4115    3.9235 3999.7473 12104.1787  9640.4922 14396.1621  131.9500  152.0240  463.2890 
3274.86   401.5336    4.4842 3962.5520 12029.9951  9515.9023 14054.1650  138.4219  150.1067  449.6278 
3274.96   317.9463    4.5287 3978.0330 12048.9717 10713.4385 12800.1982  144.8780  148.1940  436.0000 
3275.06   180.7790    4.4236 3994.6033 12057.0742 11938.0537 11552.0908  155.8914  152.5413  425.9878 
3275.16   274.2491    4.3456 4020.6350 11971.9707 13368.7988 10380.1611  166.8780  156.8780  416.0000 
3275.26   434.0537    4.2757 4041.3467 11885.3027 14678.3027  9309.5635  165.2880  159.5365  412.1905 
3275.36   455.2634    4.2445 4014.8145 11783.3027 14986.3027  9076.5635  163.6980  162.1950  408.3810 
3275.46   436.3098    4.2245 3990.5000 11716.1025 15180.1543  8950.3076  161.4233  159.4419  403.9949 
3275.56   406.8413    4.0497 3985.5000 11951.3896 14381.1797  9753.7871  159.1430  156.6820  399.5980 
3275.66   374.3016    3.8294 3979.7485 12160.1621 13525.9746 10618.1709  152.6065  150.9600  393.5111 
3275.76   460.2808    3.8458 3967.2637 12142.6836 12194.1025 11998.9824  146.0860  145.2520  387.4390 
3275.86   580.9280    3.9309 3958.8535 12141.4385 10943.0322 13380.5986  148.5515  139.5551  382.4579 
3275.96   433.4371    3.9036 3987.3186 12278.7705 10410.6826 14736.9404  151.0110  133.8720  377.4890 
3276.06   207.6618    3.8435 4011.3979 12406.7256  9942.6084 15873.9326  156.3785  136.0416  373.2393 
3276.16   269.9890    3.8611 3995.3784 12451.7803 10034.2197 15110.5020  161.7330  138.2060  369.0000 
3276.26   415.3113    3.9010 3985.2051 12484.9209 10282.7041 14257.2100  166.7940  140.7455  363.2855 
3276.36   385.5634    3.7122 4027.2563 12417.4209 11872.2041 12619.2100  171.8550  143.2850  357.5710 
3276.46   305.2598    3.4578 4064.2000 12360.1797 13450.1279 11058.9482  173.8790  151.8565  357.7603 
3276.56   283.1294    3.5006 4056.2000 12391.2178 14964.4746 10140.8291  175.9080  160.4490  357.9500 
3276.66   278.1233    3.6308 4049.9011 12427.0332 16214.1016  9376.9111  184.2502  178.1896  358.4531 
3276.76   250.2930    3.8922 4058.8901 12503.4395 15206.8330  9927.7373  192.5720  195.8870  358.9550 
3276.86   215.7509    4.1926 4062.7449 12565.6475 14128.1123 10564.1787  201.6831  214.4857  363.4855 
3276.96   290.8303    4.0781 4020.2966 12505.2207 12464.6455 11916.5254  210.7720  233.0390  368.0050 
3277.06   397.9609    3.8428 3980.9487 12448.6377 10878.8594 13286.0918  218.9490  232.2020  366.8371 
3277.16   422.3883    3.9220 3970.4358 12426.1104  9990.7764 14774.4062  227.1060  231.3670  365.6720 
3277.26   422.8877    4.0918 3958.9976 12404.4795  9268.2158 15978.3525  220.6510  220.0810  361.5035 
3277.36   332.2537    3.9012 3938.9731 12389.9795  9937.7158 14789.8525  214.1960  208.7950  357.3350 
3277.46   215.5390    3.6069 3923.6001 12377.8203 10712.2822 13567.4873  205.0017  197.3355  350.1688 
3277.56   301.6337    3.7606 3949.6001 12385.8301 12423.3691 12020.1006  195.7850  185.8480  342.9850 
3277.66   447.3113    4.0460 3972.8999 12394.2080 14061.6338 10569.6865  189.2931  188.7611  339.1368 
3277.76   349.9487    4.0558 3971.9011 12405.6934 15075.8936  9948.4453  182.8170  191.6670  335.2980 
3277.86   181.7436    3.9857 3969.7485 12415.2646 15821.7705  9514.8018  185.3531  194.6456  334.4875 
3277.96   242.6996    3.9197 3957.2637 12408.2734 14259.6797 10692.3623  187.8830  197.6170  333.6790 
3278.06   370.3553    3.8546 3947.2014 12408.4580 12708.7334 11961.1123  193.2395  200.2672  336.1820 
3278.16   363.2784    3.9215 3959.2161 12470.0332 11285.4980 13983.5791  198.5830  202.9110  338.6790 
3278.26   317.3346    4.0264 3970.2502 12520.0703 10012.2734 15712.0195  206.8475  202.2735  338.3555 
3278.36   291.8756    4.3641 3972.7534 12473.0703  9986.2734 14978.0195  215.1120  201.6360  338.0320 
3278.46   272.4232    4.7681 3975.2500 12421.2568 10156.7949 14112.2822  212.8762  201.6435  337.3833 
3278.56   312.8987    4.9916 3977.7500 12326.1406 12048.6016 12074.7969  210.6350  201.6510  336.7330 
3278.66   370.9695    5.1618 3981.6021 12253.4434 13873.9404 10194.9795  201.7762  196.9002  334.6389 
3278.76   290.7192    5.0258 3997.5825 12371.7988 15128.9062  9662.1309  192.9390  192.1610  332.5500 
3278.86   170.0720    4.8005 4008.0952 12471.0693 15994.5850  9364.8203  176.6161  183.9039  330.6061 
3278.96   230.0879    4.2584 3969.1428 12405.1504 13517.6133 11084.7178  160.3330  175.6670  328.6670 
3279.06   342.7253    3.6227 3935.4016 12338.2295 11186.5811 12754.8994  150.1541  167.8239  328.8883 
3279.16   303.5458    3.4916 3949.4187 12264.1396 10152.8203 13964.8750  140.0000  160.0000  329.1090 
3279.26   220.6471    3.5066 3968.2075   -9999.00   -9999.00   -9999.00  136.5080  149.6825  330.7425 
3279.36   277.2342    3.4635 4030.2832   -9999.00   -9999.00   -9999.00  133.0160  139.3650  332.3760 
3279.46   373.9976    3.4036  -9999.00   -9999.00   -9999.00   -9999.00  130.0267  137.1707  334.0390 
3279.56   399.8706    3.3900  -9999.00   -9999.00   -9999.00   -9999.00  127.0300  134.9710  335.7060 
3279.66   404.8767    3.3900  -9999.00   -9999.00   -9999.00   -9999.00  128.3661  131.9313  327.1771 
3279.76   310.0098    3.3474  -9999.00   -9999.00   -9999.00   -9999.00  129.6990  128.8990  318.6690 
3279.86   185.8584    3.2924  -9999.00   -9999.00   -9999.00   -9999.00  131.3405  133.4160  308.3219 
3279.96   212.9621    3.3613  -9999.00   -9999.00   -9999.00   -9999.00  132.9780  137.9220  298.0000 
3280.06   284.0488    3.4664  -9999.00   -9999.00   -9999.00   -9999.00  134.6130  135.1716  279.9780 
3280.16   258.0659    3.6492  -9999.00   -9999.00   -9999.00   -9999.00  136.2440  132.4280  262.0000 
3280.26   204.1319    3.8539  -9999.00   -9999.00   -9999.00   -9999.00  138.1465  126.4940  252.8385 
3280.36   301.3610    4.1404  -9999.00   -9999.00   -9999.00   -9999.00  140.0490  120.5600  243.6770 
3280.46   442.0171    4.4497  -9999.00   -9999.00   -9999.00   -9999.00  142.0391  118.8406  234.7244 
3280.56   411.2967    4.8413  -9999.00   -9999.00   -9999.00   -9999.00  144.0340  117.1170  225.7500 
3280.66   330.1978    5.2568  -9999.00   -9999.00   -9999.00   -9999.00  146.0359  122.3208  224.5095 
3280.76   334.8364    5.7874  -9999.00   -9999.00   -9999.00   -9999.00  148.0330  127.5120  223.2720 
3280.86   364.3724    6.3531  -9999.00   -9999.00   -9999.00   -9999.00  141.7338  138.1355  222.5156 
3280.96   372.1612    6.9909  -9999.00   -9999.00   -9999.00   -9999.00  135.4500  148.7330  221.7610 
3281.06   373.6630    7.6517  -9999.00   -9999.00   -9999.00   -9999.00  129.0507  150.5687  220.7127 
3281.16   293.2381    7.7146  -9999.00   -9999.00   -9999.00   -9999.00  122.6670  152.4000  219.6670 
3281.26   189.3651    7.6047  -9999.00   -9999.00   -9999.00   -9999.00  116.6935  145.0110  218.7145 
3281.36   200.9024    7.5800  -9999.00   -9999.00   -9999.00   -9999.00  110.7200  137.6220  217.7620 
3281.46   245.7927    7.5800  -9999.00   -9999.00   -9999.00   -9999.00  110.4214  129.9234  216.8761 
3281.56   244.3883    7.3594  -9999.00   -9999.00   -9999.00   -9999.00  110.1220  122.2060  215.9880 
3281.66   229.3700    7.0740  -9999.00   -9999.00   -9999.00   -9999.00  108.8540  118.0144  215.3092 
3281.76   246.9011    6.7700  -9999.00   -9999.00   -9999.00   -9999.00  107.5890  113.8330  214.6320 
3281.86   273.9341    6.4596  -9999.00   -9999.00   -9999.00   -9999.00  105.3528  116.1944  213.9311 
3281.96   254.0672    6.2042  -9999.00   -9999.00   -9999.00   -9999.00  103.1220  118.5500  213.2320 
3282.06   220.5262    5.9639  -9999.00   -9999.00   -9999.00   -9999.00  100.8943  117.1067  212.4485 
3282.16   239.0146    6.3293  -9999.00   -9999.00   -9999.00   -9999.00   98.6720  115.6670  211.6670 
3282.26   272.4738    6.8687  -9999.00   -9999.00   -9999.00   -9999.00   97.8785  115.6695  211.2140 
3282.36   233.0756    7.0249  -9999.00   -9999.00   -9999.00   -9999.00   97.0850  115.6720  210.7610 
3282.46   172.7232    7.0698  -9999.00   -9999.00   -9999.00   -9999.00   97.4565  113.1446  210.2876 
