~Version information
VERS.                            2.00: CWLS LAS  -  VERSION 2.00
WRAP.                              NO: One line per depth step
~Well information
#MNEM.UNIT                  DATA TYPE  INFORMATION
#===.================================:==================
STRT.M                          6.560: First depth in file
STOP.M                       3292.880: Last depth in file
STEP.M                          0.100: Depth increment
NULL.                       -9999.00 : Null values
DATE.                       : LOG DATE
TIME.                            8:51: LOG TIME
WELL.                             F1: Well name
GRP.                                1: Group name
FLD.                    F: Field name
ISS.      Тех.состояние экспл.колонны: Well surveys
SRVC.                                : Service Company
~Curve information
#MNEM.UNIT                   API CODE   CURVE DESCRIPTION
#===.================================:==================
DEPT.M                               : Depth curve
LMek.                                : 10 Локатор муфт,  -   28.0 см
GKek.MKR/H                           : :11 Гамма-активность, мкр./ч -   67.0 
TM  .IMP                             : :14 Толщиномер, имп/мин -  170.0 см
DFint.KG/M3                          : :15 Интегральный цементомер, имп/мин -
DF1 .KG/M3                           : :16 Селективный цементомер 1, имп/мин 
DF2 .KG/M3                           : :17 Селективный цементомер 2, имп/мин 
AK1 .                                : Casing wave amplitude (High freq.)
AK2 .                                : Casing wave amplitude (Low freq.)
AP  .                                : Rock wave amplitude
#
~Other information
#------------------ REMARKS AREA -----------------------
#=======================================================
# The file is generated by the program GeoTech-EditLog v2000.12
#Number of Curves = 9
~A Log Data Section
# ...
1745.96   305.0500    5.9747 3822.7656 12190.8340 12491.8203 11406.0469  537.3330  453.9560  499.9790 
1746.06   345.0500    6.1547 3841.8425 12453.0791 11537.9160 12869.0986  518.1573  452.2089  493.9438 
1746.16   362.9475    6.1190 3884.3167 12700.0791 10544.9160 14573.5986  499.0050  450.4640  487.9160 
1746.26   360.9475    5.8890 3894.6257 12737.6602 10458.4854 15177.7070  477.9245  442.2320  497.0045 
1746.36   337.9109    5.8484 3894.1257 12706.6787 10668.8564 15421.5586  456.8440  434.0000  506.0930 
1746.46   295.8853    5.9785 3865.9036 12877.9229 11328.2061 14685.7012  466.2722  456.0605  524.3336 
1746.56   285.4725    6.0637 3828.4265 13115.4229 12134.2061 13628.7012  475.6890  478.0940  542.5520 
1746.66   303.4725    6.1087 3848.1904 12999.2207 12877.6777 12551.3604  514.8395  506.6655  568.9010 
1746.76   274.6589    5.9801 3887.1904 12767.2207 13600.6777 11467.3604  553.9900  535.2370  595.2500 
1746.86   203.7023    5.6953 3872.3003 12621.9111 14353.4609 10861.5723  596.9035  524.4990  611.5675 
1746.96   214.7314    5.4363 3839.2600 12504.8398 15116.9268 10411.7979  639.8170  513.7610  627.8850 
1747.06   299.7314    5.2013 3833.6223 12178.8008 14929.8281 10216.6240  618.6081  467.8150  615.0787 
1747.16   358.1557    4.9795 3837.1201 11784.3008 14431.8281 10104.6240  597.4250  421.9250  602.2880 
1747.26   392.6557    4.7695 3817.7913 11440.8027 13133.3496 10295.3408  560.2125  371.4625  588.3190 
1747.36   365.0848    4.6069 3790.7913 11114.0020 11572.8027 10585.1631  523.0000  321.0000  574.3500 
1747.46   281.5339    4.4868 3805.7278 11027.3496 10685.3936 11072.1006  523.3112  325.5247  566.1615 
1747.56   245.9469    4.4589 3834.7102 11019.8496 10020.8936 11623.1006  523.6220  330.0440  557.9830 
1747.66   253.4469    4.5139 3816.1777 11166.4111  9782.7939 12273.1670  558.0665  341.7900  568.7515 
1747.76   258.8408    4.5900 3781.6777 11363.4111  9684.2939 12955.6670  592.5110  353.5360  579.5200 
1747.86   262.3386    4.6849 3805.5586 11739.1338 10293.9404 12968.5264  617.0665  370.8595  597.8875 
1747.96   249.2650    4.8063 3849.1118 12173.8994 11136.4541 12761.9004  641.6220  388.1830  616.2550 
1748.06   221.2650    4.9513 3835.2751 12402.6670 12232.9619 12025.0674  628.7782  398.1071  643.9394 
1748.16   230.3657    5.1121 3802.2954 12564.1670 13412.9619 11114.5674  615.9500  408.0190  671.5900 
1748.26   272.8657    5.2871 3799.9878 12699.9941 14500.5664 10890.7529  619.4750  440.6345  692.6620 
1748.36   309.3038    5.3910 3807.9878 12827.4170 15557.9209 10891.7520  623.0000  473.2500  713.7340 
1748.46   340.3228    5.4311 3824.9849 12737.7090 14830.4648 11080.3398  640.5107  504.6997  720.9054 
1748.56   301.5855    5.4184 3844.9727 12576.7090 13516.9648 11330.3398  658.0000  536.1110  728.0680 
1748.66   200.0855    5.3584 3833.1594 12385.9521 12449.4355 11755.1182  654.6665  574.2725  717.4005 
1748.76   204.5930    5.3037 3810.6594 12185.4521 11462.4355 12237.1182  651.3330  612.4340  706.7330 
1748.86   304.5320    5.2537 3785.5398 12090.4492 10660.7256 13020.8086  630.1665  635.2225  695.0330 
1748.96   356.2100    5.1905 3759.5081 12029.9131  9918.7734 13904.3477  609.0000  658.0110  683.3330 
1749.06   364.2100    5.1155 3720.7827 12028.9375  9927.3525 14148.7441  613.8444  676.3372  704.6055 
1749.16   370.1050    5.1642 3677.8091 12047.4375 10181.3525 14184.2441  618.6830  694.6410  725.8520 
1749.26   374.1050    5.3242 3704.4236 12071.1992 10832.0137 13534.9668  645.5000  701.8845  754.2480 
1749.36   399.1409    5.4105 3754.4236 12096.6836 11612.5371 12661.5000  672.3170  709.1280  782.6440 
1749.46   443.1678    5.4305 3791.3501 12019.0010 12306.2295 11466.0117  698.8332  695.2360  788.8143 
1749.56   405.0598    5.4453 3823.8303 11907.5010 12970.2295 10166.5117  725.3170  681.3610  794.9770 
1749.66   293.0598    5.4553 3819.6501 11905.2373 13936.7031  9679.8848  709.9490  663.9005  758.0315 
1749.76   246.3112    5.4942 3803.1501 11938.7373 15002.2031  9459.3848  694.5810  646.4400  721.0860 
1749.86   258.3038    5.5591 3832.3071 11870.5811 14452.6230  9614.3057  671.2375  627.2340  680.6015 
1749.96   312.6783    5.4137 3876.8613 11769.0186 13372.9648  9892.4756  647.8940  608.0280  640.1170 
1750.06   405.1783    5.0787 3837.4265 11682.6016 11894.0938 10688.7432  624.0094  595.6024  628.0892 
1750.16   401.1111    5.0095 3769.9678 11601.1016 10284.0938 11654.7432  600.1540  583.1920  616.0760 
1750.26   310.1111    5.1795 3763.8528 11633.7031 10021.3926 12648.1572  590.4490  571.9180  632.1955 
1750.36   293.2965    5.2968 3778.3528 11703.6602 10199.7832 13650.5449  580.7440  560.6440  648.3150 
1750.46   343.3270    5.3669 3751.6560 11714.5967 10350.6006 13504.6172  586.1558  549.9709  653.1219 
1750.56   430.6764    5.5895 3711.1807 11706.0967 10492.1006 12981.1172  591.5610  539.3110  657.9230 
1750.66   551.6765    5.9495 3717.4663 11791.0127 10873.9209 12335.1963  624.2805  533.8400  652.8005 
1750.76   589.8035    6.1174 3739.4663 11906.5127 11334.4209 11649.1963  657.0000  528.3690  647.6780 
1750.86   553.3258    6.1124 3749.8650 11950.4346 12057.8477 11313.9863  692.8665  520.6900  628.1725 
1750.96   536.0000    5.9837 3756.3730 11970.9473 12868.3418 11093.3516  728.7330  513.0110  608.6670 
1751.06   536.0000    5.7437 3763.6194 11966.5830 13510.2207 10852.9209  714.0255  496.8106  596.3400 
1751.16   559.1551    5.7195 3771.1147 11954.0830 14097.2207 10605.9209  699.3360  480.6300  584.0280 
1751.26   603.1551    5.8895 3775.2454 12081.6279 13351.6982 10953.4473  640.0430  462.4120  565.0190 
1751.36   620.0555    6.0226 3778.2454 12255.0215 12169.9199 11495.6162  580.7500  444.1940  546.0100 
1751.46   612.5510    6.1227 3799.6040 12318.3408 11268.6641 12758.5303  538.8910  426.8644  539.4760 
1751.56   609.7894    6.2200 3827.0872 12345.3408 10461.1641 14256.5303  497.0830  409.5560  532.9500 
1751.66   611.2894    6.3150 3827.2637 12375.7305 10393.8379 15023.3965  498.0195  402.2540  532.0665 
1751.76   567.8218    6.2022 3818.2637 12407.2305 10568.8379 15550.8965  498.9560  394.9520  531.1830 
1751.86   483.8731    5.9024 3818.6196 12503.0889 10895.4658 14926.5957  516.6030  373.8290  540.8650 
1751.96   504.5189    5.6758 3822.1240 12620.1602 11272.1963 13923.9844  534.2500  352.7060  550.5470 
1752.06   619.5189    5.5158 3811.0122 12620.7490 12254.7158 12756.7734  535.2031  328.2966  527.8632 
1752.16   629.7949    5.2663 3795.0220 12583.2490 13435.7158 11535.2734  536.1550  303.9170  505.2070 
1752.26   545.7949    4.9363 3779.7729 12453.1602 14450.1582 10721.2764  524.1331  277.1030  480.2700 
1752.36   516.7816    4.8563 3764.7729 12292.7578 15410.0723 10040.6914  512.1110  250.2890  455.3330 
1752.46   537.2941    5.0013 3766.6194 11993.8447 15045.3135  9777.8301  500.1037  253.0602  448.5769 
1752.56   531.4756    5.0147 3774.1147 11649.8447 14245.3135  9652.8301  488.1110  255.8280  441.8290 
1752.66   501.9756    4.9097 3786.4785 11215.0654 12914.9502  9916.9395  437.6350  272.7430  457.8610 
1752.76   988.6858    4.7364 3800.4785 10750.5654 11410.9502 10308.4395  387.1590  289.6580  473.8930 
1752.86  1940.1050    4.5015 3723.9133  9885.7373  9559.4258 10216.7754  343.5795  299.5985  489.1945 
1752.96  3060.8657    4.4268 3616.7827  8888.6289  7591.7261  9966.6230  300.0000  309.5390  504.4960 
1753.06  4331.8657    4.4968 3612.1025  8440.7236  7009.4399  9895.9600  268.8620  323.4180  476.4324 
1753.16  3696.5195    4.6510 3641.5845  8172.2236  6879.9399  9883.9600  237.7620  337.2800  448.4030 
1753.26  1345.0195    4.8810 3715.2400  8830.6641  7776.6997  9942.3613  255.2115  334.8430  417.6330 
1753.36   210.2258    4.9979 3803.7400  9792.5771  9009.4473 10023.8115  272.6610  332.4060  386.8630 
1753.46   170.7016    5.0129 3868.7065 10730.1162 10800.9980  9680.5049  291.6726  350.0833  365.1248 
1753.56   160.9463    5.0910 3925.6716 11658.1162 12773.4980  9198.0049  310.6610  367.7390  343.4130 
1753.66   177.9463    5.2260 3929.1472 11882.8564 14154.6123  9202.1738  312.0075  374.8580  348.8575 
