~Version information
VERS.                            2.00: CWLS LAS  -  VERSION 2.00
WRAP.                              NO: One line per depth step
~Well information
#MNEM.UNIT                  DATA TYPE  INFORMATION
#===.================================:==================
STRT.M                          6.560: First depth in file
STOP.M                       3292.880: Last depth in file
STEP.M                          0.100: Depth increment
NULL.                       -9999.00 : Null values
DATE.                       : LOG DATE
TIME.                            8:51: LOG TIME
WELL.                             F1: Well name
GRP.                                1: Group name
FLD.                    F: Field name
ISS.      Тех.состояние экспл.колонны: Well surveys
SRVC.                                : Service Company
~Curve information
#MNEM.UNIT                   API CODE   CURVE DESCRIPTION
#===.================================:==================
DEPT.M                               : Depth curve
LMek.                                : 10 Локатор муфт,  -   28.0 см
GKek.MKR/H                           : :11 Гамма-активность, мкр./ч -   67.0 
TM  .IMP                             : :14 Толщиномер, имп/мин -  170.0 см
DFint.KG/M3                          : :15 Интегральный цементомер, имп/мин -
DF1 .KG/M3                           : :16 Селективный цементомер 1, имп/мин 
DF2 .KG/M3                           : :17 Селективный цементомер 2, имп/мин 
AK1 .                                : Casing wave amplitude (High freq.)
AK2 .                                : Casing wave amplitude (Low freq.)
AP  .                                : Rock wave amplitude
#
~Other information
#------------------ REMARKS AREA -----------------------
#=======================================================
# The file is generated by the program GeoTech-EditLog v2000.12
#Number of Curves = 9
~A Log Data Section
# ...
 443.36   136.7316    3.1883 3963.0000  9990.0000 11152.0000  8727.0000  864.8830  971.4940 1351.2430 
 443.46   139.2309    3.1483 3980.3555  9888.0410 11581.8691  8043.5132  856.5500  972.4465 1271.5486 
 443.56   141.2923    3.1215 3997.0000  9791.0000 11991.0000  7393.0000  848.2170  973.3990 1191.8540 
 443.66   142.2923    3.1265 4013.8474  9768.4531 11350.4541  7722.4971  849.1335  958.8190 1104.3120 
 443.76   141.9767    3.0818 4030.0000  9747.0000 10741.0000  8036.0000  850.0500  944.2390 1016.7700 
 443.86   138.4761    2.9167 4053.4878  9591.7090  9681.1260  9289.0908  848.6768  932.7687  961.3646 
 443.96   136.0000    2.7459 4076.0000  9444.0000  8673.0000 10481.0000  847.3040  921.3020  905.9760 
 444.06   136.0000    2.5609 4079.0632  8997.7354  7367.5098 11286.9404  866.1855  908.7290  906.5265 
 444.16   147.4030    2.4782 4082.0000  8573.0000  6125.0000 12054.0000  885.0670  896.1560  907.0770 
 444.26   186.4090    2.6433 4023.7998  8263.4883  6077.3433 11040.9121  904.0699  895.4499  910.3975 
 444.36   609.9496    2.7834 3968.0000  7969.0000  6032.0000 10077.0000  923.0670  894.7440  913.7170 
 444.46  1962.5367    2.8634 3868.9722  7586.7803  6393.7256  9004.1201  941.1620  894.0725  921.9755 
 444.56  3209.1248    2.8630 3774.0000  7223.0000  6738.0000  7983.0000  959.2570  893.4010  930.2340 
 444.66  4198.1250    2.6680 3802.0791  7271.6816  7676.2725  7306.0708  968.5450  906.4975  945.3085 
 444.76  4201.8311    2.6016 3829.0000  7318.0000  8569.0000  6662.0000  977.8330  919.5940  960.3830 
 444.86  1820.4675    2.8467 4052.1348  8380.4365 10267.9756  6818.8286  985.7707  941.8039  976.9841 
 444.96   141.1160    3.0609 4266.0000  9391.0000 11884.0000  6968.0000  993.7060  964.0070  993.5800 
 445.06   158.6160    3.2009 4261.4053  9781.4170 12042.3193  7380.9614 1002.4365  993.6315 1019.2841 
 445.16   165.8833    3.2167 4257.0000 10153.0000 12193.0000  7774.0000 1011.1670 1023.2560 1044.9880 
 445.26   148.3806    2.9316 4173.7842 10307.7559 10886.2852  9398.9375 1016.8929 1047.1957 1060.3999 
 445.36   136.0000    2.8149 4094.0000 10455.0000  9643.0000 10945.0000 1022.6170 1071.1281 1075.8070 
 445.46   136.0000    3.1048 4129.2212 10517.5078  8392.3320 12493.8613 1028.0135 1076.0645 1078.1650 
 445.56   136.0000    3.2793 4163.0000 10577.0000  7202.0000 13968.0000 1033.4100 1081.0010 1080.5229 
 445.66   136.0000    3.1743 4131.8579 10566.2393  7797.4517 12995.3945 1048.3464 1090.4005 1070.4280 
 445.76   136.0000    3.0737 4102.0000 10556.0000  8364.0000 12070.0000 1063.2830 1099.8000 1060.3330 
 445.86   136.0000    2.9837 4097.9150 10790.2178  9373.1348 11776.3311 1074.9833 1114.7758 1082.0233 
 445.96   136.0000    2.9171 4094.0000 11013.0000 10333.0000 11497.0000 1086.6801 1129.7469 1103.7070 
 446.06   136.0000    2.9071 4114.4209 10889.5215 11594.4277 10332.9209 1106.5150 1158.3290 1138.4551 
 446.16   136.0000    2.8883 4134.0000 10772.0000 12795.0000  9225.0000 1126.3500 1186.9110 1173.2030 
 446.26   136.0000    2.8483 4108.4736 10823.7559 12942.5820  8605.9756 1134.4957 1202.5800 1226.7177 
 446.36   138.3412    2.7600 4084.0000 10873.0000 13083.0000  8017.0000 1142.6390 1218.2440 1280.2159 
 446.46   146.3387    2.5551 4078.8955 10822.7891 12693.0947  8480.1729 1149.0596 1211.6200 1296.8784 
 446.56   149.6613    2.4670 4074.0000 10775.0000 12322.0000  8921.0000 1155.4800 1204.9960 1313.5410 
 446.66   141.6613    2.6620 4081.6580 10778.0742 11004.5244 10622.2910 1165.1315 1194.8315 1334.2104 
 446.76   136.7310    2.7766 4089.0000 10781.0000  9751.0000 12241.0000 1174.7830 1184.6670 1354.8800 
 446.86   139.2313    2.6966 4077.2561 10553.9570  8667.5508 12723.7861 1185.5996 1180.1028 1359.0087 
 446.96   140.2691    2.6707 4066.0000 10338.0000  7637.0000 13183.0000 1196.4130 1175.5400 1363.1360 
 447.06   137.7691    2.7757 4038.4314 10296.4990  7743.5708 12777.7246 1205.8840 1180.0896 1378.6589 
 447.16   136.0000    2.8368 4012.0000 10257.0000  7845.0000 12392.0000 1215.3550 1184.6390 1394.1820 
 447.26   136.0000    2.7918 4029.3579 10320.5420  8745.3516 11593.6230 1211.5299 1189.1562 1406.3503 
 447.36   136.0000    2.7863 4046.0000 10381.0000  9602.0000 10834.0000 1207.7061 1193.6720 1418.5150 
 447.46   136.0000    2.8763 4042.9373 10223.1934 10535.0059  9680.6807 1207.2295 1196.1720 1424.8574 
 447.56   137.1694    2.9473 4040.0000 10073.0000 11423.0000  8583.0000 1206.7531 1198.6720 1431.2000 
 447.66   141.1694    2.9723 4086.4580 10336.3926 12409.4414  8078.7617 1203.2986 1198.5195 1430.2665 
 447.76   144.0000    2.9476 4131.0000 10587.0000 13348.0000  7599.0000 1199.8440 1198.3669 1429.3330 
 447.86   144.0000    2.8026 4108.0229 10777.1416 13171.6963  7838.8555 1202.4714 1205.1295 1427.2692 
 447.96   142.9768    2.7468 4086.0000 10958.0000 13004.0000  8067.0000 1205.0980 1211.8900 1425.2061 
 448.06   139.4768    2.9068 4094.1685 10886.7822 11284.0117  9979.1230 1202.6379 1210.5615 1431.1030 
 448.16   137.0000    3.0258 4102.0000 10819.0000  9647.0000 11799.0000 1200.1780 1209.2330 1437.0000 
 448.26   137.0000    3.0459 4058.6052 10449.0205  8653.8975 12386.2529 1200.8446 1204.3993 1447.9852 
 448.36   138.0243    3.0527 4017.0000 10097.0000  7709.0000 12945.0000 1201.5110 1199.5670 1458.9670 
 448.46   141.5232    3.0277 4047.6272 10147.7236  7569.6382 12999.3096 1199.4346 1187.7095 1484.2729 
 448.56   142.8306    3.0407 4077.0000 10196.0000  7437.0000 13051.0000 1197.3580 1175.8521 1509.5790 
 448.66   138.8306    3.1457 4070.3630 10168.3281  8140.5762 12286.9561 1190.5400 1165.7815 1542.4995 
 448.76   136.0000    3.2098 4064.0000 10142.0000  8810.0000 11560.0000 1183.7220 1155.7111 1575.4200 
 448.86   136.0000    3.1748 4045.1077 10315.7412 10312.6836 10445.2881 1182.4733 1149.8582 1609.1072 
 448.96   138.0464    3.1281 4027.0000 10481.0000 11742.0000  9385.0000 1181.2250 1144.0070 1642.7841 
 449.06   145.0464    3.0531 4019.3420 10492.2715 13110.5107  8266.5205 1176.2375 1146.1005 1665.2305 
 449.16   148.9767    2.9956 4012.0000 10503.0000 14413.0000  7202.0000 1171.2500 1148.1940 1687.6770 
 449.26   145.4761    2.9806 3982.3894 10411.2734 13351.7432  7456.1689 1176.5563 1160.5073 1677.1864 
 449.36   143.1463    3.0432 3954.0000 10324.0000 12342.0000  7698.0000 1181.8610 1172.8170 1666.6990 
 449.46   143.6462    3.2931 3955.5312 10380.3594 11170.7480  9331.9121 1186.7290 1184.4625 1643.0330 
 449.56   147.5081    3.4247 3957.0000 10434.0000 10056.0000 10887.0000 1191.5970 1196.1080 1619.3669 
 449.66   159.5081    3.2697 3959.5527 10379.6816  8876.3701 12216.7744 1200.4320 1202.3735 1593.3500 
 449.76   164.0528    3.1644 3962.0000 10328.0000  7754.0000 13482.0000 1209.2670 1208.6390 1567.3330 
 449.86   150.5507    3.1794 4003.3591 10199.3594  7351.1660 13270.3330 1213.2356 1208.4800 1565.6052 
 449.96   140.2691    3.1915 4043.0000 10077.0000  6968.0000 13069.0000 1217.2030 1208.3210 1563.8781 
 450.06   137.7691    3.1965 4031.7683  9953.0088  7311.2803 12427.0146 1212.9929 1205.7246 1567.6250 
 450.16   137.1695    3.2336 4021.0000  9835.0000  7638.0000 11816.0000 1208.7830 1203.1281 1571.3719 
 450.26   141.1702    3.3486 3978.6262  9846.7861  9311.1074 10240.7686 1198.8984 1198.3549 1565.1455 
 450.36   142.8294    3.3451 3938.0000  9858.0000 10903.0000  8742.0000 1189.0170 1193.5830 1558.9210 
 450.46   138.8306    3.0552 3964.5435  9869.2715 12003.0342  7927.3496 1180.2865 1190.4084 1538.6620 
 450.56   136.0000    2.9070 3990.0000  9880.0000 13050.0000  7152.0000 1171.5560 1187.2340 1518.4030 
 450.66   136.0000    3.1020 3985.4053  9766.2393 12500.6680  7106.3931 1162.2280 1172.9141 1496.0570 
 450.76   136.8772    3.2678 3981.0000  9658.0000 11978.0000  7063.0000 1152.9000 1158.5940 1473.7111 
 450.86   139.8776    3.3628 3954.9590  9687.7256 10603.9570  8441.6562 1132.8495 1141.6313 1462.9714 
 450.96   141.1230    3.4022 3930.0000  9716.0000  9297.0000  9753.0000 1112.8051 1124.6740 1452.2350 
 451.06   138.1230    3.3072 3971.8633  9743.6670  8461.3428 11104.0898 1090.8690 1106.1479 1448.4360 
