~Version information
VERS.                            2.00: CWLS LAS  -  VERSION 2.00
WRAP.                              NO: One line per depth step
~Well information
#MNEM.UNIT                  DATA TYPE  INFORMATION
#===.================================:==================
STRT.M                          6.560: First depth in file
STOP.M                       3292.880: Last depth in file
STEP.M                          0.100: Depth increment
NULL.                       -9999.00 : Null values
DATE.                       : LOG DATE
TIME.                            8:51: LOG TIME
WELL.                             F1: Well name
GRP.                                1: Group name
FLD.                    F: Field name
ISS.      Тех.состояние экспл.колонны: Well surveys
SRVC.                                : Service Company
~Curve information
#MNEM.UNIT                   API CODE   CURVE DESCRIPTION
#===.================================:==================
DEPT.M                               : Depth curve
LMek.                                : 10 Локатор муфт,  -   28.0 см
GKek.MKR/H                           : :11 Гамма-активность, мкр./ч -   67.0 
TM  .IMP                             : :14 Толщиномер, имп/мин -  170.0 см
DFint.KG/M3                          : :15 Интегральный цементомер, имп/мин -
DF1 .KG/M3                           : :16 Селективный цементомер 1, имп/мин 
DF2 .KG/M3                           : :17 Селективный цементомер 2, имп/мин 
AK1 .                                : Casing wave amplitude (High freq.)
AK2 .                                : Casing wave amplitude (Low freq.)
AP  .                                : Rock wave amplitude
#
~Other information
#------------------ REMARKS AREA -----------------------
#=======================================================
# The file is generated by the program GeoTech-EditLog v2000.12
#Number of Curves = 9
~A Log Data Section
# ...
1098.56   151.4139    4.0369 3915.0000  8781.0000  9001.0000  8896.0000  210.8610  179.3830  332.4630 
1098.66   149.4139    4.1969 3916.0208  8684.1357  9605.7588  7764.8955  224.0015  184.2405  339.0195 
1098.76   148.5857    4.2514 3917.0000  8592.0000 10181.0000  6689.0000  237.1420  189.0980  345.5760 
1098.86   150.5845    4.0515 3924.1409  8782.5420 10347.4678  6953.3003  246.6015  194.4045  344.4545 
1098.96   149.6655    3.8589 3931.0000  8964.0000 10506.0000  7205.0000  256.0610  199.7110  343.3330 
1099.06   141.6557    3.6837 3949.3735  8932.2051  9709.5898  8048.0771  250.9444  195.3088  341.5859 
1099.16   139.5143    3.7006 3967.0000  8902.0000  8953.0000  8849.0000  245.8340  190.9120  339.8410 
1099.26   151.5070    4.1803 3953.2197  8905.5879  8441.5176  9372.2705  224.6780  185.1560  330.9205 
1099.36   158.5409    4.4120 3940.0000  8909.0000  7955.0000  9870.0000  203.5220  179.4000  322.0000 
1099.46   153.5409    4.0420 3972.6443  8736.3848  7451.4976 10189.6191  185.2002  173.8814  323.1158 
1099.56   150.2930    3.8181 4004.0000  8572.0000  6972.0000 10494.0000  166.8560  168.3560  324.2330 
1099.66   151.2930    3.9481 3960.1074  8665.7891  7344.5933 10541.1504  156.6970  167.6680  325.6615 
1099.76   155.5143    4.0254 3918.0000  8755.0000  7699.0000 10586.0000  146.5380  166.9800  327.0900 
1099.86   167.5070    3.9754 3901.1677  8556.2627  8207.6250  9259.3760  146.3550  166.7790  331.2390 
1099.96   176.4377    3.9152 3885.0000  8367.0000  8692.0000  7996.0000  146.1720  166.5780  335.3880 
1100.06   177.9396    3.8301 3886.0208  8358.7949  9701.7432  7135.4873  148.7135  165.8050  334.3239 
1100.16   179.1464    3.7832 3887.0000  8351.0000 10661.0000  6318.0000  151.2520  165.0330  333.2610 
1100.26   179.6461    3.8282 3898.7388  8435.0508 10418.5840  6519.4155  152.2120  164.1830  335.7080 
1100.36   175.1850    3.8308 3910.0000  8515.0000 10188.0000  6711.0000  153.1720  163.3330  338.1550 
1100.46   158.6850    3.7308 3924.2820  8567.7578  9133.3594  7859.3750  163.4382  164.1190  337.9811 
1100.56   145.3883    3.6732 3938.0000  8618.0000  8129.0000  8953.0000  173.7170  164.9060  337.8070 
1100.66   139.8883    3.7182 3974.2368  8585.7119  7330.0005  9781.7246  186.1985  166.1755  341.2995 
1100.76   137.1714    3.7822 4009.0000  8555.0000  6570.0000 10570.0000  198.6800  167.4450  344.7920 
1100.86   141.1690    3.8921 3956.4631  8609.2939  6762.0786 10409.6787  209.1370  167.0085  358.6745 
1100.96   142.8327    3.9291 3906.0000  8661.0000  6945.0000 10257.0000  219.5940  166.5720  372.5570 
1101.06   138.8278    3.7890 3898.3442  8497.4102  7308.0771  9564.6924  212.6563  161.7200  385.6730 
1101.16   136.7321    3.6300 3891.0000  8342.0000  7653.0000  8907.0000  205.7270  156.8740  398.7730 
1101.26   139.2306    3.4251 3931.3198  7855.6304  8010.2178  7498.1167  195.3525  151.6590  412.9280 
1101.36   146.6905    3.2683 3970.0000  7393.0000  8350.0000  6158.0000  184.9780  146.4440  427.0830 
1101.46   166.1905    3.2283 4008.7651  7403.7563  8832.5020  5856.8203  178.2901  166.5317  427.8170 
1101.56   175.8974    3.2484 4046.0000  7414.0000  9292.0000  5570.0000  171.5940  186.6440  428.5520 
1101.66   161.8974    3.4134 3982.7131  7715.8672  9090.5850  6113.7705  188.9750  208.6815  429.1870 
1101.76   156.6858    3.5505 3922.0000  8003.0000  8899.0000  6631.0000  206.3560  230.7190  429.8220 
1101.86   172.6760    3.6205 3893.4363  8117.2227  8219.2969  7918.1836  218.5225  248.1260  429.6870 
1101.96   182.8327    3.6306 3866.0000  8226.0000  7572.0000  9144.0000  230.6890  265.5330  429.5520 
1102.06   178.8278    3.4954 3922.6521  8312.1543  7003.7949  9801.9482  240.8777  256.7026  424.1157 
1102.16   175.4143    3.4293 3977.0000  8394.0000  6464.0000 10427.0000  251.0540  247.8830  418.6860 
1102.26   173.4155    3.5292 3957.6057  8421.1631  6436.8369 10354.2236  232.7855  231.6080  412.0810 
1102.36   172.5836    3.6438 3939.0000  8447.0000  6411.0000 10285.0000  214.5170  215.3330  405.4760 
1102.46   174.5836    3.7938 3886.4631  8502.8311  7653.6216  9288.2393  202.6992  206.3385  388.4409 
1102.56   181.8608    3.8473 3836.0000  8556.0000  8837.0000  8339.0000  190.8670  197.3330  371.3850 
1102.66   201.8608    3.6673 3882.9548  8478.6113  9317.2197  7427.2490  179.5970  190.5080  359.6865 
1102.76   213.3642    3.5327 3928.0000  8405.0000  9774.0000  6560.0000  168.3270  183.6830  347.9880 
1102.86   204.3697    3.5077 3871.8926  8402.9512 10007.0557  6407.3613  173.8800  178.5080  345.2310 
1102.96   195.3736    3.4783 3818.0000  8401.0000 10229.0000  6262.0000  179.4330  173.3330  342.4740 
1103.06   186.3626    3.4383 3864.4443  8398.9482  9913.6152  6799.4360  185.0529  168.5686  361.4941 
1103.16   174.5821    3.5110 3909.0000  8397.0000  9614.0000  7310.0000  190.6660  163.8100  380.4910 
1103.26   156.0934    3.8558 3896.7510  8516.4141  8634.0850  8164.3501  205.4470  159.0715  415.6535 
1103.36   146.2100    4.1277 3885.0000  8630.0000  7702.0000  8977.0000  220.2280  154.3330  450.8160 
1103.46   157.2100    4.2227 3883.9800  8503.4844  7143.6909  9691.0205  220.1890  164.9630  483.6500 
1103.56   163.0952    4.3032 3883.0000  8383.0000  6612.0000 10371.0000  220.1500  175.6060  516.5240 
1103.66   156.5952    4.3482 3871.2612  8263.0732  6808.8027  9975.8564  220.2005  212.4310  537.7175 
1103.76   152.7321    4.3815 3860.0000  8149.0000  6996.0000  9600.0000  220.2510  249.2560  558.9110 
1103.86   155.2306    4.3865 3873.7717  8112.1211  7765.8516  8686.7295  211.7535  268.9030  556.3045 
1103.96   153.9359    4.4381 3887.0000  8077.0000  8499.0000  7817.0000  203.2560  288.5500  553.6980 
1104.06   143.4231    4.6034 3894.6558  8143.1538  9062.5898  6974.9487  201.9982  295.0910  522.9918 
1104.16   137.1714    4.6761 3902.0000  8206.0000  9598.0000  6175.0000  200.7420  301.6240  492.3230 
1104.26   141.1690    4.5262 3929.0500  8272.6260  9649.7637  6536.3179  208.3045  280.9510  458.4550 
1104.36   149.5446    4.3923 3955.0000  8336.0000  9699.0000  6880.0000  215.8670  260.2780  424.5870 
1104.46   168.5446    4.2973 3958.0603  8453.2959  9673.3896  7283.6216  223.4874  257.8070  402.9337 
1104.56   179.9487    4.2227 3961.0000  8565.0000  9649.0000  7668.0000  231.1170  255.3330  381.2540 
1104.66   172.9487    4.1977 3923.7424  8429.1855  8478.4326  8506.4629  239.3945  251.8410  376.2145 
1104.76   165.6571    4.1024 3888.0000  8300.0000  7365.0000  9304.0000  247.6720  248.3490  371.1750 
1104.86   157.6620    3.8376 3910.9531  8198.5820  6838.4482  9802.8926  232.3860  241.0080  365.7585 
1104.96   151.7082    3.6267 3933.0000  8102.0000  6337.0000 10278.0000  217.1000  233.6670  360.3420 
1105.06   150.7070    3.5466 3914.1160  8180.9741  6848.7949  9744.1543  202.1384  223.0255  356.3711 
1105.16   150.0000    3.4431 3896.0000  8256.0000  7335.0000  9237.0000  187.1950  212.3970  352.4050 
1105.26   150.0000    3.2832 3896.0000  8196.5488  8137.5869  8127.9336  176.7560  198.8650  353.2045 
1105.36   149.4164    3.1904 3896.0000  8140.0000  8901.0000  7073.0000  166.3170  185.3330  354.0040 
1105.46   147.4164    3.2604 3878.1477  7981.2148  9324.5977  6520.8374  172.0550  175.8388  356.1732 
1105.56   212.5201    3.3012 3861.0000  7830.0000  9728.0000  5995.0000  177.8000  166.3330  358.3450 
1105.66   439.5201    3.2712 3820.1697  7613.7217  9223.1797  6038.0508  193.2685  166.7855  363.8655 
1105.76  1168.4442    3.1826 3781.0000  7408.0000  8743.0000  6079.0000  208.7370  167.2380  369.3860 
1105.86  3108.2600    2.9528 3725.4026  6870.6919  7515.2324  6337.1538  208.7020  170.7605  382.4955 
1105.96  4542.9902    2.8454 3672.0000  6359.0000  6346.0000  6583.0000  208.6670  174.2830  395.6050 
1106.06  4752.2456    3.0357 3736.8181  6487.7178  6057.7949  7225.0513  220.4202  177.6185  403.2717 
1106.16  4205.6255    3.3384 3799.0000  6610.0000  5784.0000  7835.0000  232.1590  180.9500  410.9290 
1106.26  1836.0720    3.9130 3967.4248  7580.6895  6289.3325  9199.8076  233.7240  195.0030  422.0155 
