~Version information
VERS.                            2.00: CWLS LAS  -  VERSION 2.00
WRAP.                              NO: One line per depth step
~Well information
#MNEM.UNIT                  DATA TYPE  INFORMATION
#===.================================:==================
STRT.M                          6.560: First depth in file
STOP.M                       3292.880: Last depth in file
STEP.M                          0.100: Depth increment
NULL.                       -9999.00 : Null values
DATE.                       : LOG DATE
TIME.                            8:51: LOG TIME
WELL.                             F1: Well name
GRP.                                1: Group name
FLD.                    F: Field name
ISS.      Тех.состояние экспл.колонны: Well surveys
SRVC.                                : Service Company
~Curve information
#MNEM.UNIT                   API CODE   CURVE DESCRIPTION
#===.================================:==================
DEPT.M                               : Depth curve
LMek.                                : 10 Локатор муфт,  -   28.0 см
GKek.MKR/H                           : :11 Гамма-активность, мкр./ч -   67.0 
TM  .IMP                             : :14 Толщиномер, имп/мин -  170.0 см
DFint.KG/M3                          : :15 Интегральный цементомер, имп/мин -
DF1 .KG/M3                           : :16 Селективный цементомер 1, имп/мин 
DF2 .KG/M3                           : :17 Селективный цементомер 2, имп/мин 
AK1 .                                : Casing wave amplitude (High freq.)
AK2 .                                : Casing wave amplitude (Low freq.)
AP  .                                : Rock wave amplitude
#
~Other information
#------------------ REMARKS AREA -----------------------
#=======================================================
# The file is generated by the program GeoTech-EditLog v2000.12
#Number of Curves = 9
~A Log Data Section
# ...
 224.96   156.3084    2.3720 4078.0000  9987.2607  9023.0029 10687.2070 1479.3870 1508.5580 1522.5861 
 225.06   159.5213    2.3759 4082.8491 10015.3525  9259.6045 10458.5996 1507.1694 1534.9490 1548.3165 
 225.16   171.0221    2.4109 4096.3501 10038.3545  9520.1240 10344.5908 1534.9561 1561.3440 1574.0510 
 225.26   165.8482    2.4311 4105.1797 10068.4414  9960.4863 10148.4717 1555.4491 1580.6930 1602.4077 
 225.36   154.8499    2.4461 4105.6797 10110.9375 10715.9287  9808.4980 1575.9390 1600.0389 1630.7600 
 225.46   146.0722    2.4685 4099.7114 10144.3584 11265.6670  9447.3994 1594.0349 1615.6621 1651.4281 
 225.56   138.0728    2.4935 4082.2126 10161.8564 11454.6523  9049.4297 1612.1281 1631.2830 1672.0930 
 225.66   136.0000    2.3407 4077.8276 10151.7480 11411.7012  8843.4092 1610.1624 1634.1432 1663.0004 
 225.76   136.0000    2.1257 4096.8291 10093.2480 10962.2012  8973.9092 1608.1970 1637.0031 1653.9091 
 225.86   138.2229    2.1478 4117.9829 10066.7129 10410.5264  9476.6367 1599.2319 1639.8905 1639.2046 
 225.96   141.2232    2.2528 4142.9829 10096.2158  9679.4707 10632.2246 1590.2670 1642.7780 1624.5000 
 226.06   144.2229    2.2244 4143.3750 10044.0010  9014.0781 11360.5547 1600.7272 1643.6334 1605.7515 
 226.16   147.2232    2.1494 4099.8716  9848.4863  8463.5361 11340.0537 1611.1890 1644.4890 1587.0000 
 226.26   171.7144    2.1559 4068.7659  9679.6748  8116.4517 11185.6699 1603.7274 1634.5632 1572.6974 
 226.36   203.7095    2.1909 4059.7666  9557.6846  8125.9507 10796.6992 1596.2670 1624.6390 1558.3970 
 226.46   196.8100    2.1555 4051.6643  9459.6543  8279.1436 10342.2725 1612.6317 1614.3468 1549.4868 
 226.56   176.3115    2.0955 4045.1648  9403.6582  8684.1123  9773.3154 1628.9940 1604.0560 1540.5780 
 226.66   173.5934    2.0763 4051.2415  9387.9805  9130.0020  9257.1465 1627.1874 1613.3688 1539.6254 
 226.76   177.0937    2.0713 4079.7437  9442.9805  9647.5020  8833.6465 1625.3810 1622.6801 1538.6730 
 226.86   165.4034    2.1589 4096.9219  9531.9297 10159.8535  8551.8340 1640.9285 1642.0530 1533.0535 
 226.96   148.4021    2.2789 4093.9221  9680.4414 10663.3916  8518.3311 1656.4760 1661.4260 1527.4340 
 227.06   142.8885    2.2915 4088.0488  9852.7168 10934.0645  8708.7246 1638.4364 1652.9917 1478.2207 
 227.16   141.3884    2.2665 4077.0481 10066.7334 10796.5547  9291.7695 1620.3940 1644.5560 1429.0000 
 227.26   162.8617    2.2155 4064.9690 10210.4482 10493.1895 10010.5127 1533.1904 1519.4349 1366.5146 
 227.36   192.3572    2.1555 4050.9702 10230.9463  9899.2344 10966.9404 1446.0000 1394.3330 1304.0389 
 227.46   178.8821    2.2400 4048.6479 10241.4570  9411.4600 11612.6953 1358.8269 1269.3235 1247.2211 
 227.56   150.3843    2.3750 4067.1465 10234.4570  9109.9824 11713.6875 1271.6670 1144.3330 1190.4120 
 227.66   148.1868    2.3433 4063.7275 10188.0400  8764.5098 11673.1914 1272.8971 1158.9056 1200.7832 
 227.76   155.1874    2.2533 4021.2244 10072.5400  8342.0098 11384.6914 1274.1270 1173.4760 1211.1530 
 227.86   153.6656    2.0781 4009.8103  9973.9414  8352.8184 11038.3018 1340.2135 1279.4965 1243.4020 
 227.96   149.1653    1.8731 4053.8103  9904.9365  9123.3770 10590.2676 1406.3000 1385.5170 1275.6510 
 228.06   145.0361    1.9015 4089.7227  9827.9521  9726.3994 10042.4316 1470.1036 1483.8845 1310.7189 
 228.16   141.0358    2.0115 4111.2246  9736.9453 10035.9229  9319.3770 1533.9170 1582.2670 1345.7920 
 228.26   141.1116    1.9918 4096.0723  9621.7773 10340.9053  8673.8896 1524.6243 1564.1321 1354.5702 
 228.36   142.6114    1.9268 4015.5784  9464.2891 10637.8828  8164.4287 1515.3330 1546.0000 1363.3470 
 228.46   175.2325    1.9804 3971.7261  9321.6738 10717.6416  7826.3755 1511.7662 1530.1848 1358.2596 
 228.56   218.7292    2.0754 3993.2244  9205.1826 10416.6641  7788.8784 1508.2000 1514.3719 1353.1730 
 228.66   458.9622    1.9777 3997.8367  8936.2764  9775.0654  7871.6255 1526.7570 1516.4357 1335.4701 
 228.76   767.9858    1.8127 3972.3347  8400.2764  8536.5654  8165.1255 1545.3110 1518.4990 1317.7700 
 228.86  2442.5850    1.7774 3905.1558  7873.0596  7458.3760  8384.6846 1564.6055 1535.7896 1295.1935 
 228.96  4594.7490    1.7874 3763.6558  7361.0205  6660.8154  8474.6914 1583.9000 1553.0800 1272.6169 
 229.06  4802.2583    1.7011 3735.6799  7271.9648  6303.1685  8762.0645 1598.5989 1569.8887 1253.6434 
 229.16  4330.2222    1.5811 3910.1934  7924.5146  6716.7002  9395.6133 1613.3000 1586.7000 1234.6670 
 229.26  2702.1372    1.6723 4034.7568  8768.3516  7511.5332 10167.5850 1632.8210 1622.0472 1250.4287 
 229.36   670.4474    1.8373 4070.2542  9947.2607  8974.4219 11182.0078 1652.3390 1657.3890 1266.1880 
 229.46   141.0361    1.8467 4099.8276 10734.6953 10325.4502 11455.0547 1672.0070 1676.7991 1289.7633 
 229.56   137.0364    1.8017 4118.8262 10835.6875 11479.8613 10428.6328 1691.6720 1696.2061 1313.3350 
 229.66   138.2229    1.8493 4136.3901 10867.4854 12642.7734  9259.1289 1731.1990 1732.1527 1340.0035 
 229.76   141.2232    1.9293 4151.3916 10777.9854 13820.2734  7839.1289 1770.7200 1768.0940 1366.6680 
 229.86   141.2590    2.0611 4151.4780 10704.6572 14339.0273  7124.5718 1796.7996 1824.6641 1415.4619 
 229.96   140.2589    2.2112 4124.9780 10659.6543 13702.9785  7646.6118 1822.8790 1881.2340 1464.2560 
 230.06   138.5181    2.2278 4099.3794 10581.6094 12602.3584  8534.8232 1915.8159 1959.6111 1561.5460 
 230.16   136.5179    2.1978 4075.3774 10445.5996 10686.7119 10065.4404 2008.7670 2038.0000 1658.8510 
 230.26   138.9643    2.1604 4069.1633 10317.7637  9124.2100 11401.6826 2059.5403 2095.8130 1749.1908 
 230.36   142.9637    2.1204 4094.6614 10204.2725  8180.7822 12397.1064 2110.3059 2153.6169 1839.5170 
 230.46   146.2229    2.2063 4094.4700 10110.9277  7637.5859 12842.9834 2165.9961 2171.9514 1857.1328 
 230.56   149.2227    2.3363 4048.4734 10052.9316  7796.0737 12325.5225 2221.6780 2190.2830 1874.7460 
 230.66   146.2951    2.4478 4014.5081  9978.2178  8154.7539 11688.8389 2211.5686 2190.7595 1807.5479 
 230.76   141.2947    2.5528 4002.0071  9874.2178  8864.2539 10843.3389 2201.4609 2191.2361 1740.3600 
 230.86   138.5181    2.5392 4006.5762  9838.5059  9694.2363 10097.6328 2208.9331 2186.4966 1659.8920 
 230.96   136.5179    2.4842 4041.5762  9922.5127 10735.8154  9526.5898 2216.4050 2181.7571 1579.4240 
 231.06   136.0000    2.4663 4073.6982  9763.7305 11465.8223  8568.1357 2202.9316 2176.5071 1513.8705 
 231.16   136.0000    2.4613 4100.7002  9179.1855 11649.8359  6930.0112 2189.4561 2171.2561 1448.3070 
 231.26   136.0000    2.4044 4103.4463  8788.8340 11654.1904  5964.5684 2168.7266 2159.4216 1424.3767 
 231.36   136.0000    2.3294 4062.9495  8738.8379 11343.7139  6178.0518 2148.0000 2147.5891 1400.4500 
 231.46   136.0000    2.4026 4042.5698  8871.2197 10656.6113  7046.8110 2120.8259 2140.6274 1386.7823 
 231.56   136.0000    2.5276 4058.0688  9323.1846  9309.7139  9063.6572 2093.6560 2133.6670 1373.1169 
 231.66   138.5934    2.5933 4064.4065  9662.5869  8100.1538 10947.9727 2080.9512 2125.1794 1370.5758 
 231.76   142.0937    2.6383 4054.4058  9804.5869  7131.6538 12599.4727 2068.2480 2116.6931 1368.0350 
 231.86   140.4066    2.6574 4047.6406  9890.6416  6749.2412 13376.2656 2061.2795 2114.2104 1367.5345 
 231.96   136.9063    2.6674 4046.6406  9878.6406  7394.2905 12619.7080 2054.3110 2111.7280 1367.0341 
 232.06   136.0000    2.6515 4035.7629  9855.3838  8326.5049 11577.4551 2035.3679 2076.6221 1369.9053 
 232.16   136.0000    2.6265 4007.2607  9812.3809  9762.6143 10033.8379 2016.4220 2041.5110 1372.7770 
 232.26   136.0000    2.7719 3991.5154  9764.2910 10833.2266  8857.8965 1997.8096 2008.5864 1392.2424 
 232.36   136.0000    2.9769 3998.5149  9707.2949 11263.1934  8326.4375 1979.2000 1975.6670 1411.7050 
 232.46   136.0000    2.9411 4023.8423  9630.6719 11580.5977  7839.7666 1980.2916 1972.1747 1436.7878 
 232.56   136.0000    2.8211 4081.8379  9519.6807 11700.5889  7431.7979 1981.3831 1968.6830 1461.8669 
 232.66   136.0000    2.7678 4109.4771  9474.6123 11559.5713  7281.1685 2004.3242 2001.3839 1482.9250 
