~Version information
VERS.                            2.00: CWLS LAS  -  VERSION 2.00
WRAP.                              NO: One line per depth step
~Well information
#MNEM.UNIT                  DATA TYPE  INFORMATION
#===.================================:==================
STRT.M                          6.560: First depth in file
STOP.M                       3292.880: Last depth in file
STEP.M                          0.100: Depth increment
NULL.                       -9999.00 : Null values
DATE.                       : LOG DATE
TIME.                            8:51: LOG TIME
WELL.                             F1: Well name
GRP.                                1: Group name
FLD.                    F: Field name
ISS.      Тех.состояние экспл.колонны: Well surveys
SRVC.                                : Service Company
~Curve information
#MNEM.UNIT                   API CODE   CURVE DESCRIPTION
#===.================================:==================
DEPT.M                               : Depth curve
LMek.                                : 10 Локатор муфт,  -   28.0 см
GKek.MKR/H                           : :11 Гамма-активность, мкр./ч -   67.0 
TM  .IMP                             : :14 Толщиномер, имп/мин -  170.0 см
DFint.KG/M3                          : :15 Интегральный цементомер, имп/мин -
DF1 .KG/M3                           : :16 Селективный цементомер 1, имп/мин 
DF2 .KG/M3                           : :17 Селективный цементомер 2, имп/мин 
AK1 .                                : Casing wave amplitude (High freq.)
AK2 .                                : Casing wave amplitude (Low freq.)
AP  .                                : Rock wave amplitude
#
~Other information
#------------------ REMARKS AREA -----------------------
#=======================================================
# The file is generated by the program GeoTech-EditLog v2000.12
#Number of Curves = 9
~A Log Data Section
# ...
2619.56   179.3355    5.4389 3899.5642 11238.9688  9930.2109 12151.6611  212.3620  139.3330  210.1670 
2619.66   180.0000    5.1200 3846.1074 11174.6387  9828.4385 12039.1807  205.0581  131.6331  204.9076 
2619.76   182.5336    5.0288 3786.7524 11075.2598 10022.2012 11884.3701  197.7720  123.9520  199.6610 
2619.86   185.0000    4.9400 3807.7290 10810.4287 10245.6699 11148.4824  198.3923  119.1256  200.9426 
2619.96   186.5183    4.9754 3871.6509 10459.8574 10483.8789 10110.7510  199.0110  114.3110  202.2210 
2620.06   188.0000    5.0100 3901.4980 10039.7822 10753.2158  9241.2764  191.5018  114.9563  199.7089 
2620.16   177.8657    4.9745 3913.0122  9583.7266 11038.5645  8461.3252  184.0110  115.6000  197.2030 
2620.26   168.0000    4.9400 3921.2380  9480.8799 10933.6748  8283.6816  190.7675  123.3540  201.8155 
2620.36   155.8388    4.8640 3927.7461  9561.4785 10625.2988  8418.8457  197.5240  131.1080  206.4280 
2620.46   144.0000    4.7900 3925.4358  9799.2793 10374.0186  9146.0293  196.5277  139.2206  212.8047 
2620.56   151.0940    5.0738 3918.4272 10119.7793 10151.5186 10184.0293  195.5290  147.3530  219.1970 
2620.66   158.0000    5.3500 3921.8828 10210.6211  9685.4590 10962.4004  212.9257  150.6350  226.1905 
2620.76   150.3993    5.6034 3930.8611 10181.1572  9093.1836 11603.1172  230.2800  153.9090  233.1670 
2620.86   143.0000    5.8500 3951.9304 10263.2939  9135.0088 11544.8184  245.2833  154.1743  238.3478 
2620.96   157.6768    6.2498 3979.3967 10403.6230  9509.0518 11120.3369  260.2500  154.4390  243.5160 
2621.06   172.0000    6.6400 3984.4358 10653.6680 10152.6797 10888.2744  277.3013  148.2119  247.7071 
2621.16   184.1612    6.4931 3977.4272 10961.0430 10937.1367 10757.6152  294.3110  142.0000  251.8880 
2621.26   196.0000    6.3500 3978.2600 11221.6846 11708.1846 10690.0088  299.6790  145.8200  255.3205 
2621.36   165.5971    6.1473 3983.2661 11458.9746 12475.1201 10654.9658  305.0470  149.6400  258.7530 
2621.46   136.0000    5.9500 3928.6008 11337.2656 12545.4199 10349.0684  307.0570  153.4788  261.2969 
2621.56   176.0305    6.1527 3841.9951 11028.2656 12253.4199  9901.0684  309.0720  157.3270  263.8470 
2621.66   215.0000    6.3500 3794.3513 10560.3770 11447.4912  9673.0986  308.0913  189.2139  264.0567 
2621.76  1129.6215    5.9092 3767.4170 10010.5498 10374.8018  9560.7363  307.1130  221.0230  264.2660 
2621.86  2020.0000    5.4800 3723.1172  9349.3467  9185.5186  9431.6768  329.8147  248.7118  270.6117 
2621.96  3621.2927    5.4294 3669.6826  8632.2236  7939.5420  9294.3447  352.4610  276.3330  276.9420 
2622.06  5184.0000    5.3800 3750.4321  8637.2490  7640.0659  9791.2402  386.1411  307.1346  295.0606 
2622.16  2628.1270    5.8969 3903.1184  9021.7178  7838.3076 10620.7520  419.7390  337.8610  313.1350 
2622.26   140.0000    6.4000 3942.3076 10321.9512  9336.3965 11674.8701  451.8605  345.0145  330.1470 
2622.36   137.9731    6.3544 3921.2820 12103.6240 11516.5557 12849.8037  483.9820  352.1680  347.1590 
2622.46   136.0000    6.3100 3930.3003 12753.6621 12652.0342 12839.9551  513.2737  370.9510  369.1991 
2622.56   140.0537    6.5026 3955.3308 12817.1621 13248.0342 12213.4551  542.6370  389.7800  391.2930 
2622.66   144.0000    6.6900 3998.3171 12771.6680 13608.0283 11949.7178  562.3550  400.9877  388.0841 
2622.76   142.9866    6.8015 4050.6890 12669.2930 13843.7402 11876.3076  582.0250  412.1680  384.8830 
2622.86   142.0000    6.9100 4044.2234 12472.7314 13819.8965 11706.4824  600.5937  423.5534  392.2460 
2622.96   138.9634    6.5659 4006.2698 12227.5312 13660.0918 11486.7510  619.1170  434.9110  399.5910 
2623.06   136.0000    6.2300 3971.4834 11934.4346 12827.2324 11453.6982  614.1995  423.6448  396.5017 
2623.16   136.0000    6.1287 3938.4431 11616.5469 11641.7861 11518.7773  609.2940  412.4060  393.4200 
2623.26   136.0000    6.0300 3958.2966 11382.2041 10766.3320 11862.2236  607.7070  405.3875  404.8035 
2623.36   136.0000    6.1313 4006.3552 11190.4697 10048.9570 12351.8203  606.1200  398.3690  416.1870 
2623.46   136.0000    6.2300 4024.3040 11048.8926  9867.3135 12357.9277  613.8001  390.7438  406.2411 
2623.56   143.6007    6.3263 4026.3064 10932.8926  9963.8135 12112.4277  621.4990  383.1000  396.2710 
2623.66   151.0000    6.4200 4042.3611 10898.2549 10112.6143 11717.2871  632.6882  385.0939  383.2737 
2623.76   147.4530    6.0704 4065.8037 10906.2451 10288.3994 11244.8643  643.8500  387.0830  370.3080 
2623.86   144.0000    5.7300 4077.5862 10864.0029 10676.7920 10871.1357  644.4172  384.5664  348.7963 
2623.96   139.9512    6.0488 4083.0793 10795.5859 11175.1836 10550.5273  644.9830  382.0560  327.3370 
2624.06   136.0000    6.3600 4057.6155 10810.4287 11972.0391 10003.1621  630.1399  379.7197  312.7522 
2624.16   136.0000    6.1877 4015.5642 10869.0000 12924.7012  9337.3506  615.3330  377.3890  298.2030 
2624.26   136.0000    6.0200 3979.1575 10892.2842 12600.3271  9399.0352  601.3650  363.4205  290.7430 
2624.36   140.0537    6.2379 3945.6167 10897.2910 11610.1201  9839.5723  587.3970  349.4520  283.2830 
2624.46   144.0000    6.4500 3943.1282 10759.2510 10648.0508 10344.9492  558.3925  339.7144  289.1643 
2624.56   164.2686    6.5463 3957.1453 10546.2510  9697.0508 10885.9492  529.3170  329.9530  295.0600 
2624.66   184.0000    6.6400 3964.2878 10477.5986  9220.5557 11556.4629  517.8915  321.3515  317.8483 
2624.76   159.6777    6.0319 3967.7793 10484.5898  8993.3330 12293.0625  506.4940  312.7710  340.5810 
2624.86   136.0000    5.4400 3980.7363 10665.6768  9432.3076 12470.4717  491.7375  313.1775  360.6194 
2624.96   136.0000    5.5311 3998.7144 10937.3447 10218.8457 12354.1133  477.0170  313.5830  380.6090 
2625.06   136.0000    5.6200 4011.9148 10981.7842 10884.3984 11528.3496  489.8657  314.4175  386.7104 
2625.16   136.0000    5.7568 4022.5330 10906.7715 11485.5264 10330.8887  502.6830  315.2500  392.7970 
2625.26   136.0000    5.8900 4033.1252 10831.9424 12085.1875  9136.3496  498.9770  317.4645  386.9015 
2625.36   136.0000    6.1484 4034.5398 10753.6357 12457.5352  8688.0557  495.2710  319.6790  381.0060 
2625.46   136.0000    6.4000 4032.5422 10674.3291 12746.3291  8511.4883  482.4821  324.4781  374.8605 
2625.56   140.0537    6.4456 4032.0000 10506.4795 12154.0371  8696.6006  469.6620  329.2890  368.7000 
2625.66   144.0000    6.4900 4032.0000 10306.2354 11238.4199  9014.4883  448.0637  334.1339  356.1832 
2625.76   137.9194    6.3228 4069.4773 10289.9961 10270.8242 10095.7031  426.5180  338.9670  343.6970 
2625.86   132.0000    6.1600 4121.0405 10340.5576  9281.1172 11457.8643  407.2190  327.7448  328.3488 
2625.96   141.1098    6.0841 4088.4260 10468.2861  9037.0479 12426.9600  387.9670  316.5500  313.0380 
2626.06   150.0000    6.0100 4024.3479 10624.4766  9063.0791 13256.4717  414.4994  297.9303  300.1893 
2626.16   142.9060    5.7718 3981.8096 10658.6494  9311.8291 12800.3936  440.9670  279.3560  287.3720 
2626.26   136.0000    5.5400 3947.3516 10648.6621  9640.4277 11881.0176  473.9190  257.1890  284.6550 
2626.36   139.0403    5.6261 3931.4285 10606.7236 10100.5791 11018.9502  506.8710  235.0220  281.9380 
2626.46   142.0000    5.7100 3922.4395 10553.3535 10606.8418 10180.5000  547.3141  229.4873  283.4886 
2626.56   137.9463    5.6137 3925.4695 10472.3330 11327.9814  9554.2676  587.8560  223.9390  285.0430 
2626.66   134.0000    5.5200 3932.9695 10381.2227 12127.4570  9006.5996  605.9140  232.8153  282.2786 
2626.76   145.1477    5.5555 3933.9084 10527.3301 12253.5527  9326.5674  623.9280  241.6700  279.5210 
2626.86   156.0000    5.5900 3932.4065 10760.1133 12135.4092  9962.8438  631.0197  256.4420  282.0406 
2626.96   145.3719    5.1598 3965.1111 10926.7617 11765.9043 10511.1211  638.0940  271.1780  284.5540 
2627.06   135.0000    4.7400 4010.6667 11069.9365 11303.8408 11029.2529  617.3552  285.0779  281.8852 
2627.16   135.5067    4.9883 4015.3333 11061.3252 10554.3760 11673.4443  596.6670  298.9440  279.2230 
2627.26   136.0000    5.2300 4004.8462 10997.9023  9702.9170 12361.6035  567.2040  303.0340  282.7150 
