~Version information
VERS.                            2.00: CWLS LAS  -  VERSION 2.00
WRAP.                              NO: One line per depth step
~Well information
#MNEM.UNIT                  DATA TYPE  INFORMATION
#===.================================:==================
STRT.M                          6.560: First depth in file
STOP.M                       3292.880: Last depth in file
STEP.M                          0.100: Depth increment
NULL.                       -9999.00 : Null values
DATE.                       : LOG DATE
TIME.                            8:51: LOG TIME
WELL.                             F1: Well name
GRP.                                1: Group name
FLD.                    F: Field name
ISS.      Тех.состояние экспл.колонны: Well surveys
SRVC.                                : Service Company
~Curve information
#MNEM.UNIT                   API CODE   CURVE DESCRIPTION
#===.================================:==================
DEPT.M                               : Depth curve
LMek.                                : 10 Локатор муфт,  -   28.0 см
GKek.MKR/H                           : :11 Гамма-активность, мкр./ч -   67.0 
TM  .IMP                             : :14 Толщиномер, имп/мин -  170.0 см
DFint.KG/M3                          : :15 Интегральный цементомер, имп/мин -
DF1 .KG/M3                           : :16 Селективный цементомер 1, имп/мин 
DF2 .KG/M3                           : :17 Селективный цементомер 2, имп/мин 
AK1 .                                : Casing wave amplitude (High freq.)
AK2 .                                : Casing wave amplitude (Low freq.)
AP  .                                : Rock wave amplitude
#
~Other information
#------------------ REMARKS AREA -----------------------
#=======================================================
# The file is generated by the program GeoTech-EditLog v2000.12
#Number of Curves = 9
~A Log Data Section
# ...
2401.16   158.9451    4.1227 3999.7693 12685.0000 13939.9229 11499.3848  586.3500  508.5610  423.0000 
2401.26   160.5470    4.1567 3968.3076 12444.7939 13116.9287 12679.9414  584.9055  517.1325  413.9930 
2401.36   153.5385    4.2719 3966.0732 12313.5850 12207.4150 13189.7803  583.4610  525.7040  404.9860 
2401.46   151.7265    4.4089 3982.5532 12251.2383 11247.2617 13277.0674  595.2995  511.7915  408.0153 
2401.56   155.2308    4.5691 3999.9756 12166.0127 10707.8926 13228.2529  607.1670  497.8450  411.0520 
2401.66   157.7436    4.7863 4017.9756 12066.3906 10436.5615 13093.0879  602.8257  476.4799  411.7108 
2401.76   159.2418    5.0610 4021.0476 12066.3086 10519.2539 13095.2451  598.4950  455.1670  412.3680 
2401.86   155.2963    5.2792 4014.5398 12128.8848 10825.1270 13183.8535  592.4541  437.0614  419.8511 
2401.96   145.8195    5.4388 4013.5203 12268.5400 11429.9824 13125.1396  586.4280  419.0000  427.3160 
2402.06   150.6190    6.0182 4016.0232 12457.2695 12225.4531 12973.4541  581.2547  426.1117  429.0721 
2402.16   170.1429    7.0295 4025.2417 12542.9229 13015.0771 12260.8457  576.0940  433.2060  430.8240 
2402.26   174.0806    7.0886 4038.7253 12563.8975 13799.1182 11199.1445  621.0120  445.9070  437.8080 
2402.36   162.0659    6.1725 4056.2100 12495.4785 13941.5801 10808.6680  665.9300  458.6080  444.7920 
2402.46   155.0134    5.7495 4076.1855 12371.2812 13681.2168 10840.5898  713.4015  471.8932  452.7653 
2402.56   153.0110    5.8296 4070.5854 12080.8877 12755.2861 11309.6426  760.9890  485.2110  460.7580 
2402.66   150.0171    5.8353 4048.5854 11685.4053 11408.1426 12055.5518  807.5488  489.9022  471.2227 
2402.76   146.0220    5.7654 4019.6301 11334.7129 10444.9229 12454.8623  853.9950  494.5820  481.6620 
2402.86   144.9902    5.7424 3986.0891 11010.8184  9719.5381 12637.5850  821.9639  459.5818  478.0201 
2402.96   146.9854    5.7673 3987.8975 10789.7676  9405.0625 12401.2227  790.0110  424.6670  474.3870 
2403.06   147.0134    5.8910 4012.4272 10632.5762  9347.9922 11900.1113  789.1765  421.7910  462.0119 
2403.16   145.0110    6.1163 4006.1270 10744.9229  9774.9229 11753.4619  788.3440  418.9220  449.6670 
2403.26   144.0000    6.0746 3980.1587 11025.5801 10503.5322 11828.8691  778.4740  416.1865  438.2425 
2403.36   144.0000    5.7592 3973.9683 11267.6826 11336.3271 11660.7021  768.6040  413.4510  426.8180 
2403.46   142.0269    5.6962 3980.4602 11484.6523 12231.1387 11340.4854  796.2467  463.3265  430.4940 
2403.56   138.0220    5.8914 3996.7195 11697.1055 12787.4004 10949.6768  823.9570  513.3240  434.1790 
2403.66   136.0000    5.9900 4019.2195 11906.3604 13127.8154 10514.6455  815.6128  535.3398  438.5248 
2403.76   136.0000    5.9900 4010.3662 11956.9658 13074.5039 10569.4980  807.2890  557.3020  442.8600 
2403.86   136.2476    6.0370 3981.3308 11907.9062 12773.1367 10932.9414  771.1504  567.8724  446.0223 
2403.96   136.7463    6.1318 3983.9854 11958.2627 12303.0254 11556.3057  735.1000  578.4170  449.1770 
2404.06   138.7265    6.0641 4007.0134 12071.4004 11724.8203 12345.7676  687.0579  559.6857  446.5944 
2404.16   142.2308    5.8288 3998.9060 12040.8457 11067.8457 12759.5381  639.1330  541.0000  444.0180 
2404.26   147.4530    5.7445 3970.9402 11920.4932 10363.2080 12937.3213  598.4535  506.2670  441.6370 
2404.36   154.4615    5.8146 4009.4504 11681.3125  9984.3613 12810.8535  557.7740  471.5340  439.2560 
2404.46   220.6471    5.6009 4090.3516 11368.5771  9811.2842 12494.1279  548.7840  444.4971  437.7648 
2404.56   347.8022    5.0953 4076.5732 10906.2041 10237.7256 11658.7607  539.7720  417.3940  436.2700 
2404.66  1200.2051    4.6318 4002.0732 10349.5254 11044.2090 10495.3418  530.6228  395.1339  435.6623 
2404.76  2788.2637    4.2123 3954.1501  9639.7422 10711.7168  9440.4932  521.4960  372.9280  435.0560 
2404.86  3540.5073    4.0223 3923.1123  8830.7559  9660.9355  8449.7852  497.4186  367.6241  432.3582 
2404.96  3436.7610    4.0672 3863.8755  8551.1797  9258.7578  7971.1553  473.4000  362.3330  429.6670 
2405.06  2599.4309    4.3070 3786.2808  8603.7432  9263.2637  7812.9619  449.9048  354.8239  426.9967 
2405.16  1006.9890    4.7476 3803.9243  9251.6924  9886.2305  8413.2305  426.4670  347.3330  424.3330 
2405.26   188.4481    5.1426 3882.3284 10270.4473 10894.4980  9486.4189  411.5460  356.6980  425.1845 
2405.36   158.9121    5.4931 3905.6741 10871.4395 11138.3320 10651.1611  396.6250  366.0630  426.0360 
2405.46   149.9194    6.0400 3893.6887 11208.1162 10901.9102 11868.6846  392.3692  361.9450  429.2136 
2405.56   161.9341    6.7909 3910.9512 11411.9404 10719.5908 12410.0371  388.1030  357.8170  432.3990 
2405.66   161.0598    7.0411 3946.9512 11531.0859 10571.9111 12521.1719  384.3985  346.8371  436.8444 
2405.76   147.0769    6.7814 3979.2417 11617.4541 10740.5625 12233.6240  380.7030  335.8840  441.2790 
2405.86   152.6256    6.3678 4009.2783 11683.5352 11109.0127 11693.9658  375.3450  308.8676  444.7843 
2405.96   178.0634    5.7992 4024.6484 11875.7207 11895.2031 11878.8965  370.0000  281.9170  448.2810 
2406.06   185.3272    5.3472 4030.6558 12148.0527 12947.4863 12520.6787  367.7558  271.0703  451.3137 
2406.16   173.8132    5.0168 4016.5166 12228.0771 13287.1543 12167.6924  365.5170  260.2500  454.3390 
2406.26   160.1075    4.9487 3989.5496 12187.6260 13180.2842 11193.3838  362.0250  259.2555  446.4025 
2406.36   144.0879    5.1489 3980.8315 12140.0391 13027.7510 10896.2881  358.5330  258.2610  438.4660 
2406.46   155.7314    5.1242 3983.8279 12088.1660 12847.1924 11024.9736  348.5537  244.2027  428.4203 
2406.56   195.7802    4.8689 3966.0977 12039.8047 12415.6699 11615.3086  338.5500  230.1100  418.3500 
2406.66   202.1197    4.5888 3935.0977 11993.7480 11825.4502 12497.8848  327.5646  213.6980  413.6648 
2406.76   174.1538    4.2842 3959.1794 11992.2432 11588.8057 12711.7334  316.6060  197.3260  408.9910 
2406.86   154.3061    4.2043 4018.7522 12018.7754 11573.7871 12505.4824  306.4626  181.6494  414.4446 
2406.96   142.8342    4.3539 4024.9744 11946.5596 11311.1768 12493.1172  296.3440  166.0110  419.8850 
2407.06   140.6996    4.4596 3996.9402 11811.8945 10891.6650 12602.7510  294.8422  166.6032  418.0493 
2407.16   148.2088    4.5197 3949.3699 11725.8457 10957.6924 12323.4619  293.3440  167.1940  416.2180 
2407.26   151.0134    4.3897 3889.4431 11670.4141 11327.2402 11801.5996  299.2410  186.3795  403.6470 
2407.36   149.0110    4.0643 3893.1672 11659.1416 11694.6484 11387.0293  305.1380  205.5650  391.0760 
2407.46   145.0403    3.8655 3937.6130 11675.6016 12059.2568 11041.3740  304.5602  228.6523  377.9760 
2407.56   139.0330    3.7954 3948.5977 11677.7090 12360.6719 10652.0156  303.9810  251.7960  364.8440 
2407.66   137.9829    3.9013 3938.0977 11670.7012 12621.4893 10235.5078  309.3510  274.2929  358.7956 
2407.76   141.9780    4.1859 3962.5789 11732.3594 12782.3750 10176.4424  314.7080  296.7350  352.7620 
2407.86   142.0195    4.2632 4009.6362 11837.4873 12880.9951 10342.1445  314.4091  289.5032  356.8535 
2407.96   138.0293    4.1285 4034.3845 11910.1797 12697.7275 11088.8184  314.1110  282.2890  360.9350 
2408.06   139.9463    4.1439 4044.8975 11962.7432 12336.2871 12204.1787  325.7307  265.6132  369.9129 
2408.16   147.9560    4.3141 4038.9268 12087.0000 11893.0000 12861.3848  337.3220  248.9780  378.8690 
2408.26   154.4664    4.3951 4022.4468 12255.7939 11399.6035 13230.4336  342.0575  237.3905  387.4300 
2408.36   159.4725    4.3851 4013.8633 12253.3906 11190.5605 13247.3076  346.7930  225.8030  395.9910 
2408.46   171.3724    4.3553 4010.3674 12143.6582 11160.6338 13043.3057  354.2779  226.8138  400.8006 
2408.56   190.3956    4.3053 4033.6951 12103.4521 11567.9463 12815.9746  361.7810  227.8270  405.6220 
2408.66   200.0000    4.3816 4074.1951 12107.4570 12252.2812 12574.1797  370.8956  243.2879  407.1208 
2408.76   200.0000    4.5864 4062.0293 12172.7461 12785.3887 12205.1758  379.9880  258.7110  408.6160 
2408.86   200.4951    4.7098 4015.9731 12276.8730 13225.4248 11754.6260  389.6253  277.8899  409.8620 
