~Version information
VERS.                            2.00: CWLS LAS  -  VERSION 2.00
WRAP.                              NO: One line per depth step
~Well information
#MNEM.UNIT                  DATA TYPE  INFORMATION
#===.================================:==================
STRT.M                          6.560: First depth in file
STOP.M                       3292.880: Last depth in file
STEP.M                          0.100: Depth increment
NULL.                       -9999.00 : Null values
DATE.                       : LOG DATE
TIME.                            8:51: LOG TIME
WELL.                             F1: Well name
GRP.                                1: Group name
FLD.                    F: Field name
ISS.      Тех.состояние экспл.колонны: Well surveys
SRVC.                                : Service Company
~Curve information
#MNEM.UNIT                   API CODE   CURVE DESCRIPTION
#===.================================:==================
DEPT.M                               : Depth curve
LMek.                                : 10 Локатор муфт,  -   28.0 см
GKek.MKR/H                           : :11 Гамма-активность, мкр./ч -   67.0 
TM  .IMP                             : :14 Толщиномер, имп/мин -  170.0 см
DFint.KG/M3                          : :15 Интегральный цементомер, имп/мин -
DF1 .KG/M3                           : :16 Селективный цементомер 1, имп/мин 
DF2 .KG/M3                           : :17 Селективный цементомер 2, имп/мин 
AK1 .                                : Casing wave amplitude (High freq.)
AK2 .                                : Casing wave amplitude (Low freq.)
AP  .                                : Rock wave amplitude
#
~Other information
#------------------ REMARKS AREA -----------------------
#=======================================================
# The file is generated by the program GeoTech-EditLog v2000.12
#Number of Curves = 9
~A Log Data Section
# ...
2182.76   339.9817    5.9196 3911.6704 12078.3428 12691.5801 11072.7998  761.5290  651.8830  625.8590 
2182.86   311.8889    5.8005 3891.3333 12047.7666 11986.9512 11177.2773  783.0657  685.3543  657.9181 
2182.96   259.9524    5.5009 3871.8572 12264.0029 11655.3564 12322.8770  804.5500  718.7440  689.8990 
2183.06   220.1538    5.6313 3858.4443 12443.1426 11381.3154 13311.2734  794.2625  744.0223  704.2500 
2183.16   188.6923    6.0508 3871.4285 12464.5898 11351.8877 13628.4980  784.0000  769.2390  718.5660 
2183.26   195.1453    6.1632 3882.6572 12491.6191 11400.5713 13815.8096  774.3175  762.9560  711.9475 
2183.36   227.1844    6.0680 3886.1572 12542.1807 11782.0371 13446.8594  764.6350  756.6730  705.3290 
2183.46   213.6752    6.0689 3882.5972 12530.9043 12146.5713 12955.0000  778.0941  750.1914  696.9732 
2183.56   169.6215    6.1340 3848.0549 12257.0713 12443.9336 11935.2568  791.5860  743.6940  688.5970 
2183.66   171.1219    6.0913 3820.8352 12055.4287 12777.8096 11138.8574  815.7455  719.3323  686.9000 
2183.76   203.1219    5.9763 3825.3406 12157.5527 13270.9111 11280.0293  839.9640  694.9110  685.1990 
2183.86   216.0000    5.8432 3831.6326 12257.0732 13689.3525 11405.5752  874.9081  674.7644  683.7863 
2183.96   216.0000    5.6984 3845.6155 12345.4648 13794.7236 11465.5020  909.7670  654.6670  682.3770 
2184.06   198.9487    5.6520 3863.9573 12409.0996 13736.0654 11583.6553  911.9081  649.5468  689.6304 
2184.16   170.4835    5.6719 3900.9121 12368.2002 12990.8877 11944.2734  914.0440  644.4390  696.8660 
2184.26   177.2479    5.6501 3933.8171 12310.1426 12266.5713 12358.1426  891.5890  657.4550  703.3840 
2184.36   207.7851    5.6000 3948.8171 12179.4834 11638.8057 12994.9189  869.1340  670.4710  709.9020 
2184.46   194.8718    5.4903 3955.9890 12053.7139 11057.8096 13551.3809  827.7266  669.0652  707.8625 
2184.56   152.8205    5.3401 3928.9561 11947.0840 10667.8340 13774.1523  786.2180  667.6560  705.8180 
2184.66   140.7805    5.2262 3914.7021 11905.0000 10479.2861 13865.5234  761.6420  652.4741  696.7206 
2184.76   148.7805    5.1362 3956.2527 12136.2822 11143.0957 13400.4570  737.0060  637.2550  687.6010 
2184.86   149.0085    5.0611 3983.9829 12341.7129 11780.3789 12881.7578  758.8241  628.1859  685.6992 
2184.96   144.0146    4.9962 3952.0220 12438.5947 12305.2373 12140.1650  780.5890  619.1390  683.8020 
2185.06   145.5897    5.0358 3927.0342 12453.7998 12786.7451 11420.7295  813.4205  626.6481  691.6481 
2185.16   151.5824    5.1457 3932.5276 12126.5996 13080.5264 10803.2393  846.1720  634.1390  699.4750 
2185.26   157.5897    5.0853 3934.2769 11840.8096 13290.1426 10355.2383  872.8390  678.9245  706.9380 
2185.36   163.5971    4.9101 3919.7769 11734.6797 13138.4580 10635.0791  899.5060  723.7100  714.4010 
2185.46   165.7009    4.8579 3914.0317 11640.1426 12877.1426 10863.5713  900.1232  688.6678  696.8340 
2185.56   165.2002    4.8880 3946.5715 11593.5859 12147.2529 10877.0879  900.7420  653.5400  679.2240 
2185.66   168.5854    4.9717 3970.0305 11551.7139 11429.4287 11084.4766  875.0859  614.2570  653.9265 
2185.76   174.5854    5.0917 3954.0110 11529.1865 10753.6045 12117.2354  849.3670  574.8780  628.5670 
2185.86   171.3162    5.1370 3946.9231 11513.5078 10218.4180 12951.5791  800.2902  493.9543  578.4419 
2185.96   161.8278    5.1320 3978.3845 11526.4922 10272.3516 12954.5752  751.3330  413.2280  528.4390 
2186.06   153.8120    5.1121 4002.3076 11544.3223 10408.5840 12778.7686  703.1608  411.6120  498.4554 
2186.16   146.8205    5.0821 3993.3186 11582.2295 10887.9121 11856.0244  655.1060  410.0000  468.5450 
2186.26   159.2564    5.2345 3986.6572 11621.3809 11443.4766 10988.2383  621.5475  419.3650  454.9230 
2186.36   184.7876    5.5099 3990.1572 11665.4346 12318.5430 10363.9766  587.9890  428.7300  441.3010 
2186.46   188.1197    5.4824 3983.1636 11731.9521 13129.1904  9864.2861  567.6529  405.9988  448.9521 
2186.56   176.6056    5.2521 3930.0989 11894.6504 13676.8584  9886.8135  547.2670  383.2120  456.6220 
2186.66   165.1281    5.2496 3891.2686 12022.8574 14064.0479  9975.4766  523.4626  361.6643  455.6427 
2186.76   153.6281    5.3996 3914.2966 12006.3369 13775.1953 10345.9277  499.6000  340.0640  454.6610 
2186.86   166.0513    5.5138 3933.3760 11989.2383 13367.5059 10749.8506  487.7856  306.1962  444.2688 
2186.96   194.5165    5.6037 3935.3735 11969.7617 12464.1104 11292.6875  476.0000  272.4110  433.9020 
2187.06   205.4017    5.6280 3931.8291 11947.3525 11578.4688 11935.3770  473.6081  273.8628  447.7494 
2187.16   204.4029    5.6081 3904.3625 11912.9365 10778.4248 12988.3027  471.2220  275.3110  461.5630 
2187.26   211.1795    5.6479 3869.6987 11789.9521 10047.1904 13783.5713  479.6350  276.7555  486.0990 
2187.36   223.1941    5.7280 3804.1987 11290.3428  9617.1660 13471.1904  488.0480  278.2000  510.6350 
2187.46   843.6411    5.5416 3723.8108 10693.7617  9178.1904 12834.9043  496.0587  279.7112  536.1578 
2187.56  1873.8975    5.1762 3577.1318  9678.0234  8695.6016 10815.9424  504.0890  281.2260  561.7430 
2187.66  2976.4817    4.9673 3477.3943  8797.2383  8369.5234  8954.4766  493.9459  290.6929  563.3410 
2187.76  4131.9819    4.8623 3582.0220  8477.8486  8703.4307  7737.4922  483.7780  300.1830  564.9430 
2187.86  3269.6924    5.0773 3674.0513  8418.3203  9193.2158  7001.4531  468.3702  317.9602  537.4379 
2187.96  1053.9011    5.5067 3711.5056  9445.0645 10333.3223  8277.3936  453.0000  335.6940  510.0000 
2188.06   152.8205    5.6411 3753.1880 10382.5537 11335.3857  9462.8936  430.8980  352.9540  482.6331 
2188.16   140.8352    5.5762 3812.6155 10934.2051 11746.3809 10254.4590  408.8500  370.1720  455.3330 
2188.26   138.3932    5.5350 3859.2158 11394.5713 11990.8574 10930.0479  398.3025  359.9525  431.2385 
2188.36   142.3980    5.5100 3849.7158 11460.6523 11522.2861 11103.7598  387.7550  349.7330  407.1440 
2188.46   147.8889    5.5030 3841.6289 11525.5234 11115.9043 11299.9043  379.9565  330.5410  408.6417 
2188.56   154.3968    5.5080 3839.6265 11586.0977 10968.2246 11593.7627  372.1390  311.3020  410.1430 
2188.66   160.2866    5.4652 3842.2686 11695.4766 10882.2383 11960.5234  375.3141  291.6715  427.4079 
2188.76   165.7866    5.3902 3865.2966 12013.3643 11056.9512 12641.3545  378.4970  271.9930  444.7150 
2188.86   177.5726    5.3839 3884.2820 12276.8486 11262.6279 13083.6406  385.9020  271.0093  462.7715 
2188.96   193.5531    5.4239 3885.7803 12312.3057 11597.2188 12527.8203  393.2890  270.0280  480.7840 
2189.06   186.2393    5.5806 3877.8804 12393.2168 12017.8105 11997.4590  399.9612  256.3443  487.2789 
2189.16   163.2674    5.8153 3829.4395 12663.5557 12793.4150 11580.4785  406.6170  242.6940  493.7580 
2189.26   154.0000    5.8801 3792.1597 12836.7139 13515.2861 11284.1904  393.8180  229.6650  467.8415 
2189.36   154.0000    5.8300 3803.6597 12593.4180 14000.3770 11505.9609  381.0190  216.6360  441.9250 
2189.46   155.7949    5.6185 3818.7534 12340.6191 14199.1426 11645.7617  363.1688  206.2677  414.8541 
2189.56   158.7985    5.2982 3849.7913 12044.2578 13185.4062 11439.5107  345.2750  195.8740  387.7170 
2189.66   158.5061    5.1371 3869.8962 11802.5234 12334.7139 11292.1426  327.1317  198.5253  369.1207 
2189.76   156.0061    5.0821 3842.3625 11789.5078 12165.0078 11392.7656  308.9440  201.1830  350.4790 
2189.86   151.7094    5.1976 3812.2905 11825.5898 11983.7256 11617.3379  301.1234  197.0114  349.7366 
2189.96   146.2161    5.4273 3771.3406 12066.7949 11754.5059 12359.4307  293.3220  192.8500  348.9960 
2190.06   166.4359    5.5230 3742.5129 12289.3613 11574.6846 13100.5625  287.6541  185.0820  353.1516 
2190.16   203.8901    5.5280 3766.4834 12431.0146 11604.1123 13828.2832  282.0000  177.3330  357.2970 
2190.26   202.5470    5.5001 3791.1646 12552.8574 11775.3330 14174.6191  282.2965  175.5740  355.3940 
2190.36   175.0134    5.4500 3818.6646 12588.9014 12549.7773 12890.0527  282.5930  173.8150  353.4910 
2190.46   156.8205    5.4121 3837.9377 12642.3809 13320.4287 11751.9521  287.9844  179.1040  350.0977 
