~Version information
VERS.                            2.00: CWLS LAS  -  VERSION 2.00
WRAP.                              NO: One line per depth step
~Well information
#MNEM.UNIT                  DATA TYPE  INFORMATION
#===.================================:==================
STRT.M                          6.560: First depth in file
STOP.M                       3292.880: Last depth in file
STEP.M                          0.100: Depth increment
NULL.                       -9999.00 : Null values
DATE.                       : LOG DATE
TIME.                            8:51: LOG TIME
WELL.                             F1: Well name
GRP.                                1: Group name
FLD.                    F: Field name
ISS.      Тех.состояние экспл.колонны: Well surveys
SRVC.                                : Service Company
~Curve information
#MNEM.UNIT                   API CODE   CURVE DESCRIPTION
#===.================================:==================
DEPT.M                               : Depth curve
LMek.                                : 10 Локатор муфт,  -   28.0 см
GKek.MKR/H                           : :11 Гамма-активность, мкр./ч -   67.0 
TM  .IMP                             : :14 Толщиномер, имп/мин -  170.0 см
DFint.KG/M3                          : :15 Интегральный цементомер, имп/мин -
DF1 .KG/M3                           : :16 Селективный цементомер 1, имп/мин 
DF2 .KG/M3                           : :17 Селективный цементомер 2, имп/мин 
AK1 .                                : Casing wave amplitude (High freq.)
AK2 .                                : Casing wave amplitude (Low freq.)
AP  .                                : Rock wave amplitude
#
~Other information
#------------------ REMARKS AREA -----------------------
#=======================================================
# The file is generated by the program GeoTech-EditLog v2000.12
#Number of Curves = 9
~A Log Data Section
# ...
 880.16   465.0562    3.3627 3885.0000  9149.0000  7246.0000 11381.0000  168.8500  231.1720  473.9340 
 880.26   492.5478    3.3377 3939.6265  9045.5039  8092.9292 10024.7861  160.9391  213.2470  443.5437 
 880.36   499.1370    3.2981 3992.0000  8947.0000  8899.0000  8734.0000  153.0330  195.3330  413.1720 
 880.46   455.1236    3.2231 4000.1685  8922.3994  9839.4658  7787.8970  149.9050  178.3438  385.5671 
 880.56   412.3064    3.1539 4008.0000  8899.0000 10734.0000  6888.0000  146.7790  161.3650  357.9790 
 880.66   372.2942    3.0989 4040.6838  8803.1318 10728.8730  6911.5825  156.3659  161.2440  352.6504 
 880.76   554.4852    3.0790 4072.0000  8712.0000 10724.0000  6934.0000  165.9470  161.1230  347.3250 
 880.86  1274.2655    3.1440 3992.8682  7974.2031  9300.6670  6873.0293  180.5495  173.8326  344.6868 
 880.96  2234.9268    3.1447 3917.0000  7272.0000  7946.0000  6815.0000  195.1610  186.5500  342.0470 
 881.06  3776.9268    2.9897 3884.3262  7018.3823  7102.1450  6870.8472  204.7970  199.2165  334.5235 
 881.16  4213.5479    2.9049 3853.0000  6777.0000  6299.0000  6924.0000  214.4330  211.8830  327.0000 
 881.26  1980.2295    2.9899 3937.2371  7268.8647  6487.0356  7926.1738  218.2567  215.6842  320.8316 
 881.36   383.1904    3.0822 4018.0000  7737.0000  6666.0000  8880.0000  222.0780  219.4830  314.6670 
 881.46   325.6729    3.1922 4071.0950  8430.9453  7210.2910  9887.0928  222.0090  212.1713  308.7922 
 881.56   299.6170    3.2598 4122.0000  9091.0000  7728.0000 10845.0000  221.9400  204.8640  302.9210 
 881.66   349.6323    3.2248 4066.8462  9083.8223  8438.5527  9508.9980  217.9348  198.0049  300.4097 
 881.76   365.9979    3.1693 4014.0000  9077.0000  9114.0000  8239.0000  213.9320  191.1500  297.9000 
 881.86   301.0177    3.0643 3995.6211  9030.3750  9765.2080  7853.1938  213.5551  194.0351  293.1154 
 881.96   245.0574    3.0163 3978.0000  8986.0000 10385.0000  7486.0000  213.1780  196.9220  288.3280 
 882.06   211.0574    3.1063 3959.1104  8946.0361 10668.3340  7245.7036  213.5280  205.9220  300.1615 
 882.16   201.7940    3.1905 3941.0000  8908.0000 10938.0000  7017.0000  213.8780  214.9220  311.9950 
 882.26   252.2786    3.2605 3992.0527  8973.0693 10496.3467  7726.6172  219.7378  221.8491  315.6251 
 882.36   299.9860    3.3845 4041.0000  9035.0000 10076.0000  8402.0000  225.5940  228.7720  319.2530 
 882.46   340.9985    3.6396 4020.5789  8886.3701  8643.5195  9002.1553  230.1959  232.1435  332.9077 
 882.56   361.8145    3.8288 4001.0000  8745.0000  7281.0000  9573.0000  234.7950  235.5130  346.5540 
 882.66   333.8059    3.8588 3984.6582  8789.6016  7020.0542 10534.7578  240.7218  234.4147  347.3927 
 882.76   325.4013    3.8201 3969.0000  8832.0000  6772.0000 11449.0000  246.6450  233.3170  348.2310 
 882.86   364.3894    3.6151 3998.6106  8887.8467  7100.9346 11318.8613  251.4430  239.1537  361.6394 
 882.96   375.6239    3.5343 4027.0000  8941.0000  7414.0000 11195.0000  256.2440  244.9940  375.0560 
 883.06   319.6239    3.7543 4052.5264  8988.1367  8267.0771  9879.2627  257.7470  255.7940  380.0585 
 883.16   272.3833    3.9437 4077.0000  9033.0000  9079.0000  8627.0000  259.2500  266.5940  385.0610 
 883.26   246.3912    4.0587 4066.7896  8957.1709  9780.4189  7773.9224  259.9087  277.3973  387.8979 
 883.36   237.6472    4.0786 4057.0000  8885.0000 10448.0000  6962.0000  260.5670  288.1940  390.7330 
 883.46   270.6573    3.8685 4043.2158  8849.6367 10804.7109  6945.5996  267.5531  292.6429  383.3838 
 883.56   308.3247    3.7770 4030.0000  8816.0000 11144.0000  6930.0000  274.5350  297.0890  376.0390 
 883.66   357.3396    3.9721 4055.5342  8986.7168 10421.1436  7506.7471  280.9610  297.4931  368.3722 
 883.76   404.8630    4.1363 4080.0000  9149.0000  9734.0000  8055.0000  287.3830  297.8970  360.7100 
 883.86   448.8495    4.2263 4067.2368  9026.0342  8738.9990  8916.7881  293.2507  298.0984  354.6609 
 883.96   472.6893    4.2052 4055.0000  8909.0000  7792.0000  9737.0000  299.1220  298.3000  348.6080 
 884.06   447.6893    3.9152 4040.7053  8980.2178  7313.9692 10576.7559  298.1220  302.2585  346.1810 
 884.16   425.6057    3.7393 4027.0000  9048.0000  6859.0000 11376.0000  297.1220  306.2170  343.7540 
 884.26   410.6103    3.8393 4059.1633  9118.7051  7116.2041 11428.2607  313.8576  316.5421  337.7527 
 884.36   391.3759    3.8369 4090.0000  9186.0000  7361.0000 11478.0000  330.5830  326.8610  331.7550 
 884.46   361.8669    3.5868 4076.7263  9202.9131  8222.0254 10105.4844  346.4608  336.5544  326.0388 
 884.56   358.9789    3.3778 4064.0000  9219.0000  9041.0000  8800.0000  362.3290  346.2420  320.3260 
 884.66   420.4977    3.2678 4033.3589  9234.8926 10369.3125  7812.0962  363.1602  352.9431  314.7083 
 884.76   475.6936    3.2309 4004.0000  9250.0000 11632.0000  6873.0000  363.9910  359.6400  309.0940 
 884.86   515.6814    3.3709 4031.0579  9310.9707 12332.3945  7041.5659  338.2089  341.1591  306.7762 
 884.96   540.4908    3.4642 4057.0000  9369.0000 12999.0000  7202.0000  312.4110  322.6670  304.4570 
 885.06   528.4908    3.4442 4047.8105  9319.3008 11092.5127  8033.5586  291.9970  321.6115  312.2300 
 885.16   523.5154    3.4007 4039.0000  9272.0000  9278.0000  8825.0000  271.5830  320.5560  320.0030 
 885.26   535.5117    3.3007 4034.9158  9278.6611  8163.6196  9975.2461  267.7958  300.4109  334.6145 
 885.36   532.3064    3.1774 4031.0000  9285.0000  7103.0000 11070.0000  264.0110  280.2780  349.2170 
 885.46   492.2942    2.9973 4013.1316  8894.9756  6697.6006 11115.1016  268.9330  283.6705  363.0812 
 885.56   458.4455    2.8700 3996.0000  8524.0000  6312.0000 11158.0000  273.8520  287.0610  376.9370 
 885.66   439.4397    2.8700 4043.4937  8109.7676  6409.4062 10255.1982  271.9124  273.8790  378.3209 
 885.76   434.7702    2.8861 4089.0000  7716.0000  6502.0000  9397.0000  269.9740  260.7050  379.7040 
 885.86   464.7610    2.9411 4027.2261  7842.5527  7290.5205  8331.8057  267.5598  271.6241  372.6877 
 885.96   492.2872    3.0911 3968.0000  7963.0000  8041.0000  7318.0000  265.1440  282.5500  365.6670 
 886.06   513.7872    3.4711 4005.7791  8496.8779  9503.2725  7006.4858  263.0555  288.9890  358.6670 
 886.16   532.3690    3.7136 4042.0000  9005.0000 10895.0000  6710.0000  260.9670  295.4280  351.6670 
 886.26   543.8654    3.6237 4037.4053  9105.4219 11453.9834  6806.3232  261.0140  291.0877  352.1116 
 886.36   559.7470    3.5702 4033.0000  9201.0000 11986.0000  6898.0000  261.0610  286.7500  352.5560 
 886.46   586.2551    3.6052 4042.1895  9124.1230 10603.7461  7528.9062  255.8664  272.4731  355.5729 
 886.56   599.5917    3.6052 4051.0000  9051.0000  9289.0000  8129.0000  250.6750  258.2050  358.5880 
 886.66   581.0861    3.5201 4030.5728  8993.5820  8001.1880  9482.9453  244.7637  247.1961  365.2325 
 886.76   555.1370    3.4995 4011.0000  8939.0000  6777.0000 10770.0000  238.8560  236.1940  371.8730 
 886.86   511.1505    3.6344 4051.8423  8964.1055  6943.0044 11279.7969  232.6909  236.2885  371.4366 
 886.96   467.2793    3.7797 4091.0000  8988.0000  7101.0000 11765.0000  226.5220  236.3830  371.0000 
 887.06   423.7793    3.9497 4061.3894  8755.3887  7367.9390 10428.7686  226.0220  241.0500  388.7050 
 887.16   413.9460    4.0597 4033.0000  8534.0000  7622.0000  9157.0000  225.5220  245.7170  406.4100 
 887.26   485.4242    4.0248 4009.5156  8625.2002  8437.6758  8430.9873  217.8422  246.1001  403.1860 
 887.36   539.5081    3.9854 3987.0000  8712.0000  9214.0000  7740.0000  210.1670  246.4830  399.9640 
 887.46   551.5117    3.9354 3989.5527  8705.8496 10057.0879  7274.1235  200.6746  230.2691  400.9168 
 887.56   568.7702    3.9117 3992.0000  8700.0000 10859.0000  6831.0000  191.1880  214.0650  401.8690 
 887.66   598.7794    3.9517 3998.1282  8654.8857 10937.4375  6694.1187  182.4828  201.0960  385.4085 
 887.76   623.2158    3.9654 4004.0000  8612.0000 11012.0000  6564.0000  173.7830  188.1350  368.9580 
 887.86   634.2124    3.9154 4020.3369  8670.9209  9899.6689  7335.6123  172.2365  174.9880  371.0019 
