~Version information
VERS.                            2.00: CWLS LAS  -  VERSION 2.00
WRAP.                              NO: One line per depth step
~Well information
#MNEM.UNIT                  DATA TYPE  INFORMATION
#===.================================:==================
STRT.M                          6.560: First depth in file
STOP.M                       3292.880: Last depth in file
STEP.M                          0.100: Depth increment
NULL.                       -9999.00 : Null values
DATE.                       : LOG DATE
TIME.                            8:51: LOG TIME
WELL.                             F1: Well name
GRP.                                1: Group name
FLD.                    F: Field name
ISS.      Тех.состояние экспл.колонны: Well surveys
SRVC.                                : Service Company
~Curve information
#MNEM.UNIT                   API CODE   CURVE DESCRIPTION
#===.================================:==================
DEPT.M                               : Depth curve
LMek.                                : 10 Локатор муфт,  -   28.0 см
GKek.MKR/H                           : :11 Гамма-активность, мкр./ч -   67.0 
TM  .IMP                             : :14 Толщиномер, имп/мин -  170.0 см
DFint.KG/M3                          : :15 Интегральный цементомер, имп/мин -
DF1 .KG/M3                           : :16 Селективный цементомер 1, имп/мин 
DF2 .KG/M3                           : :17 Селективный цементомер 2, имп/мин 
AK1 .                                : Casing wave amplitude (High freq.)
AK2 .                                : Casing wave amplitude (Low freq.)
AP  .                                : Rock wave amplitude
#
~Other information
#------------------ REMARKS AREA -----------------------
#=======================================================
# The file is generated by the program GeoTech-EditLog v2000.12
#Number of Curves = 9
~A Log Data Section
# ...
2837.96   144.0000    7.4876 4035.7131 10446.7354  9231.2090 11697.8965  163.1500  148.0000  208.7130 
2838.06   145.9145    7.6851 4035.2124 10536.2354  8852.7090 12135.3965  167.9894  152.7863  214.6242 
2838.16   153.9243    7.2045 4043.0586 10630.7178  8937.8135 12317.3955  172.8170  157.5610  220.5210 
2838.26   160.0000    6.8376 4057.0244 10728.5986  9360.2969 12312.9014  168.1635  166.2910  227.2550 
2838.36   160.0000    6.8276 4059.8438 10699.6816  9750.2451 11713.1465  163.5100  175.0210  233.9890 
2838.46   159.2894    6.8318 4054.3503 10578.3301 10114.7998 10681.4082  153.7679  184.1548  233.5345 
2838.56   156.2857    6.8819 4017.2808 10636.3848 10330.0586 10189.7285  144.0020  193.3110  233.0790 
2838.66   262.6496    6.8506 3956.7070 10825.6152 10435.6875 10094.1123  135.2568  184.7841  226.5395 
2838.76   716.0952    6.5610 3905.1758 10765.2305 10497.9414  9916.8350  126.5330  176.2780  220.0160 
2838.86  1266.1367    6.2610 3860.1208 10523.4355 10528.9795  9679.5459  146.6746  171.8030  219.6651 
2838.96  2118.0952    5.9314 3793.0818 10126.9062 10305.2891  9531.4443  166.7670  167.3390  219.3150 
2839.06  2768.0000    5.8080 3709.4797  9616.4062  9895.7891  9447.4443  191.1297  163.3366  226.8161 
2839.16  2768.0000    6.3437 3707.3853  9152.7139  9354.9121  9249.6592  215.4330  159.3440  234.2990 
2839.26  2455.9536    6.8791 3765.2439  8724.2383  8719.6885  8969.5020  216.5445  164.4235  241.2830 
2839.36  1150.4536    7.4191 3821.5630  8911.0879  8630.7031  9236.7402  217.6560  169.5030  248.2670 
2839.46   154.5128    7.7589 3876.4956  9546.3115  8940.8242  9902.4258  192.9252  157.4667  249.2573 
2839.56   144.0000    7.4586 3909.7559  9915.1250  8997.0518 10598.9668  168.1340  145.4010  250.2500 
2839.66   139.4701    7.2228 3926.7766 10088.3359  8867.3936 11316.8428  140.9869  132.4322  256.0516 
2839.76   153.9524    7.1929 3955.5203 10149.7139  8937.4326 11425.2744  113.9060  119.4950  261.8390 
2839.86   162.9658    7.2621 3993.0659 10130.1904  9152.6943 11091.8682  109.5422  105.8308  270.5661 
2839.96   154.4762    7.6467 4016.4602 10262.4658  9774.2266 10807.1992  105.1890   92.2000  279.2720 
2840.06   148.4786    7.9328 4029.4761 10505.4658 10693.2266 10556.6992  113.2098  101.4948  291.7537 
2840.16   150.4811    7.9028 4052.2683 10558.2275 11049.7471 10177.5381  121.2110  110.7670  304.2050 
2840.26   149.1317    7.7904 4082.1951 10472.3320 10995.8135  9705.6152  129.7825  118.7455  306.2150 
2840.36   137.1317    7.4154 4072.0452 10626.4102 11267.8750  9633.0371  138.3540  126.7240  308.2250 
2840.46   128.9475    7.1596 4032.0940 10955.0088 11776.7529  9852.2686  143.8423  135.0298  312.0453 
2840.56   132.9524    7.2848 4008.1135 10981.7217 11753.5527 10239.0078  149.3440  143.3560  315.8750 
2840.66   136.0000    7.3991 3996.0989 10787.4844 11341.0498 10747.6279  146.9746  135.2601  314.2545 
2840.76   136.0000    7.4790 4002.1904 10613.3994 10600.5312 11051.2861  144.6110  127.1840  312.6380 
2840.86   136.0000    7.2612 4021.7144 10453.2041  9618.8340 11207.4766  146.0352  116.5986  322.8885 
2840.96   136.0000    6.0976 4013.3577 10600.1670  9296.5977 11540.3477  147.4560  106.0390  333.1140 
2841.06   135.0427    5.1310 3984.3223 10970.6670  9451.5977 12002.8477  179.4921   96.8193  331.2788 
2841.16   131.0379    4.8006 3969.4097 11241.0146  9813.0332 12366.4180  211.4500   87.6220  329.4480 
2841.26   128.9561    4.6420 3964.9207 11437.7744 10323.9082 12657.0625  241.7675   86.4235  348.4130 
2841.36   132.9561    5.0270 3966.4431 11536.6260 10875.0986 12456.1865  272.0850   85.2250  367.3780 
2841.46   135.0525    5.4100 3972.4358 11563.5938 11453.3916 11897.3701  270.0620   88.2518  361.1072 
2841.56   131.0476    5.7905 3977.8694 11421.0518 11816.6445 11265.4209  268.0340   91.2860  354.8210 
2841.66   129.7949    6.2463 3982.8755 11154.7266 12021.8945 10581.0869  233.1219   93.7080  354.9161 
2841.76   137.2857    6.9405 4006.8071 10854.0371 11920.4834  9956.0078  198.2950   96.1240  355.0110 
2841.86   142.1624    7.3671 4044.8535 10527.1377 11596.0879  9371.2939  157.3060   92.7048  333.0387 
2841.96   138.6667    6.9376 4054.6875 10275.5459 10898.4258  9359.8203  116.4170   89.2940  311.1200 
2842.06   136.0000    6.5490 4043.6741 10077.5459  9926.9258  9764.3203  110.9408   83.3232  308.5569 
2842.16   136.0000    6.2937 4032.6682 10119.0107  9469.2529 10352.8604  105.4780   77.3670  306.0000 
2842.26   136.0000    6.1120 4021.6951 10334.7471  9386.8535 11073.9795  105.0415   96.6475  305.1175 
2842.36   136.0000    6.1620 4030.1990 10520.3369  9494.6631 11574.3301  104.6050  115.9280  304.2350 
2842.46   136.0000    6.2154 4053.1709 10683.1377  9740.8623 11911.4180  106.8393  141.6316  305.6143 
2842.56   136.0000    6.2805 4058.6960 10810.7432  9997.5020 11914.5205  109.0790  167.3980  306.9970 
2842.66   136.5983    6.3946 4051.1868 10912.3672 10261.3232 11673.2256  116.5351  179.2294  297.8774 
2842.76   139.0952    6.6643 4030.4968 10875.7109 10526.2383 11184.8135  123.9730  191.0320  288.7800 
2842.86   141.3590    6.8114 3999.9597 10738.5430 10793.0635 10514.9961  128.9676  176.4818  273.1875 
2842.96   142.8571    6.5667 3967.7754 10740.5391 11269.1709 10045.5557  133.9500  161.9670  257.6330 
2843.06   143.7607    6.3070 3934.2344 10843.5391 11899.1709  9719.5557  141.5287  169.0641  242.5982 
2843.16   142.7595    6.0016 3931.8000 10828.2568 12031.0186  9521.8096  149.0890  176.1440  227.6000 
2843.26   142.2390    5.7341 3952.2500 10726.8799 11799.8008  9417.9365  145.9990  197.1045  239.3625 
2843.36   143.2390    5.5841 3964.1562 10871.5166 11400.4688  9984.2969  142.9090  218.0650  251.1250 
2843.46   144.0000    5.4866 3969.6497 11195.1211 10880.1055 11037.5088  155.9121  212.2856  267.0675 
2843.56   144.0000    5.5567 3993.2332 11573.0518 10741.6045 11949.1865  168.9470  206.4920  283.0490 
2843.66   144.7179    5.5789 4030.2783 11990.0596 10882.7764 12755.6699  179.3192  178.2706  305.3782 
2843.76   147.7143    5.4490 4022.4712 12211.8789 11086.3994 13132.1982  189.6660  150.1180  327.6530 
2843.86   149.2821    5.3907 3981.4211 12292.9775 11336.2041 13198.2783  205.5273  119.2824  318.1464 
2843.96   146.2857    5.5605 3971.7473 12270.9297 11591.2930 13004.8965  221.3500   88.5220  308.6630 
2844.06   143.5214    5.7163 3985.2637 12173.9297 11851.2930 12622.3965  224.3452   95.3999  301.8797 
2844.16   141.5189    5.8265 3984.9561 12023.6152 11941.0332 12125.0332  227.3330  102.2610  295.1130 
2844.26   141.4341    5.8526 3974.4817 11834.8457 11906.5752 11545.2422  237.2750  110.4650  282.5270 
2844.36   147.4341    5.6126 3964.2612 11667.6084 11999.3594 11032.9043  247.2170  118.6690  269.9410 
2844.46   149.1575    5.4039 3954.2734 11516.7920 12184.6328 10571.9678  268.6883  141.8507  284.3654 
2844.56   137.1429    5.2938 3966.6423 11400.3330 12320.0078 10477.9922  290.2120  165.0890  298.8250 
2844.66   130.8718    5.0987 3995.6777 11309.2227 12418.6279 10652.7061  320.1780  174.3803  313.3507 
2844.76   142.8571    4.6343 3980.1672 11264.3447 12081.2051 11011.6152  350.0710  183.6490  327.8410 
2844.86   150.0855    4.2752 3931.6082 11252.8301 11425.9062 11505.7178  379.4629  190.8388  349.9650 
2844.96   142.0952    4.2552 3887.4712 11299.7354 10755.6143 12028.9033  408.7830  198.0110  372.0350 
2845.06   137.5556    4.2735 3846.4211 11389.2354 10071.6143 12575.4033  429.6505  188.8108  378.6641 
2845.16   144.0635    4.4137 3862.3853 11441.7578 10015.0811 12639.6084  450.4670  179.6330  385.2770 
2845.26   148.4024    4.5343 3920.2439 11467.2275 10415.5908 12352.4590  460.8925  178.9720  391.7890 
2845.36   145.9024    4.5943 3959.3467 11531.5352 10943.8281 12070.9746  471.3180  178.3110  398.3010 
2845.46   143.0525    4.6305 3984.3162 11623.9219 11563.0713 11794.8115  487.2970  185.3254  413.3481 
2845.56   139.0476    4.5905 4007.0513 11652.2930 12012.8057 11339.1396  503.3150  192.3570  428.4320 
2845.66   136.0000    4.5576 4028.0769 11633.7705 12337.7021 10752.9238  513.2170  200.3593  446.4475 
