~Version information
VERS.                            2.00: CWLS LAS  -  VERSION 2.00
WRAP.                              NO: One line per depth step
~Well information
#MNEM.UNIT                  DATA TYPE  INFORMATION
#===.================================:==================
STRT.M                          6.560: First depth in file
STOP.M                       3292.880: Last depth in file
STEP.M                          0.100: Depth increment
NULL.                       -9999.00 : Null values
DATE.                       : LOG DATE
TIME.                            8:51: LOG TIME
WELL.                             F1: Well name
GRP.                                1: Group name
FLD.                    F: Field name
ISS.      Тех.состояние экспл.колонны: Well surveys
SRVC.                                : Service Company
~Curve information
#MNEM.UNIT                   API CODE   CURVE DESCRIPTION
#===.================================:==================
DEPT.M                               : Depth curve
LMek.                                : 10 Локатор муфт,  -   28.0 см
GKek.MKR/H                           : :11 Гамма-активность, мкр./ч -   67.0 
TM  .IMP                             : :14 Толщиномер, имп/мин -  170.0 см
DFint.KG/M3                          : :15 Интегральный цементомер, имп/мин -
DF1 .KG/M3                           : :16 Селективный цементомер 1, имп/мин 
DF2 .KG/M3                           : :17 Селективный цементомер 2, имп/мин 
AK1 .                                : Casing wave amplitude (High freq.)
AK2 .                                : Casing wave amplitude (Low freq.)
AP  .                                : Rock wave amplitude
#
~Other information
#------------------ REMARKS AREA -----------------------
#=======================================================
# The file is generated by the program GeoTech-EditLog v2000.12
#Number of Curves = 9
~A Log Data Section
# ...
1316.96   136.0000    4.7898 3924.0000 12994.0000 12880.0000 11001.0000  263.2110  197.1440  564.6810 
1317.06   136.0000    4.6697 3936.2253 12834.2773 14304.2305 10268.7354  256.0636  186.8072  612.3776 
1317.16   137.0104    4.5977 3949.0000 12669.0000 15778.0000  9511.0000  248.9250  176.4830  660.0160 
1317.26   141.0079    4.6676 3977.8516 12576.6631 15984.7754 10168.6543  239.5155  178.4665  668.1745 
1317.36   145.2576    4.6056 4008.0000 12481.0000 16199.0000 10850.0000  230.1060  180.4500  676.3330 
1317.46   150.2576    4.1506 3943.0012 12713.6592 14786.3555 11022.7764  218.8934  174.3817  678.9984 
1317.56   153.7473    3.8403 3875.0000 12955.0000 13321.0000 11202.0000  207.6670  168.3060  681.6670 
1317.66   152.7473    3.9603 3863.7527 13038.9873 12422.1895 12849.8184  195.6005  162.9220  652.7295 
1317.76   153.6419    4.1599 3852.0000 13126.0000 11491.0000 14557.0000  183.5340  157.5380  623.7920 
1317.86   160.1379    4.5946 3838.8047 13041.0840 11067.4033 15596.6045  175.5975  156.6995  582.3960 
1317.96   163.3651    4.9313 3825.0000 12953.0000 10628.0000 16675.0000  167.6610  155.8610  541.0000 
1318.06   156.8571    4.9764 3849.4504 12858.6406 10626.0342 16336.3887  159.1613  165.2347  505.5814 
1318.16   150.8633    5.0529 3875.0000 12761.0000 10624.0000 15986.0000  150.6720  174.5970  470.2060 
1318.26   146.3661    5.2228 3899.4504 12820.9209 11748.7402 13836.2227  142.8305  181.9235  471.8915 
1318.36   142.1197    5.3362 3925.0000 12883.0000 12914.0000 11609.0000  134.9890  189.2500  473.5770 
1318.46   138.6197    5.2812 3957.2551 13035.6523 14804.2344 10852.1211  131.7550  194.1500  483.7373 
1318.56   137.0110    5.2817 3991.0000 13194.0000 16765.0000 10067.0000  128.5170  199.0560  493.9100 
1318.66   141.0110    5.4467 3985.6208 13250.9736 17060.6738 10477.6045  134.7895  196.1960  498.6150 
1318.76   142.9896    5.7115 3980.0000 13310.0000 17367.0000 10903.0000  141.0620  193.3360  503.3200 
1318.86   138.9921    6.2711 3958.0078 13261.8975 15168.5166 11113.0811  142.2225  188.3345  497.9125 
1318.96   138.6410    6.6548 3935.0000 13212.0000 12888.0000 11331.0000  143.3830  183.3330  492.5050 
1319.06   149.1538    6.5146 3919.8406 13059.6494 11858.8975 12608.7773  148.8919  175.8684  487.4224 
1319.16   157.1263    6.3456 3904.0000 12902.0000 10794.0000 13931.0000  154.3940  168.4130  482.3460 
1319.26   157.6260    6.0907 3899.5989 12819.4863 11019.9307 14571.4639  154.3805  185.2565  491.1730 
1319.36   161.2698    5.9252 3895.0000 12734.0000 11254.0000 15235.0000  154.3670  202.1000  500.0000 
1319.46   174.2698    6.0252 3903.7969 12664.7910 11280.9961 14814.3477  171.3232  224.0866  524.8923 
1319.56   182.9890    5.9976 3913.0000 12593.0000 11309.0000 14378.0000  188.3000  246.1000  549.8150 
1319.66   178.9890    5.5926 3937.9395 12855.2754 11992.6855 13554.8271  199.2100  255.7825  573.3070 
1319.76   177.2630    5.3595 3964.0000 13127.0000 12701.0000 12702.0000  210.1200  265.4650  596.7990 
1319.86   182.2599    5.6343 4008.9617 13070.5527 13847.6084 12203.3037  222.9880  251.3990  600.1190 
1319.96   181.4725    5.8652 4056.0000 13012.0000 15037.0000 11686.0000  235.8560  237.3330  603.4390 
1320.06   163.4505    5.9653 3998.2966 13026.2520 15417.3848 11614.2480  233.0973  221.6965  570.9877 
1320.16   150.1263    6.0375 3938.0000 13041.0000 15811.0000 11540.0000  230.3420  206.0790  538.5760 
1320.26   150.6260    6.0275 3939.9561 13084.7129 14322.8057 11750.2139  223.8710  193.4645  489.7880 
1320.36   152.6349    5.9798 3942.0000 13130.0000 12781.0000 11968.0000  217.4000  180.8500  441.0000 
1320.46   159.1349    5.8198 3962.0371 13167.7949 12043.7549 13523.9707  203.7888  178.8512  407.1871 
1320.56   162.7363    5.7025 3983.0000 13207.0000 11279.0000 15138.0000  190.1610  176.8500  373.3330 
1320.66   157.7363    5.7125 3961.4834 13316.5273 11327.1328 15720.9990  180.7140  180.9955  364.4820 
1320.76   152.6107    5.7402 3939.0000 13430.0000 11377.0000 16325.0000  171.2670  185.1410  355.6310 
1320.86   147.1141    5.8202 3874.0012 13358.8281 11579.2275 15986.8096  166.5945  197.6815  359.7610 
1320.96   144.1319    5.9001 3806.0000 13285.0000 11789.0000 15636.0000  161.9220  210.2220  363.8910 
1321.06   148.6374    5.9802 3815.7803 13356.7520 12631.3506 14227.9873  167.4544  214.3515  393.0743 
1321.16   160.0830    6.0122 3826.0000 13431.0000 13503.0000 12771.0000  172.9800  218.4760  422.2220 
1321.26   192.0634    5.9023 3861.2087 13371.5703 14025.0957 12494.9717  183.0430  225.1020  459.9740 
1321.36   210.9695    5.7999 3898.0000 13310.0000 14566.0000 12209.0000  193.1060  231.7280  497.7260 
1321.46   190.9695    5.7199 3904.8420 13482.2861 15402.3955 12402.3916  200.6344  237.4020  528.4033 
1321.56   173.9780    5.6448 3912.0000 13661.0000 16270.0000 12603.0000  208.1720  243.0830  559.1180 
1321.66   165.9780    5.5848 3901.7307 13524.4590 14955.6738 12361.8438  205.7410  249.2735  579.7939 
1321.76   156.9689    5.5867 3891.0000 13383.0000 13594.0000 12112.0000  203.3100  255.4640  600.4700 
1321.86   144.9762    5.7716 3903.2178 13316.7363 12957.3770 13057.8535  196.6550  255.1405  623.1635 
1321.96   139.7729    6.0081 3916.0000 13248.0000 12297.0000 14039.0000  190.0000  254.8170  645.8570 
1322.06   154.7912    6.3986 3939.4724 13148.2354 12072.4062 14896.5859  170.0804  254.2316  671.0128 
1322.16   162.5900    6.6003 3964.0000 13045.0000 11840.0000 15784.0000  150.1850  253.6470  696.1380 
1322.26   149.0982    6.2455 3962.0439 12903.0566 11539.9053 14750.1230  166.2980  252.9515  691.0620 
1322.36   197.8571    5.9385 3960.0000 12756.0000 11229.0000 13679.0000  182.4110  252.2560  685.9860 
1322.46   431.8571    5.7735 3956.5791 12286.7549 11341.4033 12397.9014  199.5091  250.6930  636.5232 
1322.56   945.4286    5.5059 3953.0000 11800.0000 11458.0000 11069.0000  216.6280  249.1280  587.0000 
1322.66  2284.4285    4.9359 3807.7637 10422.8066 11234.0342  9275.3086  246.5355  239.4190  537.2800 
1322.76  3524.3320    4.4835 3656.0000  8996.0000 11002.0000  7417.0000  276.4430  229.7100  487.5600 
1322.86  4471.2539    4.3785 3650.1355  8782.4834 11063.3555  7041.9961  257.5910  212.9385  444.2410 
1322.96  4554.7056    4.3365 3644.0000  8561.0000 11127.0000  6653.0000  238.7390  196.1670  400.9220 
1323.06  2065.6704    4.4816 3769.6758  9547.8379 11171.2305  8088.5342  216.7176  182.0314  389.1688 
1323.16   211.6626    4.5761 3901.0000 10569.0000 11217.0000  9574.0000  194.7230  167.9130  377.4300 
1323.26   226.1537    4.5211 3885.8406 11908.8662 11133.5039 12514.5342  173.2895  152.4675  367.3815 
1323.36   229.3284    4.5316 3870.0000 13297.0000 11047.0000 15561.0000  151.8560  137.0220  357.3330 
1323.46   198.8284    4.7366 3922.7810 13323.5059 11277.6963 15719.0518  146.4173  128.4442  354.9594 
1323.56   172.4615    4.8913 3978.0000 13351.0000 11517.0000 15883.0000  140.9720  119.8560  352.5830 
1323.66   158.4615    4.8963 4000.9834 13258.1719 11526.8232 15408.0547  142.0990  116.8160  356.7100 
1323.76   147.4948    4.9316 4025.0000 13162.0000 11537.0000 14916.0000  143.2260  113.7760  360.8370 
1323.86   145.4960    5.0565 4053.8340 13182.6152 12076.4355 14166.4834  140.8770  118.8270  374.9100 
1323.96   143.6227    5.1651 4084.0000 13204.0000 12636.0000 13389.0000  138.5280  123.8780  388.9830 
1324.06   142.1209    5.2252 4042.9231 13116.0303 13819.4189 12120.5596  141.2411  127.7133  408.6485 
1324.16   146.6833    5.2511 4000.0000 13025.0000 15044.0000 10808.0000  143.9510  131.5440  428.2900 
1324.26   169.1696    5.1761 3941.8076 12898.2822 15747.8223 10378.7324  143.0700  130.4165  448.8140 
1324.36   193.7973    5.1225 3881.0000 12767.0000 16477.0000  9934.0000  142.1890  129.2890  469.3380 
1324.46   224.7973    5.1325 3902.9922 12580.9707 14708.9854 10696.7695  143.0690  141.9508  479.3394 
1324.56   263.1648    5.2601 3926.0000 12388.0000 12875.0000 11488.0000  143.9500  154.6280  489.3530 
1324.66   323.1648    5.7351 3942.1375 12288.2959 11505.6650 12526.2979  144.7435  167.8130  498.8270 
