~Version information
VERS.                            2.00: CWLS LAS  -  VERSION 2.00
WRAP.                              NO: One line per depth step
~Well information
#MNEM.UNIT                  DATA TYPE  INFORMATION
#===.================================:==================
STRT.M                          6.560: First depth in file
STOP.M                       3292.880: Last depth in file
STEP.M                          0.100: Depth increment
NULL.                       -9999.00 : Null values
DATE.                       : LOG DATE
TIME.                            8:51: LOG TIME
WELL.                             F1: Well name
GRP.                                1: Group name
FLD.                    F: Field name
ISS.      Тех.состояние экспл.колонны: Well surveys
SRVC.                                : Service Company
~Curve information
#MNEM.UNIT                   API CODE   CURVE DESCRIPTION
#===.================================:==================
DEPT.M                               : Depth curve
LMek.                                : 10 Локатор муфт,  -   28.0 см
GKek.MKR/H                           : :11 Гамма-активность, мкр./ч -   67.0 
TM  .IMP                             : :14 Толщиномер, имп/мин -  170.0 см
DFint.KG/M3                          : :15 Интегральный цементомер, имп/мин -
DF1 .KG/M3                           : :16 Селективный цементомер 1, имп/мин 
DF2 .KG/M3                           : :17 Селективный цементомер 2, имп/мин 
AK1 .                                : Casing wave amplitude (High freq.)
AK2 .                                : Casing wave amplitude (Low freq.)
AP  .                                : Rock wave amplitude
#
~Other information
#------------------ REMARKS AREA -----------------------
#=======================================================
# The file is generated by the program GeoTech-EditLog v2000.12
#Number of Curves = 9
~A Log Data Section
# ...
3056.36   172.1488    6.7745 3924.4175  9870.3594 10117.4277  9749.8545  281.5900   79.7780  296.3630 
3056.46   164.6203    6.8129 3964.8682  9957.2529 10040.0225 10062.4727  264.1044  100.4827  302.6154 
3056.56   160.6154    6.9231 3996.6265  9997.6328  9943.5303 10280.9912  246.5760  121.2380  308.8830 
3056.66   165.0842    7.2451 3989.1172  9835.9355  9765.3125 10089.2578  227.5483  146.8167  313.9577 
3056.76   171.0769    7.6046 3985.0146  9729.7266  9674.2139  9984.6748  208.5670  172.3330  319.0200 
3056.86   173.6947    7.6769 3996.0281  9861.3867  9957.5596 10254.5039  197.3168  199.3159  320.3011 
3056.96   175.6923    7.6969 3994.3772  9985.9355 10197.2354 10436.5654  186.0940  226.2330  321.5790 
3057.06   192.5238    7.2382 3936.3064 10081.4355 10251.7354 10242.5654  183.5909  208.4283  321.8183 
3057.16   212.0476    6.6925 3887.1462 10166.8975 10249.0859 10129.1885  181.0940  190.6670  322.0570 
3057.26   198.4963    6.7750 3877.1707 10208.8457  9999.8896 10363.9014  168.6155  173.0240  315.9445 
3057.36   178.9963    6.9700 3872.2966 10205.1113  9777.6328 10563.3672  156.1370  155.3810  309.8320 
3057.46   209.7973    7.0972 3890.2747 10003.8574  9674.7578 10607.8135  144.5572  129.5136  303.4373 
3057.56   249.8462    7.2123 3915.7144  9851.0938  9597.2988 10544.6240  132.9490  103.5830  297.0270 
3057.66   214.0549    7.1283 3974.2856  9910.1660  9630.8398 10015.4785  115.8156  101.3137  290.6888 
3057.76   164.6154    7.0085 4024.2893  9957.8115  9711.5898  9546.9482   98.7240   99.0500  284.3660 
3057.86   180.3028    7.1764 4036.8047  9956.8105  9996.9375  9333.6885   91.0416   95.1007  293.3054 
3057.96   207.7692    7.3962 4040.4065  9932.1484 10187.5283  9219.6895   83.3780   91.1610  302.2230 
3058.06   186.1551    7.3834 4004.3625  9805.1484  9972.0283  9532.1895   79.3621   94.9992  316.8113 
3058.16   155.6178    7.3283 3971.2000  9713.1885  9782.2393  9784.3076   75.3560   98.8280  331.3640 
3058.26   159.0402    7.4046 3950.7500  9772.6152  9703.8350  9775.3184  108.2685   95.1770  349.0495 
3058.36   168.5402    7.5046 3932.5349  9800.8799  9608.2227  9748.8203  141.1810   91.5260  366.7350 
3058.46   176.7595    7.6045 3924.5447  9694.0107  9439.4287  9646.9453  146.8441  118.6149  376.4666 
3058.56   184.7692    7.7046 3913.2380  9612.9229  9296.0771  9582.6152  152.5210  145.7700  386.2220 
3058.66   218.2002    7.5082 3887.2063  9644.4619  9264.5381  9681.7363  183.6565  176.2191  391.7762 
3058.76   256.1538    7.2585 3866.0000  9659.7520  9242.2910  9748.6494  214.7160  206.5940  397.3170 
3058.86   245.8999    7.3132 3866.0000  9605.1855  9259.8115  9677.5625  220.5121  236.8229  391.5004 
3058.96   226.9231    7.4231 3864.9011  9560.2490  9272.9668  9616.4316  226.2940  266.9780  385.6980 
3059.06   190.1050    7.4485 3858.8938  9556.2490  9267.4668  9597.4316  260.6724  262.0995  383.3281 
3059.16   150.0562    7.4585 3862.5269  9572.1797  9308.3164  9542.3252  294.9670  257.2330  380.9640 
3059.26   178.2768    7.2357 3908.4146  9674.0547  9549.0225  9331.5820  281.7920  230.8840  373.0130 
3059.36   218.7768    6.9707 3946.4578  9768.3760  9797.2734  9186.5127  268.6170  204.5350  365.0620 
3059.46   194.1600    7.0610 3948.9548  9828.8018 10074.9336  9327.3408  247.2586  175.3866  362.6090 
3059.56   157.6154    7.2162 3952.5569  9860.9824 10220.3330  9444.9141  225.8480  146.1670  360.1500 
3059.66   186.7424    7.1383 3961.0671  9770.3721  9790.8096  9460.4336  195.7693  117.7198  354.5246 
3059.76   227.6923    7.0185 3961.6814  9688.3506  9346.6328  9538.0596  165.7640   89.3420  348.9130 
3059.86   214.9341    7.2839 3927.1392  9642.2939  8833.5068  9884.4824  151.7484   80.6659  348.9005 
3059.96   192.4615    7.6185 3906.9670  9603.6855  8507.7705 10176.8320  137.7670   72.0110  348.8880 
3060.06   178.8315    7.2463 3950.5203  9596.6855  8985.7705 10239.8320  128.9227   82.3126  350.2226 
3060.16   166.8168    6.7457 3981.6438  9624.5645  9461.5303 10248.5039  120.1000   92.5890  351.5540 
3060.26   152.7280    6.4119 3958.2012  9802.8457  9926.4619 10022.7803  146.7430  105.8405  352.3475 
3060.36   138.2280    6.1069 3939.2747  9939.4443 10300.7695  9789.6406  173.3860  119.0920  353.1410 
3060.46   163.8828    6.2079 3940.7729  9894.0000 10278.2969  9527.4619  213.6718  122.9003  352.6017 
3060.56   196.9231    6.3831 3947.0366  9832.1797 10223.8037  9281.9404  254.0560  126.7180  352.0610 
3060.66   180.8156    6.4481 3974.5703  9700.0186 10031.0684  9111.2324  295.1086  116.6883  353.2920 
3060.76   155.8462    6.4931 3983.1721  9603.3418  9899.8203  8989.7354  336.0610  106.6830  354.5200 
3060.86   170.6422    6.6737 3907.5801  9658.4092 10031.9814  9078.8438  309.3675   98.6097  356.2551 
3060.96   192.6154    6.8785 3851.6777  9724.9736 10086.6963  9253.1660  282.7390   90.5560  357.9860 
3061.06   208.2869    7.0541 3882.7156  9841.9736  9808.1963  9797.1660  234.9332  109.5096  352.6125 
3061.16   222.8046    7.2243 3906.2390  9901.7432  9470.9658 10215.7773  187.2440  128.4170  347.2520 
3061.26   184.3756    7.1019 3896.7622  9714.4727  8881.1865 10092.4287  147.4030  131.2080  339.3565 
3061.36   136.3756    6.9269 3899.8059  9560.8721  8480.6328 10005.6328  107.5620  133.9990  331.4610 
3061.46   175.8938    6.9972 3958.7339  9554.8789  8903.6152 10078.0439  107.4491  133.8482  323.3180 
3061.56   231.4615    7.1123 3998.7583  9498.7607  9168.4619 10032.5469  107.3360  133.6970  315.1550 
3061.66   930.6105    6.9309 3953.7034  9225.9277  8744.9453  9476.3691  114.8857  115.7681  312.5588 
3061.76  1744.6154    6.6962 3871.0293  8905.3418  8405.5723  8783.6240  122.4170   97.8830  309.9690 
3061.86  2814.3992    6.1431 3619.7229  8374.6943  8424.5957  7493.0503  139.7632   94.1034  308.6494 
3061.96  3927.5386    5.5338 3440.1831  7930.0693  8477.9365  6570.4487  157.0670   90.3330  307.3330 
3062.06  2416.5374    5.4485 3577.8511  7850.5693  8679.9365  7222.4487  171.2092  117.3354  307.5252 
3062.16   428.6129    5.4585 3703.9951  7900.1367  8926.6406  7843.3848  185.3170  144.2720  307.7170 
3062.26   145.7732    5.4558 3779.3110  8506.3955  9365.6045  8328.7910  199.4440  172.3675  308.9865 
3062.36   166.7732    5.4508 3839.9011  9089.3164  9751.4873  8805.7012  213.5710  200.4630  310.2560 
3062.46   164.9304    5.4204 3833.9084  9563.7363  9902.8018  9239.6699  213.5490  219.7699  303.3615 
3062.56   158.9231    5.3854 3842.3699  9961.2822  9991.9658  9656.3672  213.5270  239.1240  296.4500 
3062.66   158.8474    5.2953 3915.4590 10021.3555  9810.7451  9993.7793  207.9612  223.9280  287.8160 
3062.76   159.8462    5.1954 3972.3442 10050.2568  9669.5469 10242.8379  202.4090  208.7690  279.2030 
3062.86   149.4078    5.3113 3957.8267  9945.1279  9699.0830 10114.1807  194.1084  183.0616  273.9376 
3062.96   136.9231    5.4662 3944.8096  9871.7383  9712.0137 10045.8711  185.8280  157.4170  268.6850 
3063.06   135.4237    5.6637 3938.3015  9934.2383  9653.5137 10236.8711  174.0692  143.2022  272.5232 
3063.16   135.9243    5.8690 3933.2781  9978.6064  9653.1025 10272.8799  162.3390  129.0220  276.3520 
3063.26   139.3854    5.8323 3934.7744  9944.6484  9903.2969  9640.1543  156.6325  121.4030  276.5105 
3063.36   143.3854    5.7523 3932.9780  9892.6494 10160.5898  9050.1621  150.9260  113.7840  276.6690 
3063.46   139.7753    5.6428 3916.4980  9763.3076 10445.2422  8652.6484  146.3716  114.0307  273.1892 
3063.56   134.7692    5.5277 3909.9597  9647.0938 10604.6064  8432.2305  141.8060  114.2780  269.7010 
3063.66   145.0159    5.3405 3948.0061  9589.0234 10219.1367  8981.9014  163.3913  143.0521  277.4625 
3063.76   158.0000    5.1408 3976.9016  9547.2607  9841.0000  9484.5508  184.9240  171.7560  285.2050 
3063.86   148.1367    4.9321 3965.4299  9575.2734  9489.5713  9790.9893  180.6428  203.4722  305.5643 
3063.96   134.1538    4.7223 3953.9866  9603.2178  9139.0000 10096.6816  176.3720  235.1110  325.8740 
3064.06   133.6947    5.1942 3954.0671  9538.6719  9218.0723  9903.2373  177.5960  243.1513  347.2771 
