~Version information
VERS.                            2.00: CWLS LAS  -  VERSION 2.00
WRAP.                              NO: One line per depth step
~Well information
#MNEM.UNIT                  DATA TYPE  INFORMATION
#===.================================:==================
STRT.M                          6.560: First depth in file
STOP.M                       3292.880: Last depth in file
STEP.M                          0.100: Depth increment
NULL.                       -9999.00 : Null values
DATE.                       : LOG DATE
TIME.                            8:51: LOG TIME
WELL.                             F1: Well name
GRP.                                1: Group name
FLD.                    F: Field name
ISS.      Тех.состояние экспл.колонны: Well surveys
SRVC.                                : Service Company
~Curve information
#MNEM.UNIT                   API CODE   CURVE DESCRIPTION
#===.================================:==================
DEPT.M                               : Depth curve
LMek.                                : 10 Локатор муфт,  -   28.0 см
GKek.MKR/H                           : :11 Гамма-активность, мкр./ч -   67.0 
TM  .IMP                             : :14 Толщиномер, имп/мин -  170.0 см
DFint.KG/M3                          : :15 Интегральный цементомер, имп/мин -
DF1 .KG/M3                           : :16 Селективный цементомер 1, имп/мин 
DF2 .KG/M3                           : :17 Селективный цементомер 2, имп/мин 
AK1 .                                : Casing wave amplitude (High freq.)
AK2 .                                : Casing wave amplitude (Low freq.)
AP  .                                : Rock wave amplitude
#
~Other information
#------------------ REMARKS AREA -----------------------
#=======================================================
# The file is generated by the program GeoTech-EditLog v2000.12
#Number of Curves = 9
~A Log Data Section
# ...
1964.36   515.7218    6.0365 3979.6572 11905.5938 14772.7578  9103.6699  447.0000  237.3330  342.1630 
1964.46   517.9524    6.1774 3991.1282 11644.8701 13646.2383  9363.3799  449.5180  242.1249  339.5529 
1964.56   478.9524    6.1524 3996.6282 11691.8701 12671.2383 10569.8799  452.0330  246.9110  336.9460 
1964.66   455.4094    6.1347 4001.1025 11728.1602 11626.9961 11774.0215  466.5570  250.0830  335.7020 
1964.76   565.3423    6.1796 4001.6025 11724.1631 10322.2930 12969.2920  481.0810  253.2550  334.4580 
1964.86   676.3077    6.2144 3992.4673 11672.7695  9154.7031 14060.2139  481.2240  258.2470  341.7025 
1964.96   796.4542    6.1593 3945.9390 11441.4873  8505.9121 14756.5635  481.3670  263.2390  348.9470 
1965.06   895.6972    6.1199 3908.4871 11293.2109  8212.2793 15076.2822  466.2623  263.8714  370.5587 
1965.16   815.6972    6.2149 3905.9871 11456.1113  9251.6445 13982.4492  451.1760  264.5030  392.1440 
1965.26   738.2435    6.2829 3902.5649 11596.5879 10409.0059 12723.7422  458.4965  313.6430  417.8040 
1965.36   682.7773    6.1180 3895.5693 11652.0879 12013.5059 10840.2422  465.8170  362.7830  443.4640 
1965.46   635.4908    5.9778 3894.4102 11707.3408 13544.8848  9265.5752  496.8359  410.5011  459.5808 
1965.56   659.4908    6.0528 3915.9102 11761.3408 14791.8848  8863.5752  527.8170  458.1610  475.6780 
1965.66   679.8591    6.1013 3929.8206 11804.9443 15593.6660  8628.1699  550.5150  530.3460  478.8815 
1965.76   668.8658    5.9214 3914.3206 11809.4414 14720.6992  9019.4307  573.2130  602.5310  482.0850 
1965.86   666.7436    5.7451 3912.5576 11814.0439 13747.4014  9534.3457  571.6065  634.7850  483.6650 
1965.96   742.3358    5.6000 3964.0891 11819.0498 12392.2480 10519.0469  570.0000  667.0390  485.2450 
1966.06   806.1600    5.4752 3995.8718 11812.2959 11120.3564 11564.8613  560.6293  668.1082  493.5866 
1966.16   769.1600    5.5252 3951.3718 11761.3271 10155.4463 12845.0801  551.2700  669.1760  501.9180 
1966.26   725.3167    5.5949 3914.9751 11688.6377  9319.9668 13873.1377  541.9685  637.5660  504.3135 
1966.36   622.3795    5.8347 3909.9780 11533.6377  8974.9668 13945.6377  532.6670  605.9560  506.7090 
1966.46   539.8596    6.0619 3913.5898 11456.7822  8936.7939 13838.2451  517.1575  572.7687  515.8811 
1966.56   634.8596    6.1769 3950.5898 11674.7822 10054.7939 13053.7451  501.6670  539.6220  525.0420 
1966.66   706.5162    6.2494 3966.9744 11974.6094 11330.1680 12305.3408  486.9050  529.8020  526.2615 
1966.76   576.5955    5.9546 3903.4744 12582.2383 13197.5283 11692.7148  472.1430  519.9820  527.4810 
1966.86   456.1026    5.6956 3864.7876 13092.2305 14861.4502 11166.8682  507.6935  513.1575  563.1875 
1966.96   418.0562    5.7507 3922.3228 13232.4014 15755.5410 10969.6279  543.2440  506.3330  598.8940 
1967.06   378.1880    5.7860 3964.8206 13338.5928 16339.6865 10880.3232  586.6039  519.8307  600.3854 
1967.16   322.1880    5.6510 3949.3206 13317.6055 15762.0400 11196.1309  629.9110  533.3120  601.8750 
1967.26   269.6144    5.5134 3937.8201 13276.1543 15043.9062 11624.6211  656.7445  552.6530  622.3675 
1967.36   246.6284    5.3535 3941.8176 13157.1543 13793.4062 12480.1211  683.5780  571.9940  642.8600 
1967.46   234.5104    5.2121 3947.8718 13013.8574 12568.1562 13327.8447  619.5835  551.6486  628.1390 
1967.56   316.5104    5.2321 3961.8718 12779.8574 11445.1562 14141.3447  555.6670  531.3280  613.4360 
1967.66   407.5290    5.2147 3972.5898 12458.4707 10443.5078 14702.8799  494.8730  468.2645  624.9615 
1967.76   576.4258    4.8749 3970.5898 11808.3672  9898.3408 14316.6152  434.0790  405.2010  636.4870 
1967.86   825.8461    4.5756 3956.1873 11055.9775  9389.0166 13485.4727  398.3700  335.9950  630.8645 
1967.96  1781.0110    4.6307 3893.6492  9914.5859  9015.0605 10965.3994  362.6610  266.7890  625.2420 
1968.06  2723.6985    4.7106 3828.2051  9025.2285  8834.1768  8870.5889  413.0067  261.5528  660.3909 
1968.16  3568.6985    5.0056 3751.2051  9078.6963  9377.8447  8363.8984  463.2910  256.3230  695.4970 
1968.26  4118.6602    5.3022 3710.7053  9336.1592 10155.7422  8084.2031  518.4735  297.4645  734.2535 
1968.36  2120.8799    5.6120 3811.6438 10366.6592 11821.2422  8664.7031  573.6560  338.6060  773.0100 
1968.46   329.0378    5.8651 3895.4871 11349.3799 13215.5498  9375.5947  605.6780  380.0338  811.1998 
1968.56   339.0378    5.6251 3912.4871 12146.3799 13580.0498 10573.5947  637.6610  421.4110  849.3430 
1968.66   347.7925    5.4359 3927.4358 12763.9316 13662.2090 11675.3145  627.6635  440.6785  836.7985 
1968.76   345.7938    5.6858 3934.4358 12706.4668 12682.3066 12414.8623  617.6660  459.9460  824.2540 
1968.86   348.1026    5.9213 3935.6948 12726.7695 11830.1650 13152.1045  606.5025  482.0980  827.2235 
1968.96   388.1514    6.0314 3914.6821 13042.1543 11461.7158 13881.4941  595.3390  504.2500  830.1930 
1969.06   415.6972    6.1316 3892.0513 13325.5264 11215.7051 14583.9795  590.8152  504.5517  813.1981 
1969.16   335.6972    6.1466 3863.0513 13489.9258 11428.5752 15188.6104  586.2970  504.8530  796.2240 
1969.26   264.8298    6.1527 3842.3574 13524.4775 11576.7471 15476.6865  581.2375  525.6320  812.0415 
1969.36   272.8249    6.0828 3853.8506 13066.9775 11479.7471 14565.1865  576.1780  546.4110  827.8590 
1969.46   282.7503    6.0153 3863.9231 12663.6279 11592.5361 13567.2041  571.6722  586.3463  847.0002 
1969.56   309.2503    5.9703 3868.4231 12466.6279 12495.0361 12249.2041  567.1720  626.2330  866.1180 
1969.66   330.2514    5.9227 3874.3589 12315.9326 13343.6904 11068.9521  642.2620  684.0110  919.4515 
1969.76   303.7675    5.8528 3885.8589 12339.4180 13989.7959 10406.8564  717.3520  741.7890  972.7850 
1969.86   280.4102    5.7690 3890.3875 12425.5439 14446.0879 10064.6484  819.5065  770.0110  994.6185 
1969.96   284.4151    5.5637 3867.8738 12749.4385 14182.7666 10935.7109  921.6610  798.2330 1016.4520 
1970.06   285.9243    5.3950 3854.6155 12971.7334 13674.0264 11799.1973 1015.3691  777.0165 1037.3607 
1970.16   265.9243    5.5400 3877.1155 12813.3301 12240.9014 12638.1855 1108.9630  755.8260 1058.2440 
1970.26   247.2739    5.6799 3899.2026 12632.2529 10934.5381 13480.8301 1116.2151  732.6185 1082.5715 
1970.36   240.2782    5.7748 3919.6899 12365.2529 10108.5381 14337.3301 1123.4670  709.4110 1106.8990 
1970.46   245.5201    5.8496 3937.3333 12135.7285  9485.1367 15036.8408 1089.7129  720.6404 1149.4249 
1970.56   356.5201    5.7496 3943.8333 12048.7285  9628.6367 15140.8408 1056.0000  731.8560 1191.8990 
1970.66   444.4869    5.6709 3945.7180 11987.9756  9905.5000 14906.2852 1018.8570  749.7740 1208.8831 
1970.76   333.5546    5.7758 3929.7180 12025.9521 10684.0244 13398.2061  981.7140  767.6920 1225.8669 
1970.86   241.8974    5.8469 3916.5901 12001.1924 11525.8076 11883.1484  933.1905  787.4015 1190.1000 
1970.96   318.9915    5.6216 3914.5889 11738.3721 12608.6279 10339.7666  884.6670  807.1110 1154.3330 
1971.06   378.2442    5.4626 3903.1538 11530.8955 13545.1699  9149.4951  856.2366  811.2671 1110.0205 
1971.16   284.2442    5.8726 3855.1538 11530.3955 13936.4307  9280.4150  827.8410  815.4180 1065.7620 
1971.26   201.6595    6.2229 3824.1750 11559.6484 14139.4121  9495.5986  825.9985  819.9590 1016.3810 
1971.36   217.6498    6.0580 3859.1538 11701.6484 13628.9121 10030.0986  824.1560  824.5000  967.0000 
1971.46   236.6703    5.8732 3888.8462 11949.1426 13216.1797 10652.7217  848.5038  820.9258  948.2095 
1971.56   281.6703    5.5182 3897.8462 12592.6426 13174.1797 11603.7217  872.8220  817.3560  929.4420 
1971.66   314.3246    5.1549 3900.5898 13259.4629 13135.6484 12686.6172  895.6790  791.0700  903.4100 
1971.76   240.3697    4.7201 3879.0898 14014.0020 13110.1631 14265.6533  918.5360  764.7840  877.3780 
1971.86   174.9231    4.3572 3863.9475 14480.7139 12898.1211 15514.5820  901.4735  735.8030  846.9675 
1971.96   183.9341    4.6225 3873.4534 13855.9521 11977.9990 15512.5801  884.4110  706.8220  816.5570 
1972.06   196.1514    4.8813 3884.7949 13319.3438 11356.9424 15274.8809  858.6813  680.7161  796.5478 
