~Version information
VERS.                            2.00: CWLS LAS  -  VERSION 2.00
WRAP.                              NO: One line per depth step
~Well information
#MNEM.UNIT                  DATA TYPE  INFORMATION
#===.================================:==================
STRT.M                          6.560: First depth in file
STOP.M                       3292.880: Last depth in file
STEP.M                          0.100: Depth increment
NULL.                       -9999.00 : Null values
DATE.                       : LOG DATE
TIME.                            8:51: LOG TIME
WELL.                             F1: Well name
GRP.                                1: Group name
FLD.                    F: Field name
ISS.      Тех.состояние экспл.колонны: Well surveys
SRVC.                                : Service Company
~Curve information
#MNEM.UNIT                   API CODE   CURVE DESCRIPTION
#===.================================:==================
DEPT.M                               : Depth curve
LMek.                                : 10 Локатор муфт,  -   28.0 см
GKek.MKR/H                           : :11 Гамма-активность, мкр./ч -   67.0 
TM  .IMP                             : :14 Толщиномер, имп/мин -  170.0 см
DFint.KG/M3                          : :15 Интегральный цементомер, имп/мин -
DF1 .KG/M3                           : :16 Селективный цементомер 1, имп/мин 
DF2 .KG/M3                           : :17 Селективный цементомер 2, имп/мин 
AK1 .                                : Casing wave amplitude (High freq.)
AK2 .                                : Casing wave amplitude (Low freq.)
AP  .                                : Rock wave amplitude
#
~Other information
#------------------ REMARKS AREA -----------------------
#=======================================================
# The file is generated by the program GeoTech-EditLog v2000.12
#Number of Curves = 9
~A Log Data Section
   6.56   -9999.00  -9999.00  -9999.00   -9999.00   -9999.00   -9999.00   53.3670   51.4920   54.6750 
   6.66   -9999.00  -9999.00  -9999.00   -9999.00   -9999.00   -9999.00   53.3055   51.4100   55.0625 
   6.76   -9999.00  -9999.00  -9999.00   -9999.00   -9999.00   -9999.00   53.2440   51.3280   55.4500 
   6.86   -9999.00  -9999.00  -9999.00   -9999.00   -9999.00   -9999.00   51.6220   50.6640   54.3510 
   6.96   -9999.00  -9999.00  -9999.00   -9999.00   -9999.00   -9999.00   50.0000   50.0000   53.2520 
   7.06   -9999.00  -9999.00  -9999.00   -9999.00   -9999.00   -9999.00   48.5000   48.9280   52.5160 
   7.16   -9999.00  -9999.00  -9999.00   -9999.00   -9999.00   -9999.00   47.0000   47.8560   51.7800 
   7.26   -9999.00  -9999.00  -9999.00   -9999.00   -9999.00   -9999.00   45.5000   46.7835   50.1700 
   7.36   -9999.00  -9999.00  -9999.00   -9999.00   -9999.00   -9999.00   44.0000   45.7110   48.5600 
   7.46   -9999.00  -9999.00  -9999.00   -9999.00   -9999.00   -9999.00   53.2665   51.1140   55.7985 
   7.56   -9999.00  -9999.00  -9999.00   -9999.00   -9999.00   -9999.00   62.5330   56.5170   63.0370 
   7.66   -9999.00  -9999.00  -9999.00   -9999.00   -9999.00   -9999.00   78.8110   62.4225   71.6470 
   7.76   -9999.00  -9999.00  -9999.00   -9999.00   -9999.00   -9999.00   95.0890   68.3280   80.2570 
   7.86   -9999.00  -9999.00  -9999.00   -9999.00   -9999.00   -9999.00  111.8530   84.1835   88.0335 
   7.96   -9999.00  -9999.00  -9999.00   -9999.00   -9999.00   -9999.00  128.6170  100.0390   95.8100 
   8.06   -9999.00  -9999.00  -9999.00   -9999.00   -9999.00   -9999.00  136.0170  103.5335   94.6790 
   8.16   -9999.00  -9999.00  -9999.00   -9999.00   -9999.00   -9999.00  143.4170  107.0280   93.5480 
   8.26   -9999.00  -9999.00  -9999.00   -9999.00   -9999.00   -9999.00  134.7280  110.5280   87.7145 
   8.36   -9999.00  -9999.00  -9999.00   -9999.00   -9999.00   -9999.00  126.0390  114.0280   81.8810 
   8.46   -9999.00  -9999.00  -9999.00   -9999.00   -9999.00   -9999.00  115.2750  101.0725   80.7145 
   8.56   -9999.00  -9999.00  -9999.00   -9999.00   -9999.00   -9999.00  104.5110   88.1170   79.5480 
   8.66   -9999.00  -9999.00  -9999.00   -9999.00   -9999.00   -9999.00   95.0805   81.5475   78.6315 
   8.76   -9999.00  -9999.00  -9999.00   -9999.00   -9999.00   -9999.00   85.6500   74.9780   77.7150 
   8.86   -9999.00  -9999.00  -9999.00   -9999.00   -9999.00   -9999.00   83.0610   68.3110   80.7150 
   8.96  2898.7976  -9999.00  -9999.00   -9999.00   -9999.00   -9999.00   80.4720   61.6440   83.7150 
   9.06  2108.7825  -9999.00  -9999.00   -9999.00   -9999.00   -9999.00   81.6390   57.3165   79.2150 
   9.16  2261.8767    0.5609  -9999.00   -9999.00   -9999.00   -9999.00   82.8060   52.9890   74.7150 
   9.26  3511.8767    0.6709  -9999.00   -9999.00   -9999.00   -9999.00   82.8920   48.6610   71.0240 
   9.36  3248.3213    0.7439  -9999.00   -9999.00   -9999.00   -9999.00   82.9780   44.3330   67.3330 
   9.46  1224.3213    0.7739  -9999.00   -9999.00   -9999.00   -9999.00   85.1445   40.6805   63.6665 
   9.56   141.0852    0.7438  -9999.00   -9999.00   -9999.00   -9999.00   87.3110   37.0280   60.0000 
   9.66   152.0851    0.6438  -9999.00   -9999.00   -9999.00   -9999.00   94.1445   37.8835   60.9660 
   9.76   209.0822    0.6224  -9999.00   -9999.00   -9999.00   -9999.00  100.9780   38.7390   61.9320 
   9.86   319.5811    0.6924  -9999.00   -9999.00   -9999.00   -9999.00   94.8225   39.2390   61.4320 
   9.96   363.2824    0.7531  -9999.00   -9999.00   -9999.00   -9999.00   88.6670   39.7390   60.9320 
  10.06   329.2818    0.8031  -9999.00 34657.5508 36017.9883 32172.8105   80.5695   38.5975   57.4495 
  10.16   316.3165    0.8924  -9999.00 34983.0508 35028.9961 34504.3008   72.4720   37.4560   53.9670 
  10.26   327.8165    1.0274 4508.4297 34434.5156 33595.9766 35233.9609   57.5414   35.9725   49.5175 
  10.36   373.5259    1.1185 4493.4297 33041.5195 31733.9863 34415.9648   42.6110   34.4890   45.0680 
  10.46   459.0259    1.1585 4368.4067 29128.3945 27716.2734 30695.3711   52.3860   41.5665   51.2745 
  10.56   497.3722    1.1476 4135.4067 22780.3945 21615.7734 24170.3711   62.1610   48.6440   57.4810 
  10.66   480.8723    1.0776 3990.7280 19059.5859 18003.8711 20275.6172   73.9249   69.7384   69.6154 
  10.76   437.3288    1.0585 3932.7275 17877.0801 16796.3652 18922.1094   85.6890   90.8330   81.7500 
  10.86   362.3295    1.0985 3902.2336 17251.4980 16561.5586 18018.4688   90.4530  111.7944   98.3994 
  10.96   301.6596    1.1570 3898.7336 17163.9980 17266.5625 17549.4668   95.2170  132.7560  115.0490 
  11.06   257.6588    1.2370 3900.7852 17143.6328 17829.1562 16935.7656   87.9420  131.4640  117.8430 
  11.16   249.9494    1.3447 3908.2852 17188.1328 18254.1543 16182.2705   80.6670  130.1720  120.6370 
  11.26   284.4494    1.4847 3913.5142 17241.7871 18630.3301 15698.8359   73.5000  112.8774  114.6520 
  11.36   299.5328    1.6016 3916.5142 17304.2871 18959.3301 15476.3369   66.3330   95.5830  108.6670 
  11.46   292.0328    1.6916 3909.6726 17395.7773 18584.9336 16057.9355   68.9945   81.4165   98.1670 
  11.56   279.2165    1.7631 3893.1726 17515.2773 17530.9336 17416.4355   71.6560   67.2500   87.6670 
  11.66   260.2166    1.8131 3892.8228 17517.5469 16383.6133 18388.1406   74.3225   64.2890   82.4180 
  11.76   256.9342    1.8724 3908.3228 17406.5449 15146.1074 18986.1426   76.9890   61.3280   77.1690 
  11.86   271.9341    1.9424 3902.6257 17139.9160 14353.1260 19030.5332   79.6555   62.6500   77.6690 
  11.96   292.0193    2.0124 3876.1257 16722.9141 13989.6240 18540.0312   82.3220   63.9720   78.1690 
  12.06   318.0198    2.0824 3858.7102 16613.3633 14428.9541 18143.6211   78.9945   60.9720   77.3360 
  12.16   318.1310    2.1454 3850.2102 16800.8633 15643.9482 17838.1230   75.6670   57.9720   76.5030 
  12.26   288.1310    2.2004 3852.5610 16941.8262 16812.4180 17135.4004   67.2555   57.9610   73.4625 
  12.36   260.9050    2.2901 3865.5610 17037.8262 17935.9121 16048.9062   58.8440   57.9500   70.4220 
  12.46   236.9050    2.4201 3875.0281 17108.1406 18845.5469 15246.4580   49.4055   56.7695   67.4660 
  12.56   231.3967    2.3721 3881.0281 17153.6406 19548.5469 14718.4580   39.9670   55.5890   64.5100 
  12.66   247.3965    2.1171 3891.8228 17107.3398 19654.4512 14485.4473   33.6335   55.5890   62.8435 
  12.76   265.2456    2.0517 3907.3228 16972.3398 19183.4492 14537.4473   27.3000   55.5890   61.1770 
  12.86   285.2455    2.2067 3901.3733 16760.7969 18178.9355 15325.8926   26.2110   51.9360   56.6325 
  12.96   316.3404    2.2438 3874.3733 16475.2949 16658.9277 16825.9004   25.1220   48.2830   52.0880 
  13.06   360.3412    2.1438 3874.1221 16327.8799 15200.9707 17803.8242   27.8525   44.6305   47.5440 
  13.16   368.2817    2.1617 3900.1218 16313.8799 13802.9775 18277.3223   30.5830   40.9780   43.0000 
  13.26   334.2817    2.3167 3903.6631 16166.6250 12839.0645 18478.7207   38.2750   38.1640   41.7595 
  13.36   339.8080    2.3491 3885.1633 15890.6260 12294.5674 18417.2207   45.9670   35.3500   40.5190 
  13.46   391.3080    2.2391 3855.8123 15519.2627 12589.2598 17722.7656   63.5780   42.9915   50.5950 
  13.56   414.3771    2.1291 3815.8123 15055.7627 13694.7598 16416.7656   81.1890   50.6330   60.6710 
  13.66   404.3772    2.0191 3821.4868 14579.5518 14454.6611 14889.2822   98.5779   58.1385   70.6710 
  13.76   382.5890    2.0525 3871.9873 14091.0488 14880.6631 13147.7734  115.9670   65.6440   80.6710 
  13.86   347.0893    2.2525 3902.8040 13916.6084 15579.7773 12116.0264  125.7749   69.1250   85.4115 
  13.96   348.3404    2.2814 3914.3040 14045.6094 16542.7812 11770.0244  135.5830   72.6060   90.1520 
  14.06   392.3412    2.1114 3912.9343 14384.9180 17423.3926 12030.0254  131.9055   69.1365   88.0760 
  14.16   397.5079    2.0431 3898.9343 14927.4150 18224.3887 12875.5215  128.2280   65.6670   86.0000 
  14.26   357.5079    2.0931 3903.1033 14583.1660 17067.7734 13518.6006  120.2445   68.7530   89.6535 
