~Version information
VERS.                            2.00: CWLS LAS  -  VERSION 2.00
WRAP.                              NO: One line per depth step
~Well information
#MNEM.UNIT                  DATA TYPE  INFORMATION
#===.================================:==================
STRT.M                          6.560: First depth in file
STOP.M                       3292.880: Last depth in file
STEP.M                          0.100: Depth increment
NULL.                       -9999.00 : Null values
DATE.                       : LOG DATE
TIME.                            8:51: LOG TIME
WELL.                             F1: Well name
GRP.                                1: Group name
FLD.                    F: Field name
ISS.      Тех.состояние экспл.колонны: Well surveys
SRVC.                                : Service Company
~Curve information
#MNEM.UNIT                   API CODE   CURVE DESCRIPTION
#===.================================:==================
DEPT.M                               : Depth curve
LMek.                                : 10 Локатор муфт,  -   28.0 см
GKek.MKR/H                           : :11 Гамма-активность, мкр./ч -   67.0 
TM  .IMP                             : :14 Толщиномер, имп/мин -  170.0 см
DFint.KG/M3                          : :15 Интегральный цементомер, имп/мин -
DF1 .KG/M3                           : :16 Селективный цементомер 1, имп/мин 
DF2 .KG/M3                           : :17 Селективный цементомер 2, имп/мин 
AK1 .                                : Casing wave amplitude (High freq.)
AK2 .                                : Casing wave amplitude (Low freq.)
AP  .                                : Rock wave amplitude
#
~Other information
#------------------ REMARKS AREA -----------------------
#=======================================================
# The file is generated by the program GeoTech-EditLog v2000.12
#Number of Curves = 9
~A Log Data Section
# ...
 661.76   162.3387    3.2630 3954.0000  9229.0000 11557.0000  7430.0000 1282.6281 1347.5750 1159.7240 
 661.86   170.3363    3.0681 4004.5422  9324.8115 10924.2363  7933.6489 1298.8091 1360.9724 1140.2014 
 661.96   176.2924    2.9739 4053.0000  9416.0000 10322.0000  8413.0000 1315.0000 1374.3781 1120.6670 
 662.06   177.2924    3.1239 4042.2788  9524.1074  9226.0645  9846.5801 1283.5000 1293.3781 1090.6670 
 662.16   174.1916    3.2373 4032.0000  9627.0000  8183.0000 11211.0000 1252.0000 1212.3781 1060.6670 
 662.26   161.1956    3.2623 4053.9526  9695.1436  8032.3667 11983.1250 1207.4529 1123.4954 1032.3248 
 662.36   149.6613    3.3019 4075.0000  9760.0000  7889.0000 12718.0000 1162.9330 1034.6670 1004.0000 
 662.46   141.6588    3.3769 4046.4104  9749.7500  8121.1694 12035.3301 1105.4235  982.1324  979.7071 
 662.56   136.0000    3.3379 4019.0000  9740.0000  8342.0000 11386.0000 1047.9490  929.6300  955.4290 
 662.66   136.0000    3.0228 4071.6003  9758.4561  9243.7764 10226.8662 1042.3573  958.9960  940.3634 
 662.76   138.0464    2.8190 4122.0000  9776.0000 10101.0000  9125.0000 1036.7690  988.3440  925.3070 
 662.86   145.0443    2.8840 4081.1577  9778.5615 11147.7490  8340.5781 1053.3210 1024.8499  935.5749 
 662.96   158.4805    2.9271 4042.0000  9781.0000 12144.0000  7594.0000 1069.8831 1061.3781  945.8490 
 663.06   187.4805    2.9171 4020.0474  9625.7549 11816.0898  7747.7075 1091.1805 1075.3445  960.3925 
 663.16   346.2728    2.8968 3999.0000  9478.0000 11504.0000  7894.0000 1112.4780 1089.3110  974.9360 
 663.26   818.1288    2.8518 3959.6895  8777.0928  9704.5957  7780.7686 1123.3394 1103.1488 1010.2238 
 663.36  1747.0592    2.7630 3922.0000  8110.0000  7992.0000  7673.0000 1134.1940 1116.9780 1045.4900 
 663.46  3783.1804    2.5679 3822.9575  7522.1450  6742.4878  7976.4092 1140.3864 1129.0452 1068.5131 
 663.56  4991.1738    2.4958 3728.0000  6963.0000  5554.0000  8265.0000 1146.5750 1141.1050 1091.5220 
 663.66  4197.9321    2.7208 3837.7971  7254.1934  5933.3716  8558.7568 1151.2194 1150.2373 1113.2301 
 663.76  3152.1531    2.8742 3943.0000  7531.0000  6294.0000  8838.0000 1155.8610 1159.3640 1134.9250 
 663.86  1494.1593    2.8542 3992.0107  8456.8320  6967.2397  9580.4082 1160.5875 1169.7289 1129.5366 
 663.96   325.2637    2.9087 4039.0000  9338.0000  7608.0000 10287.0000 1165.3170 1180.1000 1124.1450 
 664.06   343.2637    3.1437 4039.5105  9614.1611  8789.5000  9962.6768 1154.6030 1189.9335 1117.6450 
 664.16   335.2005    3.1987 4040.0000  9877.0000  9914.0000  9654.0000 1143.8890 1199.7670 1111.1450 
 664.26   264.2222    2.8188 4085.9475 10019.4355 11566.8701  8608.7881 1130.5125 1200.4697 1103.6337 
 664.36   216.7772    2.5836 4130.0000 10155.0000 13140.0000  7614.0000 1117.1440 1201.1720 1096.1270 
 664.46   226.2801    2.6987 4141.7422 10114.5117 12883.7422  7934.3223 1105.2599 1208.9338 1104.3004 
 664.56   227.0070    2.8195 4153.0000 10076.0000 12640.0000  8239.0000 1093.3831 1216.6910 1112.4690 
 664.66   206.5008    2.9545 4115.7202 10045.2402 11290.6680  8999.2803 1133.6168 1250.0776 1126.8694 
 664.76   202.5243    3.0091 4080.0000 10016.0000 10008.0000  9722.0000 1173.8260 1283.4440 1141.2610 
 664.86   238.5133    2.8691 4045.7947  9951.9551  8947.4170 11020.8301 1257.1681 1331.4463 1156.7163 
 664.96   253.1801    2.7919 4013.0000  9891.0000  7938.0000 12257.0000 1340.5610 1379.4780 1172.1810 
 665.06   216.1801    2.8669 4038.5264  9961.1934  7982.0630 12384.0654 1382.7025 1405.9110 1178.9570 
 665.16   194.9802    2.8512 4063.0000 10028.0000  8024.0000 12505.0000 1424.8440 1432.3440 1185.7330 
 665.26   211.9750    2.6162 4046.1526 10050.0312  8642.4170 11245.6221 1421.8682 1431.9524 1189.0100 
 665.36   212.3064    2.5231 4030.0000 10071.0000  9231.0000 10047.0000 1418.8940 1431.5610 1192.2850 
 665.46   172.2942    2.7732 4028.4685 10012.5732 10476.4121  8811.3262 1373.9518 1417.7473 1199.2932 
 665.56   155.4013    2.9237 4027.0000  9957.0000 11661.0000  7636.0000 1329.0370 1403.9420 1206.2970 
 665.66   194.4132    2.8337 4044.8740  9891.8916 11970.1367  7424.2695 1319.8236 1400.5089 1213.8378 
 665.76   216.5917    2.7875 4062.0000  9830.0000 12264.0000  7223.0000 1310.6160 1397.0780 1221.3740 
 665.86   198.0974    2.8475 4067.1052  9856.6426 12018.0674  7853.7139 1305.8125 1397.0974 1239.5745 
 665.96   198.7442    2.9017 4072.0000  9882.0000 11784.0000  8454.0000 1301.0060 1397.1169 1257.7860 
 666.06   245.7442    2.9417 4022.4788  9877.3887 10612.2354  8944.3271 1303.9695 1430.4475 1288.7820 
 666.16   258.0540    3.0242 3975.0000  9873.0000  9497.0000  9411.0000 1306.9330 1463.7780 1319.7780 
 666.26   186.5758    3.2091 4046.4739  9898.6182  8633.1631 10475.6816 1338.7317 1506.4435 1349.8016 
 666.36   136.7309    3.2991 4115.0000  9923.0000  7811.0000 11489.0000 1370.5110 1549.0830 1379.8070 
 666.46   139.2316    3.1590 4119.0840 10006.5400  7783.3242 12216.2588 1400.6761 1578.1423 1379.0188 
 666.56   143.1926    3.0775 4123.0000 10086.0000  7757.0000 12908.0000 1430.8230 1607.1840 1378.2310 
 666.66   150.6948    3.1376 4093.3804 10039.8604  8537.2744 11475.1045 1473.8856 1611.7413 1361.0142 
 666.76   156.5847    3.1873 4065.0000  9996.0000  9279.0000 10113.0000 1516.9220 1616.2960 1343.8080 
 666.86   158.5841    3.2123 3999.1418  9881.2314 10611.1328  8918.6914 1532.5007 1610.4053 1341.5497 
 666.96   157.3681    3.2066 3936.0000  9772.0000 11879.0000  7782.0000 1548.0890 1604.5110 1339.2900 
 667.06   148.3681    3.1266 3974.2896  9740.7461 12453.8662  7561.1733 1589.0334 1626.5139 1360.7125 
 667.16   146.9802    3.0876 4011.0000  9711.0000 13001.0000  7351.0000 1629.9780 1648.5170 1382.1350 
 667.26   163.9750    3.1476 3981.8999  9729.9570 12523.9941  7503.6831 1663.1326 1690.4353 1403.4750 
 667.36   185.3549    3.1593 3954.0000  9748.0000 12070.0000  7649.0000 1696.2670 1732.3280 1424.8020 
 667.46   217.3647    3.0543 3938.6841  9715.1992 10668.7832  8731.4326 1722.2854 1772.1392 1402.1171 
 667.56   232.1068    2.9361 3924.0000  9684.0000  9336.0000  9761.0000 1748.2880 1811.9260 1379.4460 
 667.66   205.0986    2.7861 3924.5107  9835.7490  8109.1948 11184.1553 1752.4447 1833.7537 1351.1439 
 667.76   186.1462    2.6727 3925.0000  9980.0000  6943.0000 12537.0000 1756.5990 1855.5680 1322.8590 
 667.86   186.6460    2.6477 3955.6316 10075.2988  7226.3345 12970.4561 1731.9236 1848.8306 1354.6288 
 667.96   183.0522    2.6578 3985.0000 10166.0000  7496.0000 13383.0000 1707.2330 1842.0890 1386.4180 
 668.06   169.5522    2.7528 3950.7947 10297.6758  8377.2568 11958.6426 1690.0970 1822.1169 1448.0850 
 668.16   157.3634    2.8522 3918.0000 10423.0000  9216.0000 10603.0000 1672.9611 1802.1450 1509.7520 
 668.26   148.3662    2.9622 3954.2476 10464.5010 10721.3105  9630.0303 1645.8363 1784.4561 1568.4364 
 668.36   142.0000    3.0605 3989.0000 10504.0000 12154.0000  8704.0000 1618.7280 1766.7780 1627.0850 
 668.46   142.0000    3.1305 3965.5156 10293.3564 13041.6768  8020.3047 1612.5382 1755.0284 1603.7039 
 668.56   142.5847    3.1522 3943.0000 10093.0000 13886.0000  7370.0000 1606.3521 1743.2860 1580.3370 
 668.66   144.5853    3.0572 3944.5320 10022.2520 13137.5107  7742.7065 1594.7740 1724.1887 1531.4951 
 668.76   150.3851    2.9827 3946.0000  9955.0000 12426.0000  8097.0000 1583.2030 1705.1030 1482.6830 
 668.86   165.3805    2.9577 3949.0632  9743.3955 10782.3525  8602.1855 1577.6117 1679.6093 1432.1804 
 668.96   185.5040    2.8581 3952.0000  9542.0000  9218.0000  9083.0000 1572.0170 1654.1000 1381.6470 
 669.06   218.0040    2.5781 3914.7314  9064.9941  7384.7798 10130.7734 1568.5139 1634.6000 1355.1370 
 669.16   232.6509    2.3976 3879.0000  8611.0000  5640.0000 11128.0000 1565.0110 1615.1000 1328.6270 
 669.26   204.1596    2.4576 3907.0791  8480.3486  5839.3076 11359.5859 1558.8372 1609.8818 1327.6267 
 669.36   180.7843    2.5497 3934.0000  8356.0000  6029.0000 11580.0000 1552.6670 1604.6670 1326.6270 
 669.46   169.7809    2.7197 3939.6157  8791.6377  7077.0938 10828.6523 1544.8866 1600.0410 1299.9613 
