~Version information
VERS.                            2.00: CWLS LAS  -  VERSION 2.00
WRAP.                              NO: One line per depth step
~Well information
#MNEM.UNIT                  DATA TYPE  INFORMATION
#===.================================:==================
STRT.M                          6.560: First depth in file
STOP.M                       3292.880: Last depth in file
STEP.M                          0.100: Depth increment
NULL.                       -9999.00 : Null values
DATE.                       : LOG DATE
TIME.                            8:51: LOG TIME
WELL.                             F1: Well name
GRP.                                1: Group name
FLD.                    F: Field name
ISS.      Тех.состояние экспл.колонны: Well surveys
SRVC.                                : Service Company
~Curve information
#MNEM.UNIT                   API CODE   CURVE DESCRIPTION
#===.================================:==================
DEPT.M                               : Depth curve
LMek.                                : 10 Локатор муфт,  -   28.0 см
GKek.MKR/H                           : :11 Гамма-активность, мкр./ч -   67.0 
TM  .IMP                             : :14 Толщиномер, имп/мин -  170.0 см
DFint.KG/M3                          : :15 Интегральный цементомер, имп/мин -
DF1 .KG/M3                           : :16 Селективный цементомер 1, имп/мин 
DF2 .KG/M3                           : :17 Селективный цементомер 2, имп/мин 
AK1 .                                : Casing wave amplitude (High freq.)
AK2 .                                : Casing wave amplitude (Low freq.)
AP  .                                : Rock wave amplitude
#
~Other information
#------------------ REMARKS AREA -----------------------
#=======================================================
# The file is generated by the program GeoTech-EditLog v2000.12
#Number of Curves = 9
~A Log Data Section
# ...
1535.36   239.4875    5.6443 3991.7791 12773.2744 14231.8574 11095.2275  334.6060  225.3390  448.6830 
1535.46   216.0000    5.6100 4012.1978 12875.9932 14734.7080 10711.9648  340.5371  220.2859  443.6384 
1535.56   219.0659    5.6304 4004.6978 12949.9473 14683.7393 11063.2510  346.4610  215.2390  438.6000 
1535.66   222.0000    5.6500 3982.0769 12963.3643 14276.7861 11548.1777  328.0430  208.9345  444.7125 
1535.76   197.9982    5.5223 3934.1062 12876.8643 13282.2861 12253.6777  309.6250  202.6300  450.8250 
1535.86   175.0000    5.4000 3913.3101 12851.8447 12338.5410 13218.9980  282.8790  190.1485  450.3850 
1535.96   208.2143    5.2978 3938.3406 12928.3916 11477.5156 14614.8486  256.1330  177.6670  449.9450 
1536.06   240.0000    5.2000 3956.2405 12966.1904 10697.8936 15426.9727  231.9913  170.0934  453.9500 
1536.16   219.5604    5.0058 3962.2368 12940.1904 10050.8936 15278.4727  207.8790  162.5290  457.9500 
1536.26   200.0000    4.8200 3972.5171 12937.9600 10105.0859 14845.1191  211.1785  152.8175  456.0815 
1536.36   204.0854    4.4472 3990.0171 12974.9600 11316.5859 13941.6191  214.4780  143.1060  454.2130 
1536.46   208.0000    4.0900 4001.9341 13027.1279 12756.0645 12831.8184  224.1669  139.4368  448.2544 
1536.56   191.1374    4.1155 4004.4341 13104.0801 14565.9590 11386.2012  233.8440  135.7720  442.3030 
1536.66   175.0000    4.1400 3990.6907 13202.7451 16004.6406 10326.2178  243.2015  133.0235  440.3985 
1536.76   195.4271    4.2064 3949.7156 13337.2451 16830.6406  9902.7178  252.5590  130.2750  438.4940 
1536.86   215.0000    4.2700 3937.5928 13414.9668 16508.4941 10221.7451  258.1210  136.4515  459.7985 
1536.96   193.5385    4.2393 3974.1375 13398.9570 14288.6406 11768.1875  263.6830  142.6280  481.1030 
1537.06   173.0000    4.2100 3990.4656 13345.6113 12363.7598 13488.9180  263.8101  150.8870  520.8752 
1537.16   233.8077    4.1589 3972.9763 13230.6113 10921.2598 15500.4180  263.9370  159.1360  560.5990 
1537.26   292.0000    4.1100 3947.1038 13149.5674 10005.4561 16520.9668  263.6020  169.7460  608.8240 
1537.36   237.8682    4.2632 3907.1038 13124.5674  9958.9561 15905.9668  263.2670  180.3560  657.0490 
1537.46   186.0000    4.4100 3889.2856 13182.3857 10482.6660 15079.4678  269.0565  185.8063  681.8121 
1537.56   181.4011    4.6706 3908.7856 13376.2676 11942.7744 13907.6826  274.8390  191.2500  706.5450 
1537.66   177.0000    4.9200 3925.8542 13449.4619 13559.9834 12629.9873  280.4105  195.3715  710.3210 
1537.76   168.3185    5.1192 3938.8462 13323.4619 15436.4834 11177.4873  285.9820  199.4930  714.0970 
1537.86   160.0000    5.3100 3957.2412 13157.5225 16543.1621 10186.4648  274.6105  202.3355  693.3820 
1537.96   158.4670    5.8823 3984.7747 12925.3809 16379.0625  9956.8252  263.2390  205.1780  672.6670 
1538.06   157.0000    6.4300 4003.4937 12740.4414 15818.7822 10188.0820  238.2263  201.9115  642.8073 
1538.16   152.4011    6.2154 4007.4912 12632.9414 14604.2822 11179.5820  213.2440  198.6490  612.9840 
1538.26   148.0000    6.0100 4012.7930 12411.3115 13213.7764 12017.7139  185.8665  186.3245  569.6745 
1538.36   153.1068    6.1121 4020.2930 12001.3115 11532.7764 12602.7139  158.4890  174.0000  526.3650 
1538.46   158.0000    6.2100 3980.5386 11265.3955  9994.9932 12606.5000  158.0412  161.9927  501.0320 
1538.56   240.7802    6.3480 3861.5386  9995.6709  8697.7852 11654.0811  157.5940  150.0000  475.7300 
1538.66   320.0000    6.4800 3778.4119  9058.8008  7811.9009 10793.8789  170.1870  146.6140  469.6330 
1538.76  1490.4723    6.0357 3755.4258  8671.3008  7604.9009 10085.8789  182.7800  143.2280  463.5360 
1538.86  2612.0000    5.6100 3742.1172  8800.8379  8065.9092  9716.0752  203.8370  150.2250  488.1900 
1538.96  3736.1758    5.4414 3745.1208  9784.9375  9631.3633  9904.6904  224.8940  157.2220  512.8440 
1539.06  4812.0000    5.2800 3743.0793 10667.3281 11171.1230 10103.8721  229.6089  165.1689  536.4944 
1539.16  2451.2307    5.3055 3732.5857 11383.8281 12671.6230 10320.8721  234.3180  173.1060  560.1160 
1539.26   192.0000    5.3300 3738.1033 11841.1299 13582.4189 10455.6230  241.6255  186.6170  545.3665 
1539.36   183.8292    5.3045 3770.6033 11870.6299 13519.9189 10454.6230  248.9330  200.1280  530.6170 
1539.46   176.0000    5.2800 3804.8242 11930.4219 13207.8818 10760.4062  249.6114  214.2171  498.1222 
1539.56   187.6757    5.0246 3841.8242 12039.8545 12486.3232 11569.9121  250.2890  228.2890  465.6670 
1539.66   184.5421    5.0170 3859.5857 12160.2549 11594.6279 12729.7285  260.3500  255.1435  443.7125 
1539.76   172.5421    5.1570 3845.0945 12298.7549 10422.1279 14467.7285  270.4110  281.9980  421.7580 
1539.86   177.9438    5.2815 3824.4553 12371.4258  9850.7422 15280.0254  271.5805  304.6405  441.1285 
1539.96   193.9634    5.3966 3793.4175 12335.4043 10271.9990 14563.5889  272.7500  327.2830  460.4990 
1540.06   212.4466    5.5520 3778.6675 12269.4229 10797.5371 13654.5000  275.1535  343.5654  475.0049 
1540.16   232.4344    5.7319 3791.1599 12153.9229 11496.0371 12426.0000  277.5540  359.8280  489.4930 
1540.26   239.6893    5.9025 3793.4138 12082.1885 12461.0918 11264.2803  309.0435  361.9335  501.2700 
1540.36   239.1893    6.0675 3778.4138 12082.6885 13866.0918 10212.7803  340.5330  364.0390  513.0470 
1540.46   213.4844    6.0584 3761.3406 12018.5029 14635.6494  9705.1504  387.6172  363.5082  507.7418 
1540.56   172.5095    5.9435 3740.8406 11848.1074 14357.3193 10093.9131  434.6440  362.9780  502.4430 
1540.66   157.0000    5.8379 3734.9080 11760.2988 13694.4668 10615.1943  479.7895  362.3430  522.7080 
1540.76   157.0000    5.7379 3753.3965 11808.7988 12396.9668 11355.1943  524.9350  361.7080  542.9730 
1540.86   175.3339    5.4203 3761.6484 11767.1699 11271.3281 12087.6709  555.8065  350.2345  553.4450 
1540.96   204.8700    4.9698 3752.6375 11576.5537 10428.3135 12808.6104  586.6780  338.7610  563.9170 
1541.06   208.8432    4.8965 3749.2405 11554.2090  9964.3662 13354.3408  607.6298  327.8574  593.9163 
1541.16   197.3502    5.0514 3755.2368 11809.2090 10124.3662 13612.3408  628.5560  316.9670  623.8790 
1541.26   177.7735    5.0634 3763.4688 11992.3350 10278.1406 13615.1045  648.5335  311.0085  635.5245 
1541.36   153.2735    4.9884 3775.4688 12056.8350 10421.6406 13196.6045  668.5110  305.0500  647.1700 
1541.46   145.8670    5.0409 3797.3845 12142.0156 11177.1504 12626.3779  628.7728  310.8340  663.8887 
1541.56   148.8652    5.1708 3835.8845 12260.9424 12937.0752 11808.3779  589.0830  316.6110  680.5870 
1541.66   168.9554    5.2573 3846.3708 12348.0166 14390.2930 10943.2158  538.4825  306.2435  671.9245 
1541.76   199.4554    5.3173 3809.8933 12382.5166 15337.2930 10000.2158  487.8820  295.8760  663.2620 
1541.86   206.3388    5.2934 3782.5312 12388.7295 15574.0723  9596.0625  432.2630  273.9380  649.6820 
1541.96   198.8297    5.2183 3770.5166 12348.2041 14637.5020 10081.8584  376.6440  252.0000  636.1020 
1542.06   193.5107    5.1869 3768.2275 12269.8018 13510.9482 10873.5332  401.1725  231.6701  617.6782 
1542.16   189.5131    5.1819 3782.2190 12128.8018 12068.9482 12171.0332  425.6710  211.3650  599.2770 
1542.26   226.5324    5.2421 3783.9243 12001.1963 10817.2910 13408.7324  459.6520  213.8825  561.7195 
1542.36   288.5323    5.3421 3764.9243 11895.6963  9879.7910 14547.7324  493.6330  216.4000  524.1620 
1542.46   346.8505    5.3209 3758.7913 11791.4150  9501.7842 14705.8467  526.4084  224.5715  491.5561 
1542.56   402.8163    5.2259 3774.2913 11689.4775 10045.4521 13249.7354  559.1440  232.7330  458.9900 
1542.66   344.4493    5.1869 3785.4937 11697.3076 10714.1279 12140.0186  540.7660  225.7490  433.9105 
1542.76   216.4493    5.1819 3789.4912 11886.3076 11589.1279 11602.0186  522.3880  218.7650  408.8310 
1542.86   172.9719    5.3540 3789.5793 12126.5439 12677.5312 11183.2930  502.9745  202.8825  408.9965 
1542.96   180.9817    5.6344 3783.0715 12451.7422 14119.9102 10961.1572  483.5610  187.0000  409.1620 
1543.06   181.5107    5.8396 3793.0024 12645.5107 15182.8184 10687.7422  465.9368  176.2765  412.9778 
