~Version information
VERS.                            2.00: CWLS LAS  -  VERSION 2.00
WRAP.                              NO: One line per depth step
~Well information
#MNEM.UNIT                  DATA TYPE  INFORMATION
#===.================================:==================
STRT.M                       1140.000: First depth in file
STOP.M                       1254.600: Last depth in file
STEP.M                          0.100: Depth increment
NULL.                       -9999.00 : Null values
DATE.                      : LOG DATE
TIME.                           11:12: LOG TIME
WELL.                             F1: Well name
GRP.                                 : Group name
FLD.                    F: Field name
ISS.                     окон.каротаж: Well surveys
SRVC.                                : Service Company
~Curve information
#MNEM.UNIT                   API CODE   CURVE DESCRIPTION
#===.================================:==================
DEPT.M                               : Depth curve
GZ3 .OHMM                            : :9 A2.0M0.5N, ќм*м - 1475.0 см
IK  .MSM/M                           : :14 » , м—м/м - 1961.0 см
PS  .MV                              : :16 ѕ—, м¬ - 1575.0 см
BK  .OHMM                            : :20 Ѕ , ќм*м - 1768.0 см
#
~Other information
#------------------ REMARKS AREA -----------------------
#=======================================================
# The file is generated by the program GeoTech-EditLog v2000.12
#Number of Curves = 4
~A Log Data Section
# ...
1172.00    8.4000   175.7087  234.7800    3.9600 
1172.10    8.2000   177.1114  235.2400    3.8500 
1172.20    7.9000   178.0711  235.6600    3.3400 
1172.30    7.2000   178.8317  236.1600    3.1800 
1172.40    7.0000   180.5775  236.6800    2.9000 
1172.50    6.8000   182.1772  237.1800    2.9900 
1172.60    6.7000   183.9699  237.1800    3.0600 
1172.70    7.1000   185.9763  237.2200    3.1500 
1172.80    7.3000   188.0804  237.2400    3.3100 
1172.90    7.5000   188.6942  237.3000    3.4200 
1173.00    7.6000   188.6636  237.4000    3.6500 
1173.10    7.6000   188.0719  237.9400    3.7500 
1173.20    7.8000   186.9082  238.5000    3.7700 
1173.30    7.8000   185.7500  239.2600    3.8500 
1173.40    7.5000   185.6450  239.9800    4.0200 
1173.50    7.6000   184.8956  239.9600    3.9800 
1173.60    7.4000   185.2245  238.8400    3.8600 
1173.70    7.5000   185.7718  237.0200    3.9200 
1173.80    7.5000   185.3874  234.6000    4.0300 
1173.90    7.4000   185.1112  231.9400    4.0200 
1174.00    7.4000   185.1088  229.8000    3.8600 
1174.10    7.3000   184.5189  228.6400    3.8200 
1174.20    7.3000   184.3713  228.1600    3.8100 
1174.30    7.3000   185.1308  228.0200    3.7200 
1174.40    7.1000   184.2972  227.8400    3.8300 
1174.50    7.1000   183.7444  227.6800    3.8700 
1174.60    7.0000   184.3311  227.5400    3.7800 
1174.70    6.8000   183.0306  227.4200    3.7200 
1174.80    6.9000   182.1685  227.2800    3.7500 
1174.90    7.0000   181.9661  227.4200    3.7200 
1175.00    7.2000   181.1994  227.8400    3.6800 
1175.10    7.2000   180.4369  228.3600    3.8500 
1175.20    7.7000   180.6748  228.6000    3.9700 
1175.30    8.1000   180.3425  228.9600    4.0000 
1175.40    7.9000   179.4668  229.5600    3.9000 
1175.50    7.8000   179.2639  230.2200    3.6700 
1175.60    7.6000   179.0720  230.6600    3.4900 
1175.70    7.3000   178.9627  231.3000    3.5000 
1175.80    7.1000   180.3248  232.1200    3.4900 
1175.90    7.0000   182.1656  232.6600    3.4600 
1176.00    6.8000   184.3879  232.6600    3.5000 
1176.10    6.8000   187.1345  232.6600    3.5400 
1176.20    6.8000   190.0988  232.1000    3.4900 
1176.30    6.8000   192.6998  229.7000    3.5200 
1176.40    6.9000   195.3071  226.9800    3.5300 
1176.50    7.0000   197.4830  224.5000    3.5400 
1176.60    6.9000   198.9352  222.2200    3.5300 
1176.70    7.0000   200.6249  220.8000    3.5200 
1176.80    6.8000   202.2656  221.0800    3.4900 
1176.90    6.6000   202.8539  221.9600    3.5000 
1177.00    6.7000   204.7256  223.1400    3.4700 
1177.10    6.5000   206.8332  224.6400    3.3500 
1177.20    6.6000   207.8677  226.1800    3.3300 
1177.30    6.7000   209.4868  227.7800    3.3200 
1177.40    6.9000   211.8391  229.2600    3.4000 
1177.50    7.6000   212.4478  230.7000    3.4400 
1177.60    8.0000   212.9900  231.9000    3.4700 
1177.70    8.4000   213.4077  232.1600    3.4600 
1177.80    8.6000   212.8856  231.8800    3.4200 
1177.90    8.3000   211.8971  231.4000    3.2400 
1178.00    8.0000   211.5270  230.6600    2.9900 
1178.10    7.6000   211.6206  229.4000    2.8400 
1178.20    7.5000   211.7977  228.6400    2.8200 
1178.30    7.2000   212.7689  228.1902    2.8000 
1178.40    7.3000   213.8872  227.7628    2.8600 
1178.50    7.3000   214.8032  227.3773    2.8682 
1178.60    7.3000   215.8319  227.4260    2.8767 
1178.70    7.3000   217.0043  227.7092    2.8852 
1178.80    7.3000   218.0166  228.3549    2.8937 
1178.90    7.2747   218.8227  229.3214    2.9025 
1179.00    7.1242   219.6858  230.0841    2.8974 
1179.10    6.9253   220.2044  230.0822    2.8524 
1179.20    6.9495   220.5803  228.6687    2.8250 
1179.30    6.8000   221.6364  225.8958    2.8024 
1179.40    6.7747   222.7874  222.5406    2.7825 
1179.50    6.6495   223.2317  219.2822    2.8026 
1179.60    6.5000   224.4261  216.7859    2.8349 
1179.70    6.5000   225.9135  215.6446    2.8200 
1179.80    6.4747   227.2359  215.5653    2.8124 
1179.90    6.4000   229.4874  215.7158    2.7849 
1180.00    6.4253   231.8459  216.0310    2.7599 
1180.10    6.4747   233.7760  216.4264    2.7199 
1180.20    6.3495   236.2239  216.9515    2.6824 
1180.30    6.2505   238.0692  217.6174    2.6549 
1180.40    6.4000   239.8143  218.5229    2.6349 
1180.50    6.3495   242.0282  219.6134    2.6175 
1180.60    6.1747   243.9649  220.7422    2.5999 
1180.70    6.0495   245.3750  221.4662    2.5750 
1180.80    5.8495   247.3655  221.9462    2.6077 
1180.90    5.6495   249.6615  222.3662    2.6398 
1181.00    5.5505   250.9099  222.7457    2.5775 
1181.10    5.6495   252.9459  223.1371    2.5776 
1181.20    5.5000   255.3680  224.0078    2.5849 
1181.30    5.5253   256.5677  225.1886    2.5299 
1181.40    5.5747   258.0698  226.4178    2.4949 
1181.50    5.4495   259.8477  227.3468    2.4648 
1181.60    5.2495   259.6417  227.7996    2.4175 
1181.70    5.1000   260.0998  227.2963    2.4075 
1181.80    5.0242   260.5204  225.6697    2.4025 
1181.90    4.7495   259.9416  223.7448    2.4176 
1182.00    4.6253   259.4392  221.9255    2.4451 
1182.10    4.7505   258.6827  220.4422    2.4726 
1182.20    4.8748   256.6533  219.7305    2.5277 
1182.30    4.8000   254.9484  219.9963    2.5876 
1182.40    4.8000   252.5404  220.4967    2.6302 
1182.50    4.8253   249.1720  221.1824    2.7102 
1182.60    4.9000   246.5679  222.1383    2.7902 
1182.70    4.9252   243.3377  223.3684    2.8550 
1182.80    5.0253   239.6732  224.7842    2.8725 
1182.90    5.1253   236.8789  226.3648    2.8800 
1183.00    5.2505   234.9098  228.2007    2.8724 
1183.10    5.4000   232.5633  230.1545    2.8576 
1183.20    5.4252   231.0943  231.6728    2.9002 
1183.30    5.4747   230.2363  232.7826    2.9853 
1183.40    5.4253   228.5919  233.6719    3.0448 
1183.50    5.5000   227.0016  234.1750    2.9874 
1183.60    5.4495   226.3340  234.1549    2.9500 
1183.70    5.3252   225.7459  234.1804    2.9298 
1183.80    5.4000   224.8476  234.3506    2.8422 
1183.90    5.3495   225.1230  234.5000    2.7549 
1184.00    5.2000   226.2737  234.4697    2.7375 
1184.10    5.2000   226.4396  234.3496    2.7249 
1184.20    5.2000   227.7087  234.1792    2.7150 
1184.30    5.2505   229.2793  233.5356    2.7502 
1184.40    5.3495   229.5125  231.8749    2.8125 
1184.50    5.2000   229.3020  230.0905    2.8099 
1184.60    5.2000   229.0089  228.4756    2.7876 
1184.70    5.2252   227.6399  226.9114    2.8554 
1184.80    5.3253   226.2373  225.7341    3.0229 
1184.90    5.4000   225.1759  225.5053    3.1301 
1185.00    5.3747   223.9427  225.5648    3.1929 
1185.10    5.3253   222.8636  225.5301    3.2875 
1185.20    5.3748   222.7589  225.6155    3.2371 
1185.30    5.2747   222.1523  225.8862    3.0645 
1185.40    5.2000   220.5474  226.3112    2.8795 
1185.50    5.2505   219.6809  226.8675    2.7174 
1185.60    5.4000   219.4875  227.7978    2.7053 
1185.70    5.4252   217.7438  228.6761    2.8103 
1185.80    5.4747   215.9311  229.0604    2.9303 
1185.90    5.4000   214.8802  229.2255    2.9973 
1186.00    5.4253   212.8041  229.3600    2.9376 
1186.10    5.4747   209.6057  229.3651    2.9726 
1186.20    5.4000   207.3629  229.5163    3.0226 
1186.30    5.3495   205.6784  230.1323    3.0777 
1186.40    5.2505   203.1685  230.9319    3.1401 
1186.50    5.4000   201.0587  231.5815    3.1902 
1186.60    5.4000   199.6171  232.1163    3.2601 
1186.70    5.4000   197.7331  232.5357    3.3026 
1186.80    5.3747   196.2563  232.6336    3.3274 
1186.90    5.3758   195.4146  232.0983    3.2849 
1187.00    5.6253   194.1995  231.4532    3.2877 
1187.10    5.7253   193.4013  230.7881    3.3476 
1187.20    5.8505   193.2954  230.1033    3.4079 
1187.30    6.0000   192.5562  229.5547    3.5756 
1187.40    6.0505   191.7583  229.4800    3.7981 
1187.50    6.1747   191.0642  229.4699    3.9144 
1187.60    6.1000   189.7993  229.4046    3.7399 
1187.70    6.1505   188.5973  229.2849    3.6848 
1187.80    6.3253   187.9622  229.2349    3.5999 
1187.90    6.3242   187.2253  229.2554    3.6281 
