~Version information
VERS.                            2.00: CWLS LAS  -  VERSION 2.00
WRAP.                              NO: One line per depth step
~Well information
#MNEM.UNIT                  DATA TYPE  INFORMATION
#===.================================:==================
STRT.M                          0.000: First depth in file
STOP.M                       3287.330: Last depth in file
STEP.M                          0.200: Depth increment
NULL.                       -9999.00 : Null values
DATE.                      : LOG DATE
TIME.                           16:56: LOG TIME
WELL.                             F1: Well name
GRP.                                1: Group name
FLD.                    F: Field name
ISS.                     окон.каротаж: Well surveys
SRVC.                                : Service Company
~Curve information
#MNEM.UNIT                   API CODE   CURVE DESCRIPTION
#===.================================:==================
DEPT.M                               : Depth curve
GK   ok.MKR/H                        : :11 Гамма-активность, мкр./ч -   67.0 
NKT2  ok.PRIV                        : :13 Малый зонд приведенный,  -  230.0 
NKT1  ok.PRIV                        : :14 Большой зонд приведенный,  -  219.
W  ok.PERC                           : :12 Водонасыщенная пористость, % -  22
#
~Other information
#------------------ REMARKS AREA -----------------------
#=======================================================
# The file is generated by the program GeoTech-EditLog v2000.12
#Number of Curves = 4
~A Log Data Section
# ...
1738.40    3.1773    1.9840    3.0864   23.5270 
1738.60    3.5252    1.9400    3.0137   24.2342 
1738.80    3.2239    1.9519    3.0463   24.9995 
1739.00    3.4354    2.0040    2.8760   26.4830 
1739.20    3.0454    1.9840    2.7702   27.0273 
1739.40    3.1828    1.9561    2.7763   26.6318 
1739.60    3.3006    1.9181    2.7061   26.5143 
1739.80    2.9788    1.9599    2.9376   25.3041 
1740.00    2.6419    2.0200    3.1719   24.2824 
1740.20    2.7241    2.0300    3.0462   24.7096 
1740.40    2.7496    2.0001    3.0400   24.5964 
1740.60    3.0512    1.9919    3.0042   25.2688 
1740.80    3.0170    2.0060    2.9881   25.6199 
1741.00    2.8382    2.0400    3.0039   25.3788 
1741.20    3.2637    2.0440    3.0363   24.8599 
1741.40    2.8382    1.9940    3.0137   24.7028 
1741.60    2.6531    1.9821    2.9863   25.1682 
1741.80    2.4903    2.0019    3.0116   25.5889 
1742.00    2.5039    2.0119    3.0322   25.5714 
1742.20    2.5596    2.0240    2.8560   25.4977 
1742.40    2.6906    1.9881    3.0239   24.0177 
1742.60    2.6599    1.9600    3.0399   23.7404 
1742.80    3.0237    1.9700    3.0936   23.4270 
1743.00    3.0810    1.9721    3.1503   23.5624 
1743.20    3.0428    1.9420    2.9862   24.9963 
1743.40    2.9282    1.9300    2.8421   25.7734 
1743.60    2.9019    1.9519    2.8121   25.7574 
1743.80    3.1870    1.9440    2.9482   24.7543 
1744.00    3.0376    1.9719    3.0500   24.4618 
1744.20    3.2989    2.0100    3.0978   24.2529 
1744.40    2.7182    2.0060    3.0919   24.4614 
1744.60    2.6694    1.9819    2.9700   25.4245 
1744.80    2.9336    2.0021    3.0139   25.0889 
1745.00    2.8343    2.0619    3.1179   24.2119 
1745.20    2.8476    2.0440    3.1620   23.7748 
1745.40    3.0822    1.9263    2.9507   24.0678 
1745.60    3.4129    1.7822    2.6006   25.5251 
1745.80    4.1806    1.6401    2.3188   27.6040 
1746.00    4.4776    1.5740    2.1081   29.1519 
1746.20    4.7572    1.6060    2.2759   28.3382 
1746.40    4.4784    1.6937    2.3861   28.4534 
1746.60    4.5194    1.7640    2.4737   28.1009 
1746.80    4.3158    1.8439    2.6976   27.5027 
1747.00    3.5597    1.9239    2.6719   27.9181 
1747.20    3.4361    1.9520    2.6957   27.0611 
1747.40    3.5748    1.9460    2.9037   24.5682 
1747.60    3.5084    1.9081    2.9403   24.6024 
1747.80    3.6764    1.9100    2.7943   25.1363 
1748.00    3.8401    1.7863    2.6606   25.3890 
1748.20    3.9576    1.6800    2.3262   27.8043 
1748.40    4.1255    1.6939    2.4496   27.9289 
1748.60    4.3057    1.7379    2.3878   28.3148 
1748.80    4.1500    1.7621    2.4884   27.5609 
1749.00    4.1576    1.7919    2.5540   27.9036 
1749.20    4.1527    1.8779    2.6800   26.9676 
1749.40    4.3758    1.8701    2.7260   26.2379 
1749.60    4.0807    1.8640    2.7757   25.6873 
1749.80    4.0169    1.8600    2.7381   26.2090 
1750.00    4.3830    1.8700    2.7621   26.4534 
1750.20    4.3382    1.9279    2.8259   26.7659 
1750.40    4.0545    1.9600    2.7799   26.8549 
1750.60    3.8812    1.9421    2.8040   26.5422 
1750.80    4.3515    1.8384    2.5024   27.1566 
1751.00    5.1691    1.6981    2.3463   28.6994 
1751.20    4.9889    1.6920    2.2579   29.6967 
1751.40    4.9311    1.7399    2.3639   28.6901 
1751.60    4.8186    1.7700    2.4958   27.4931 
1751.80    4.4312    1.7660    2.4881   27.5751 
1752.00    4.0940    1.7800    2.5601   26.9857 
1752.20    3.9834    1.7699    2.4821   27.5098 
1752.40    3.7761    1.8599    2.6861   26.4267 
1752.60    3.8437    1.9119    2.7663   25.4315 
1752.80    3.8818    1.8961    2.8881   23.7259 
1753.00    4.0415    1.7921    2.7943   24.3578 
1753.20    4.1055    1.7680    2.6280   25.6851 
1753.40    4.2515    1.8119    2.7281   25.4861 
1753.60    4.3960    1.8460    2.7179   25.2530 
1753.80    4.2433    1.8281    2.8300   24.8708 
1754.00    4.0863    1.8758    2.8000   25.3722 
1754.20    3.9532    1.9998    3.0974   23.7072 
1754.40    3.5542    2.1916    3.7611   20.5193 
1754.60    3.4189    2.3101    4.2418   18.0574 
1754.80    3.4629    2.1701    3.9285   18.8400 
1755.00    3.6585    1.9943    3.4166   20.8087 
1755.20    4.5532    1.8680    2.9046   23.4515 
1755.40    4.9186    1.8379    2.9176   23.3261 
1755.60    4.4648    1.7782    2.8482   23.7135 
1755.80    4.2896    1.7581    2.6185   25.9642 
1756.00    4.3143    1.7121    2.4000   27.5887 
1756.20    4.5237    1.7079    2.3699   28.1318 
1756.40    4.3858    1.6981    2.3619   28.4093 
1756.60    4.5799    1.7479    2.4399   28.4870 
1756.80    4.6915    1.8040    2.5399   27.6489 
1757.00    4.4157    1.8599    2.6318   27.0019 
1757.20    4.3535    1.9239    2.7521   26.1750 
1757.40    4.0340    1.9500    2.9136   24.9544 
1757.60    3.9093    1.9221    2.8982   25.0472 
1757.80    3.9696    1.8881    2.7585   25.4075 
1758.00    4.0243    1.8579    2.7581   25.4706 
1758.20    4.2160    1.9179    2.9278   24.6033 
1758.40    3.7148    1.9760    3.0860   23.9146 
1758.60    4.0772    1.9301    2.9161   24.3212 
1758.80    4.0991    1.8242    2.7124   25.6032 
1759.00    3.7037    1.7900    2.5721   26.7914 
1759.20    3.6641    1.8160    2.5837   26.4340 
1759.40    4.0424    1.8360    2.7584   25.8747 
1759.60    3.9851    1.8360    2.6840   26.9351 
1759.80    3.9811    1.8779    2.6521   27.0289 
1760.00    4.0257    1.8900    2.7976   26.1831 
1760.20    4.3952    1.9260    2.7502   26.4056 
1760.40    3.9499    1.9200    2.7799   25.9933 
1760.60    3.8119    1.9081    2.8737   25.1285 
1760.80    3.9048    1.8840    2.8681   25.6441 
1761.00    4.0737    1.8960    2.6984   27.1279 
1761.20    4.1444    1.8840    2.6680   27.1380 
1761.40    3.6404    1.9258    2.7200   26.6531 
1761.60    3.4566    1.9640    2.8858   24.7741 
1761.80    3.8262    1.9201    2.8881   24.0148 
1762.00    3.8849    1.8979    3.0419   23.4299 
1762.20    3.4995    1.9120    3.0401   24.0227 
1762.40    3.6722    1.9360    2.8603   25.0867 
1762.60    3.5710    1.9161    2.8899   24.5128 
1762.80    3.2321    1.8800    2.8563   24.7703 
1763.00    3.0630    1.8681    2.7722   25.6605 
1763.20    3.2298    1.8320    2.7239   26.3491 
1763.40    3.0197    1.9219    2.8099   26.6563 
1763.60    3.0275    1.9360    2.7740   26.8173 
1763.80    3.2804    1.9521    2.8097   26.4573 
1764.00    3.0261    1.9500    2.7737   25.8970 
1764.20    3.1198    1.9240    2.8761   24.8205 
1764.40    3.4373    1.9300    2.9622   24.2996 
1764.60    3.4130    1.8981    2.8739   24.7797 
1764.80    3.4704    1.8521    2.7025   25.8087 
1765.00    3.2884    1.8179    2.6800   26.3304 
1765.20    2.9360    1.8520    2.6478   26.6629 
1765.40    3.2590    1.8739    2.7997   25.8470 
1765.60    2.9749    1.9119    2.8657   25.1530 
1765.80    2.9721    1.9400    2.8882   24.9791 
1766.00    3.0190    1.8821    2.7406   26.1093 
1766.20    2.9602    1.9039    2.7838   25.6460 
1766.40    3.0903    1.9360    2.9700   24.8185 
1766.60    3.2233    1.9400    2.8501   25.1996 
1766.80    3.0471    1.8861    2.8460   24.6770 
1767.00    3.2133    1.8421    2.8136   24.4177 
1767.20    3.2499    1.8160    2.8640   25.1400 
1767.40    3.5519    1.8918    2.8179   26.1061 
1767.60    3.7912    1.9340    2.7906   26.3621 
1767.80    3.7896    1.8821    2.6679   26.5931 
1768.00    3.8506    1.8600    2.7079   26.5266 
1768.20    4.0478    1.8679    2.5962   26.9198 
1768.40    4.0876    1.8460    2.6897   26.0652 
1768.60    4.0400    1.8381    2.6724   26.5302 
1768.80    4.1031    1.8081    2.5663   27.5405 
1769.00    4.2929    1.7840    2.4199   27.6956 
1769.20    4.3382    1.7540    2.5278   26.9470 
1769.40    4.5896    1.7819    2.5818   27.0060 
1769.60    4.0825    1.8658    2.6616   26.7485 
1769.80    3.4185    1.9560    2.9018   24.6313 
1770.00    3.3578    1.9440    3.0324   23.8645 
1770.20    3.7221    1.8961    2.9678   24.8206 
1770.40    3.3497    1.9079    2.7899   26.4011 
1770.60    3.0885    2.0079    2.8957   25.5368 
1770.80    2.7885    1.9661    3.0021   24.5936 
1771.00    2.7619    1.9521    2.9781   24.9408 
