~Version information
VERS.                            2.00: CWLS LAS  -  VERSION 2.00
WRAP.                              NO: One line per depth step
~Well information
#MNEM.UNIT                  DATA TYPE  INFORMATION
#===.================================:==================
STRT.M                          0.000: First depth in file
STOP.M                       3287.330: Last depth in file
STEP.M                          0.200: Depth increment
NULL.                       -9999.00 : Null values
DATE.                      : LOG DATE
TIME.                           16:56: LOG TIME
WELL.                             F1: Well name
GRP.                                1: Group name
FLD.                    F: Field name
ISS.                     окон.каротаж: Well surveys
SRVC.                                : Service Company
~Curve information
#MNEM.UNIT                   API CODE   CURVE DESCRIPTION
#===.================================:==================
DEPT.M                               : Depth curve
GK   ok.MKR/H                        : :11 Гамма-активность, мкр./ч -   67.0 
NKT2  ok.PRIV                        : :13 Малый зонд приведенный,  -  230.0 
NKT1  ok.PRIV                        : :14 Большой зонд приведенный,  -  219.
W  ok.PERC                           : :12 Водонасыщенная пористость, % -  22
#
~Other information
#------------------ REMARKS AREA -----------------------
#=======================================================
# The file is generated by the program GeoTech-EditLog v2000.12
#Number of Curves = 4
~A Log Data Section
# ...
1935.20    2.6392    2.1000    3.1803   24.7148 
1935.40    2.5990    2.0800    3.1346   25.5433 
1935.60    2.5797    2.0298    2.8337   27.0091 
1935.80    2.8968    1.7888    2.2983   29.1647 
1936.00    3.2433    1.4896    1.7990   33.7863 
1936.20    3.6960    1.4651    1.7801   34.2644 
1936.40    3.8846    1.4200    1.6291   36.1937 
1936.60    3.8611    1.4000    1.6001   37.3207 
1936.80    4.4532    1.4805    1.7152   37.5085 
1937.00    4.7591    1.6805    2.0060   34.3623 
1937.20    4.8043    1.7552    2.2451   31.0866 
1937.40    4.9237    1.7363    2.2637   30.8788 
1937.60    5.2715    1.6936    2.2044   31.6215 
1937.80    4.9006    1.5922    1.8406   35.0331 
1938.00    4.7239    1.5078    1.7690   36.0588 
1938.20    4.7455    1.6200    1.9307   33.4952 
1938.40    4.9672    1.6165    2.0226   32.9932 
1938.60    4.9121    1.7226    2.1515   31.6490 
1938.80    5.0646    1.7313    2.2916   29.3788 
1939.00    5.2493    1.7626    2.4290   28.8703 
1939.20    5.2361    1.7961    2.4615   29.5960 
1939.40    5.1925    1.7435    2.2109   31.0339 
1939.60    4.6426    1.5949    1.9921   32.2962 
1939.80    3.4942    1.4671    1.6745   34.8373 
1940.00    2.0259    1.3326    1.5022   38.0870 
1940.20    1.3496    1.3674    1.4904   38.6752 
1940.40    1.0367    1.3939    1.5352   39.4295 
1940.60    0.7313    1.4362    1.5287   39.8864 
1940.80    0.7881    1.4087    1.4548   40.8762 
1941.00    1.0374    1.3861    1.4539   40.6736 
1941.20    0.9522    1.3826    1.4713   41.2745 
1941.40    0.9694    1.4100    1.4365   40.8725 
1941.60    1.0664    1.3787    1.4285   41.1423 
1941.80    1.1399    1.3813    1.4265   41.1478 
1942.00    0.8871    1.3861    1.4287   40.4901 
1942.20    0.8191    1.3261    1.3478   40.4027 
1942.40    1.0968    1.2874    1.4048   39.7965 
1942.60    1.3664    1.2751    1.3015   42.6569 
1942.80    2.2115    1.3365    1.4229   41.4796 
1943.00    3.7588    1.4842    1.6136   39.3568 
1943.20    3.9887    1.6816    2.0059   34.3796 
1943.40    4.3672    1.7700    2.1816   31.6273 
1943.60    4.1433    1.7172    2.2156   30.3544 
1943.80    4.1479    1.5009    1.8319   33.5512 
1944.00    3.9688    1.4390    1.6539   37.5213 
1944.20    4.3111    1.5265    1.7600   36.3681 
1944.40    4.4689    1.5435    1.7787   34.3017 
1944.60    4.1974    1.4636    1.6690   35.2959 
1944.80    4.0900    1.4416    1.7007   36.0087 
1945.00    4.4224    1.6016    2.0052   33.9218 
1945.20    4.7788    1.7284    2.0465   32.0878 
1945.40    4.6518    1.5774    1.9978   31.8240 
1945.60    4.7708    1.6415    2.0421   32.1538 
1945.80    4.2909    1.8178    2.4637   28.7693 
1946.00    4.0743    1.8852    2.7752   26.9049 
1946.20    3.0738    2.0065    2.9448   26.9080 
1946.40    3.0420    2.1187    3.0178   25.7665 
1946.60    3.2531    2.0849    3.0859   24.2574 
1946.80    3.7548    1.9784    2.9822   23.2138 
1947.00    4.3203    1.8287    2.9326   22.9249 
1947.20    3.6604    1.8726    2.9742   23.0998 
1947.40    3.6681    1.9113    3.1391   22.1022 
1947.60    4.0805    1.9300    3.1462   22.2400 
1947.80    3.9520    1.9100    3.0942   22.7211 
1948.00    4.5597    1.8826    3.0235   23.8470 
1948.20    4.5601    1.9100    2.8832   25.4708 
1948.40    3.9563    1.9391    2.9187   25.7243 
1948.60    3.5021    2.0251    3.1487   24.9585 
1948.80    3.6329    2.0913    3.1409   24.9871 
1949.00    3.7594    2.0648    3.0403   24.4092 
1949.20    3.7211    2.0287    3.1835   23.4351 
1949.40    3.6545    2.0213    3.2678   22.8793 
1949.60    3.3777    2.0964    3.3364   22.2044 
1949.80    3.2212    2.1804    3.8286   19.2330 
1950.00    2.8564    2.3655    4.7395   15.8435 
1950.20    2.6828    2.5365    5.5427   13.3126 
1950.40    2.7816    2.6265    6.2520   11.9425 
1950.60    2.7397    2.7138    6.4977   11.3267 
1950.80    2.6781    2.7600    6.8826   10.6106 
1951.00    2.5726    2.7074    6.6832   10.7804 
1951.20    2.4858    2.5784    6.2385   12.1427 
1951.40    2.6702    2.3645    4.9727   14.8910 
1951.60    2.7162    2.1623    4.0941   18.0628 
1951.80    3.4826    2.0074    3.5125   20.9410 
1952.00    3.5662    1.9826    3.2545   23.2292 
1952.20    3.6022    2.0413    3.1368   24.1141 
1952.40    3.3198    2.0826    3.2416   23.6976 
1952.60    3.6926    2.0949    3.2200   23.5400 
1952.80    3.8337    2.0187    3.0874   23.9191 
1953.00    3.8896    1.9774    3.0274   24.2006 
1953.20    3.4484    1.9348    2.9886   24.6014 
1953.40    4.1849    1.8509    2.6313   26.2209 
1953.60    5.0205    1.7074    2.4108   27.7005 
1953.80    5.4467    1.6561    2.2339   28.6933 
1954.00    4.9305    1.6274    2.2348   29.3546 
1954.20    4.0289    1.6026    2.1374   31.0075 
1954.40    3.8615    1.6829    2.1916   31.8040 
1954.60    3.2121    1.8390    2.4928   30.0974 
1954.80    2.5505    1.8732    2.3815   29.3151 
1955.00    1.8067    1.5219    1.8825   32.8143 
1955.20    1.8152    1.3774    1.5022   37.9085 
1955.40    1.8137    1.3626    1.4900   38.5208 
1955.60    2.4051    1.3764    1.6100   37.8356 
1955.80    3.6202    1.4816    1.6720   37.3172 
1956.00    4.6914    1.6503    1.9462   33.2187 
1956.20    5.0006    1.8052    2.4549   28.0395 
1956.40    4.9595    1.8952    2.9307   24.7013 
1956.60    5.3018    1.9249    3.0182   24.3731 
1956.80    4.9520    1.9087    2.8545   25.3520 
1957.00    4.9284    1.8952    2.8935   25.2448 
1957.20    5.2591    1.9513    2.9352   24.7518 
1957.40    5.1909    1.9713    3.1267   24.4293 
1957.60    5.1769    2.0038    2.9903   25.0210 
1957.80    5.4287    1.9722    2.9815   24.8668 
1958.00    5.7689    1.8874    2.7422   26.6585 
1958.20    5.5533    1.8687    2.6400   27.5800 
1958.40    5.4902    1.8674    2.6200   27.6488 
1958.60    5.3241    1.8362    2.5623   28.4164 
1958.80    5.2407    1.7748    2.3206   30.4553 
1959.00    5.2784    1.6961    2.1039   32.1665 
1959.20    4.6641    1.6261    1.9919   33.5465 
1959.40    4.9143    1.5874    1.8613   34.4908 
1959.60    4.3949    1.5890    1.9751   33.4980 
1959.80    4.6088    1.7574    2.2042   30.2733 
1960.00    5.0340    1.7287    2.4871   27.8513 
1960.20    5.4539    1.7313    2.4474   27.9224 
1960.40    5.3219    1.7574    2.3504   28.3398 
1960.60    5.3572    1.7749    2.4703   27.2997 
1960.80    5.4552    1.7752    2.5261   27.5957 
1961.00    4.9984    1.7813    2.4787   28.2423 
1961.20    4.6213    1.7987    2.4735   28.3274 
1961.40    4.9235    1.8035    2.4645   27.9974 
1961.60    4.5618    1.6974    2.3659   28.3726 
1961.80    4.8387    1.6474    2.2171   30.0707 
1962.00    4.3765    1.6239    2.0490   31.7890 
1962.20    4.6234    1.6652    2.1204   31.0705 
1962.40    4.0154    1.7178    2.3265   29.8775 
1962.60    3.9600    1.7862    2.3864   28.6854 
1962.80    4.1859    1.7352    2.4852   27.5400 
1963.00    4.6990    1.8139    2.5742   27.0156 
1963.20    4.4785    1.8774    2.6891   25.8246 
1963.40    5.6642    1.8348    2.7635   24.7204 
1963.60    5.6218    1.7926    2.7313   25.1644 
1963.80    5.1215    1.8778    2.8220   25.2098 
1964.00    4.6019    1.9826    3.0742   23.8309 
1964.20    4.2224    1.9952    3.1887   23.1587 
1964.40    4.5285    2.0100    3.1284   23.3719 
1964.60    4.8577    1.9487    3.0287   23.4556 
1964.80    4.7345    1.9035    2.9980   23.6582 
1965.00    4.5623    1.8261    2.7458   25.1305 
1965.20    4.7624    1.7887    2.6787   25.6453 
1965.40    4.7909    1.7926    2.6452   26.3069 
1965.60    4.9495    1.8638    2.7251   26.4967 
1965.80    4.9212    1.9039    2.8291   25.9196 
1966.00    4.3067    1.9826    2.9374   25.6332 
1966.20    3.9545    1.9848    2.9745   25.1542 
1966.40    4.4953    1.8922    2.7132   26.0774 
1966.60    4.9169    1.7649    2.4508   27.6059 
1966.80    4.8374    1.6874    2.3139   28.4472 
1967.00    4.2639    1.7103    2.4990   28.1652 
1967.20    4.4745    1.8226    2.4707   27.9941 
1967.40    4.3399    1.8391    2.7455   26.3808 
1967.60    4.1287    1.9838    2.9426   25.9231 
1967.80    4.2134    2.0500    3.0722   24.7147 
