~Version information
VERS.                            2.00: CWLS LAS  -  VERSION 2.00
WRAP.                              NO: One line per depth step
~Well information
#MNEM.UNIT                  DATA TYPE  INFORMATION
#===.================================:==================
STRT.M                          0.000: First depth in file
STOP.M                       3287.330: Last depth in file
STEP.M                          0.200: Depth increment
NULL.                       -9999.00 : Null values
DATE.                      : LOG DATE
TIME.                           16:56: LOG TIME
WELL.                             F1: Well name
GRP.                                1: Group name
FLD.                    F: Field name
ISS.                     окон.каротаж: Well surveys
SRVC.                                : Service Company
~Curve information
#MNEM.UNIT                   API CODE   CURVE DESCRIPTION
#===.================================:==================
DEPT.M                               : Depth curve
GK   ok.MKR/H                        : :11 Гамма-активность, мкр./ч -   67.0 
NKT2  ok.PRIV                        : :13 Малый зонд приведенный,  -  230.0 
NKT1  ok.PRIV                        : :14 Большой зонд приведенный,  -  219.
W  ok.PERC                           : :12 Водонасыщенная пористость, % -  22
#
~Other information
#------------------ REMARKS AREA -----------------------
#=======================================================
# The file is generated by the program GeoTech-EditLog v2000.12
#Number of Curves = 4
~A Log Data Section
# ...
 656.00    2.2831    1.0164    1.1251   37.2431 
 656.20    2.1036    1.0300    1.1800   36.7505 
 656.40    1.9535    1.0207    1.1864   37.6994 
 656.60    2.3135    1.0264    1.0964   39.5377 
 656.80    2.2336    1.0200    1.0936   39.2116 
 657.00    2.1633    1.0164    1.0993   39.0284 
 657.20    2.1456    1.0300    1.1529   39.5543 
 657.40    1.9940    1.0393    1.0664   40.4948 
 657.60    2.0440    1.0436    1.1600   38.5580 
 657.80    2.3639    1.0436    1.1207   39.0147 
 658.00    2.2226    1.0036    1.0255   40.6967 
 658.20    2.2034    0.9993    1.0609   39.2510 
 658.40    2.0459    0.9871    1.0684   38.2666 
 658.60    2.0440    1.0000    1.1645   37.8414 
 658.80    2.0464    1.0164    1.1193   39.4018 
 659.00    2.0001    1.0336    1.0529   40.6844 
 659.20    2.1140    1.0464    1.1722   38.4681 
 659.40    2.2492    1.0436    1.1200   39.0592 
 659.60    2.1768    1.0436    1.1393   37.9193 
 659.80    2.3132    1.0300    1.1858   36.6861 
 660.00    2.4842    1.0429    1.2058   37.3550 
 660.20    2.4266    1.0500    1.1591   39.9210 
 660.40    2.2436    1.0507    1.1500   40.4954 
 660.60    2.3500    1.0436    1.0564   42.1108 
 660.80    2.3795    1.0429    1.0264   42.7029 
 661.00    2.3502    1.0236    1.0880   40.2360 
 661.20    2.2150    1.0200    1.1071   40.3978 
 661.40    2.3604    1.0236    1.0178   41.7616 
 661.60    2.2034    1.0236    1.0945   39.9575 
 661.80    2.3659    1.0336    1.1180   38.0435 
 662.00    2.2470    1.0036    1.1500   36.5634 
 662.20    2.4393    1.0229    1.1842   36.7395 
 662.40    2.1573    1.0264    1.1707   37.8563 
 662.60    2.2464    1.0371    1.1520   37.9240 
 662.80    2.2934    1.0436    1.1629   37.7561 
 663.00    2.4270    1.0364    1.1278   37.4659 
 663.20    2.2653    1.0171    1.1478   36.9990 
 663.40    2.2545    1.0236    1.1771   37.1264 
 663.60    2.3996    1.0371    1.1807   37.2784 
 663.80    2.2704    1.0364    1.1471   38.1135 
 664.00    2.2712    1.0429    1.1371   39.6855 
 664.20    2.3558    1.0564    1.1329   40.0399 
 664.40    2.2660    1.0564    1.1178   40.4372 
 664.60    2.2408    1.0436    1.0807   39.9637 
 664.80    2.4758    1.0436    1.1587   38.1514 
 665.00    2.2965    1.0400    1.1278   38.6263 
 665.20    2.2855    1.0436    1.1522   38.4036 
 665.40    2.2134    1.0400    1.1664   37.6465 
 665.60    2.3169    1.0236    1.1542   38.6726 
 665.80    2.3436    1.0393    1.1442   40.4269 
 666.00    2.3828    1.0729    1.0900   41.3807 
 666.20    2.4739    1.0507    1.0993   39.1273 
 666.40    2.2399    1.0764    1.2574   35.3384 
 666.60    2.2396    1.0664    1.2758   35.3558 
 666.80    2.2441    1.0700    1.2036   36.6705 
 667.00    2.3970    1.0507    1.1842   36.1896 
 667.20    2.2235    1.0564    1.2516   34.9810 
 667.40    2.2000    1.0464    1.1991   36.3706 
 667.60    2.2299    1.0564    1.2071   37.4689 
 667.80    2.4330    1.0600    1.1845   36.8194 
 668.00    2.2860    1.0536    1.2664   36.0210 
 668.20    2.2442    1.0600    1.1764   36.9265 
 668.40    2.1595    1.0736    1.2316   35.3065 
 668.60    2.3236    1.0307    1.2407   34.9811 
 668.80    2.1858    1.0100    1.1458   36.5966 
 669.00    2.1260    1.0300    1.2422   36.4064 
 669.20    2.0774    1.0500    1.1607   38.1042 
 669.40    2.2496    1.0436    1.1549   38.9343 
 669.60    2.0038    1.0564    1.1687   39.0795 
 669.80    2.2839    1.0471    1.1703   37.7160 
 670.00    2.3525    1.0500    1.2000   37.0566 
 670.20    1.9840    1.0564    1.1629   38.0536 
 670.40    2.2570    1.0500    1.1671   37.8849 
 670.60    2.0109    1.0464    1.1507   38.1161 
 670.80    2.2666    1.0371    1.1616   37.3304 
 671.00    2.3329    1.0171    1.1436   38.1682 
 671.20    2.3300    1.0464    1.1584   39.5301 
 671.40    2.4531    1.0793    1.1358   41.6312 
 671.60    2.2901    1.0636    1.0880   41.5311 
 671.80    2.1966    1.0693    1.0936   39.4004 
 672.00    2.2195    1.0636    1.2074   37.1852 
 672.20    2.3736    1.0729    1.1842   37.7231 
 672.40    2.4095    1.0542    1.2071   36.8064 
 672.60    2.3096    1.0600    1.1829   37.4277 
 672.80    2.1846    1.0636    1.1842   37.2305 
 673.00    2.3760    1.0436    1.1987   37.5417 
 673.20    2.3928    1.0664    1.2032   36.3292 
 673.40    2.3474    1.0671    1.2436   35.1548 
 673.60    2.4280    1.0736    1.2649   36.1726 
 673.80    2.2065    1.0936    1.1942   36.9963 
 674.00    2.2040    1.0929    1.3300   35.6048 
 674.20    2.4002    1.1000    1.2707   35.6295 
 674.40    2.3104    1.0864    1.2764   35.5325 
 674.60    2.3997    1.0864    1.2736   35.4674 
 674.80    2.3129    1.1029    1.2636   36.3146 
 675.00    2.5435    1.1300    1.2971   35.9958 
 675.20    2.4196    1.1436    1.3229   34.8481 
 675.40    2.5090    1.1107    1.3800   34.9458 
 675.60    2.4264    1.1393    1.3213   36.6501 
 675.80    2.3798    1.1593    1.2800   37.5424 
 676.00    2.3574    1.1564    1.2958   36.1030 
 676.20    2.3772    1.1229    1.3136   35.6546 
 676.40    2.5870    1.1136    1.2849   36.4716 
 676.60    2.3830    1.1164    1.2864   37.0035 
 676.80    2.3176    1.1371    1.2778   37.1089 
 677.00    2.5334    1.1129    1.2658   37.3008 
 677.20    2.1028    1.1271    1.2925   36.4857 
 677.40    1.9273    1.1329    1.2578   37.1651 
 677.60    2.1087    1.1171    1.2213   36.9322 
 677.80    2.5036    1.1071    1.2400   36.2828 
 678.00    2.4642    1.1036    1.2864   34.8445 
 678.20    2.3706    1.1000    1.3193   34.5967 
 678.40    2.4268    1.0736    1.2833   36.8855 
 678.60    2.4168    1.0764    1.1636   39.4638 
 678.80    2.4193    1.0771    1.1551   38.1328 
 679.00    2.3228    1.0864    1.2680   35.7368 
 679.20    2.2833    1.0964    1.2907   35.2530 
 679.40    2.3801    1.1093    1.3129   36.0437 
 679.60    2.2261    1.1136    1.1891   37.9900 
 679.80    2.2300    1.0829    1.2236   38.5618 
 680.00    2.1800    1.1222    1.2122   38.5824 
 680.20    2.0535    1.1000    1.2642   37.5995 
 680.40    2.0638    1.1071    1.1913   38.2727 
 680.60    2.4999    1.1200    1.2529   37.0855 
 680.80    2.3762    1.0871    1.2707   37.2743 
 681.00    2.3439    1.1264    1.2307   38.2085 
 681.20    2.4626    1.1200    1.2529   37.8313 
 681.40    2.3810    1.1329    1.3087   37.7570 
 681.60    2.4470    1.1536    1.2445   37.7655 
 681.80    2.3928    1.1400    1.3007   36.7109 
 682.00    2.4439    1.1300    1.2958   36.7544 
 682.20    2.3001    1.1500    1.2736   36.3167 
 682.40    2.5340    1.1171    1.3297   35.5090 
 682.60    2.7691    1.1164    1.2484   37.3498 
 682.80    2.6865    1.1400    1.3087   35.8884 
 683.00    2.4674    1.1036    1.2520   36.7682 
 683.20    2.4518    1.1064    1.2392   37.5679 
 683.40    2.2014    1.1300    1.2800   37.3700 
 683.60    2.1795    1.1400    1.2800   36.4100 
 683.80    2.3714    1.1500    1.3100   36.3300 
 684.00    2.3330    1.1400    1.2800   37.2900 
 684.20    2.3660    1.1400    1.2600   37.6800 
 684.40    2.3600    1.1300    1.2500   38.3700 
 684.60    2.4267    1.1500    1.1900   39.4200 
 684.80    2.6397    1.1500    1.2400   38.1900 
 685.00    2.7340    1.1400    1.1900   38.5900 
 685.20    2.5247    1.1400    1.2500   37.2900 
 685.40    2.4306    1.1400    1.2600   37.3500 
 685.60    2.4484    1.1400    1.3500   35.9500 
 685.80    2.4196    1.1200    1.3200   36.2700 
 686.00    2.5366    1.1500    1.2800   37.2600 
 686.20    2.4083    1.1700    1.2400   36.6200 
 686.40    2.5510    1.1900    1.4200   34.5300 
 686.60    2.5805    1.1500    1.3300   35.8600 
 686.80    2.7247    1.1700    1.3200   36.4800 
 687.00    2.4993    1.1700    1.3200   34.7400 
 687.20    2.4434    1.1400    1.4300   33.2000 
 687.40    2.4270    1.1400    1.4000   34.0100 
 687.60    2.6853    1.1500    1.3900   35.2600 
 687.80    2.8403    1.1600    1.2900   37.0500 
 688.00    2.7243    1.1700    1.3100   35.5000 
 688.20    2.6440    1.1600    1.4300   34.1000 
 688.40    2.6417    1.1600    1.3400   34.9400 
 688.60    2.5765    1.1600    1.4500   33.1300 
