~Version information
VERS.                            2.00: CWLS LAS  -  VERSION 2.00
WRAP.                              NO: One line per depth step
~Well information
#MNEM.UNIT                  DATA TYPE  INFORMATION
#===.================================:==================
STRT.M                       1140.000: First depth in file
STOP.M                       1254.600: Last depth in file
STEP.M                          0.100: Depth increment
NULL.                       -9999.00 : Null values
DATE.                      : LOG DATE
TIME.                           11:12: LOG TIME
WELL.                             F1: Well name
GRP.                                 : Group name
FLD.                    F: Field name
ISS.                     окон.каротаж: Well surveys
SRVC.                                : Service Company
~Curve information
#MNEM.UNIT                   API CODE   CURVE DESCRIPTION
#===.================================:==================
DEPT.M                               : Depth curve
GZ3 .OHMM                            : :9 A2.0M0.5N, ќм*м - 1475.0 см
IK  .MSM/M                           : :14 » , м—м/м - 1961.0 см
PS  .MV                              : :16 ѕ—, м¬ - 1575.0 см
BK  .OHMM                            : :20 Ѕ , ќм*м - 1768.0 см
#
~Other information
#------------------ REMARKS AREA -----------------------
#=======================================================
# The file is generated by the program GeoTech-EditLog v2000.12
#Number of Curves = 4
~A Log Data Section
# ...
1188.00    6.0747   186.3546  229.4105    3.7798 
1188.10    6.0253   185.9067  229.6106    3.6897 
1188.20    6.0748   185.6264  229.7196    3.5520 
1188.30    6.0505   184.8028  229.4483    3.3898 
1188.40    6.2253   184.4296  228.7826    3.4185 
1188.50    6.3000   184.6153  227.9580    3.7204 
1188.60    6.2747   184.2292  227.3240    3.8046 
1188.70    6.2000   183.4853  227.0905    3.6647 
1188.80    6.1242   182.9893  227.4270    3.5827 
1188.90    5.9758   182.1763  228.2328    3.6525 
1189.00    6.1495   181.0363  229.2125    3.6726 
1189.10    5.9747   180.2402  230.0618    3.6974 
1189.20    5.9505   179.3845  230.6763    3.6524 
1189.30    6.0747   178.5969  230.9789    3.6982 
1189.40    6.0000   178.2265  230.4475    3.9581 
1189.50    6.0505   177.5499  229.5022    4.1704 
1189.60    6.2253   176.4749  228.4569    4.3052 
1189.70    6.3252   174.9297  227.2868    4.3399 
1189.80    6.4505   173.3912  226.1433    4.3100 
1189.90    6.6758   171.6730  225.5890    4.2948 
1190.00    6.9505   170.3374  225.2593    4.2424 
1190.10    7.1253   169.8504  225.0547    4.2200 
1190.20    7.2252   169.5274  224.9699    4.2377 
1190.30    7.2747   169.1609  224.9754    4.2698 
1190.40    7.2000   169.5965  225.1457    4.1266 
1190.50    7.1747   170.4716  225.4057    3.8396 
1190.60    7.0242   170.4762  225.6708    3.7276 
1190.70    6.8252   170.8022  225.9709    3.7828 
1190.80    6.9000   171.1640  226.2956    3.8648 
1190.90    6.9000   171.3501  226.4347    3.8427 
1191.00    6.8747   171.2480  226.3145    3.9707 
1191.10    6.8253   171.2076  226.1244    4.1500 
1191.20    6.8748   170.7937  225.9045    4.0667 
1191.30    6.7747   169.8945  225.7299    3.7947 
1191.40    6.7000   169.1739  225.7708    3.7807 
1191.50    6.7253   168.8334  226.1620    3.9726 
1191.60    6.8505   168.7076  226.8618    3.9974 
1191.70    7.0252   168.9609  227.4410    4.0004 
1191.80    7.1000   169.3452  227.5934    4.2085 
1191.90    7.1000   168.9408  226.9073    4.4826 
1192.00    7.1000   168.2181  225.7708    4.4467 
1192.10    7.0747   167.8078  224.2358    4.1845 
1192.20    6.9495   167.4989  222.7668    4.0222 
1192.30    6.8505   167.0091  221.6587    3.9071 
1192.40    7.0000   167.2867  221.2697    3.7974 
1192.50    6.9747   167.8597  221.2103    3.7600 
1192.60    6.9000   167.9512  221.3556    3.7651 
1192.70    6.9252   168.2254  221.5755    3.7674 
1192.80    6.9747   168.6488  221.8461    3.7123 
1192.90    6.8747   168.5850  222.2914    3.6802 
1193.00    6.8758   168.3730  222.8822    3.7804 
1193.10    7.0747   168.1461  223.7075    3.9076 
1193.20    7.0000   168.0499  224.5820    3.9250 
1193.30    6.9747   167.8232  225.1851    3.9555 
1193.40    6.9000   167.9830  225.0484    4.1102 
1193.50    6.9505   167.3939  224.3372    4.1371 
1193.60    7.0495   166.6064  223.2618    4.0324 
1193.70    6.8495   166.0068  222.1629    4.0428 
1193.80    6.7253   165.3213  221.5503    4.1703 
1193.90    6.8253   164.6088  221.8422    4.2777 
1194.00    6.9000   164.2591  222.7130    4.2946 
1194.10    6.9253   164.1627  223.8081    4.1546 
1194.20    7.0000   163.5710  224.8216    4.0576 
1194.30    6.9747   163.1924  225.2090    4.0370 
1194.40    6.9000   162.9609  224.4244    3.9151 
1194.50    6.8747   162.2795  222.2883    3.9351 
1194.60    6.8000   161.5809  219.8229    3.9323 
1194.70    6.8252   161.0910  217.2994    3.9052 
1194.80    6.9505   160.3050  215.1857    4.0002 
1194.90    7.1000   159.3781  214.0352    4.0651 
1195.00    7.1000   158.4898  214.1508    4.0851 
1195.10    7.1253   157.4738  214.4560    4.0773 
1195.20    7.2000   156.4889  214.8915    4.0226 
1195.30    7.2253   155.9316  215.5220    4.1030 
1195.40    7.3758   155.1280  216.2521    4.2073 
1195.50    7.5747   154.3640  217.0222    4.1021 
1195.60    7.5000   153.9820  217.8272    4.0026 
1195.70    7.4748   153.4024  218.5965    4.0047 
1195.80    7.4505   152.8445  219.1864    3.8722 
1195.90    7.6000   152.8623  219.6712    3.8052 
1196.00    7.6000   153.1904  220.0859    3.8829 
1196.10    7.6000   152.9960  220.4411    3.9648 
1196.20    7.6505   152.9665  220.8612    3.9049 
1196.30    7.8253   152.9146  221.3666    3.8726 
1196.40    7.9000   152.5690  221.9618    3.8923 
1196.50    7.8747   152.3851  222.6270    3.7844 
1196.60    7.8505   152.7968  223.4227    3.6175 
1196.70    8.0757   153.1868  224.3117    3.7413 
1196.80    8.2747   153.3074  224.8250    4.2463 
1196.90    8.2000   153.5596  224.6327    4.6456 
1197.00    8.2000   153.2288  223.6358    4.8378 
1197.10    8.2253   152.1544  222.0097    4.8998 
1197.20    8.3505   151.2257  220.0905    4.8324 
1197.30    8.5253   150.3869  218.3866    4.8302 
1197.40    8.5747   149.0492  217.3539    4.9001 
1197.50    8.5000   148.5163  217.1158    4.9123 
1197.60    8.5253   148.6383  217.4563    4.7867 
1197.70    8.6000   148.3616  217.9414    4.5397 
1197.80    8.5242   148.4161  218.4611    4.4273 
1197.90    8.3253   148.7818  218.8510    4.3802 
1198.00    8.4253   149.2994  219.1806    4.4425 
1198.10    8.4242   149.8291  219.3954    4.4348 
1198.20    8.2252   150.8189  219.5303    4.3875 
1198.30    8.3253   151.2259  219.6655    4.4002 
1198.40    8.3495   151.3342  219.8404    4.4853 
1198.50    8.2505   151.5560  219.9802    4.5322 
1198.60    8.3747   152.1183  220.0602    4.4171 
1198.70    8.2748   152.2897  220.1402    4.3377 
1198.80    8.2758   152.2062  220.2354    4.3976 
1198.90    8.4495   152.6425  220.4361    4.4048 
1199.00    8.2747   153.0641  220.9222    4.3853 
1199.10    8.1495   153.2171  221.7879    4.4853 
1199.20    8.0757   153.7940  222.9536    4.5650 
1199.30    8.2747   154.5380  224.3583    4.5598 
1199.40    8.2000   154.4304  225.3361    4.4773 
1199.50    8.2253   154.7251  225.4785    4.3620 
1199.60    8.3758   155.2659  224.8123    4.1720 
1199.70    8.6252   155.2633  223.7215    4.0477 
1199.80    8.7253   155.6391  222.3466    4.1834 
1199.90    8.7747   156.4835  221.2431    4.4199 
1200.00    8.7000   157.2697  220.6846    4.3622 
1200.10    8.6495   157.8269  220.6053    4.2396 
1200.20    8.5252   158.3248  220.6901    4.1074 
1200.30    8.5242   158.7218  220.7301    4.1205 
1200.40    8.3000   159.2153  220.7751    4.2927 
1200.50    8.1989   159.9576  220.8402    4.3549 
1200.60    7.8242   160.4780  220.9000    4.3400 
1200.70    7.5748   160.5679  220.9050    4.2895 
1200.80    7.5000   161.0715  220.9301    4.1122 
1200.90    7.5253   161.8317  220.9752    4.0578 
1201.00    7.6505   162.0256  221.0048    4.1425 
1201.10    7.8253   162.7055  220.9044    4.1525 
1201.20    7.8748   163.8903  220.6390    4.1701 
1201.30    7.8253   164.4186  220.2136    4.1469 
1201.40    7.8747   164.8249  219.6681    3.9496 
1201.50    7.7495   165.5435  218.9730    3.8022 
1201.60    7.6000   166.2677  218.2128    3.7200 
1201.70    7.6252   167.0059  217.4082    3.7680 
1201.80    7.6495   168.2405  216.6429    3.9707 
1201.90    7.4747   169.2204  215.8628    4.1803 
1202.00    7.4253   169.9507  215.0626    4.3003 
1202.10    7.5253   170.7516  214.1723    4.3597 
1202.20    7.6000   170.8642  213.2229    4.1993 
1202.30    7.6000   170.6324  212.3829    3.9369 
1202.40    7.6000   170.6394  211.6382    3.7674 
1202.50    7.6000   170.9747  211.0842    3.7174 
1202.60    7.5747   171.2990  210.8903    3.6674 
1202.70    7.5000   172.2250  211.1365    3.6224 
1202.80    7.5000   173.6281  211.7921    3.5975 
1202.90    7.3413   174.1977  212.6458    3.6789 
1203.00    6.9543   175.2193  213.6345    3.9339 
1203.10    7.0370   175.6505  214.4910    4.0283 
1203.20    7.1087   175.1354  215.2723    4.0272 
1203.30    7.0458   175.2219  215.9222    3.9863 
1203.40    7.1000   175.5130  216.5361    4.0066 
1203.50    7.2370   175.1790  217.1871    4.1413 
1203.60    7.4000   175.0532  218.0293    4.1998 
1203.70    7.4457   175.2160  218.9236    4.0121 
1203.80    7.4084   175.1335  219.7188    3.8600 
1203.90    7.3000   174.7708  220.5682    3.8554 
