~Version information
VERS.                            2.00: CWLS LAS  -  VERSION 2.00
WRAP.                              NO: One line per depth step
~Well information
#MNEM.UNIT                  DATA TYPE  INFORMATION
#===.================================:==================
STRT.M                       1140.000: First depth in file
STOP.M                       1254.600: Last depth in file
STEP.M                          0.100: Depth increment
NULL.                       -9999.00 : Null values
DATE.                      : LOG DATE
TIME.                           11:12: LOG TIME
WELL.                             F1: Well name
GRP.                                 : Group name
FLD.                    F: Field name
ISS.                     окон.каротаж: Well surveys
SRVC.                                : Service Company
~Curve information
#MNEM.UNIT                   API CODE   CURVE DESCRIPTION
#===.================================:==================
DEPT.M                               : Depth curve
GZ3 .OHMM                            : :9 A2.0M0.5N, ќм*м - 1475.0 см
IK  .MSM/M                           : :14 » , м—м/м - 1961.0 см
PS  .MV                              : :16 ѕ—, м¬ - 1575.0 см
BK  .OHMM                            : :20 Ѕ , ќм*м - 1768.0 см
#
~Other information
#------------------ REMARKS AREA -----------------------
#=======================================================
# The file is generated by the program GeoTech-EditLog v2000.12
#Number of Curves = 4
~A Log Data Section
# ...
1204.00    7.2543   174.6729  221.6206    3.8043 
1204.10    7.2000   174.8073  222.6875    3.6815 
1204.20    7.1543   175.1179  223.6675    3.5543 
1204.30    7.0542   176.0297  224.5388    3.5321 
1204.40    7.0000   177.1403  224.9400    3.6157 
1204.50    7.0000   177.6110  224.3737    3.6974 
1204.60    6.9087   177.8844  222.8415    3.7072 
1204.70    6.8457   178.1975  220.8519    3.6937 
1204.80    6.9000   177.5588  218.8575    3.7237 
1204.90    6.8543   176.2971  217.2655    3.7400 
1205.00    6.8000   175.4899  216.3773    3.7400 
1205.10    6.8000   174.5145  216.2239    3.6258 
1205.20    6.8000   173.1864  216.3822    3.4580 
1205.30    6.7542   172.4193  216.5533    3.4612 
1205.40    6.7915   171.5646  216.7223    3.5695 
1205.50    6.8087   170.3971  216.9844    3.7039 
1205.60    6.7457   169.8202  217.3901    3.8074 
1205.70    6.7087   169.1243  217.9870    3.8765 
1205.80    6.6000   167.4487  218.7755    3.9612 
1205.90    6.6915   165.7288  219.5218    4.0100 
1206.00    6.8000   164.0062  220.0992    4.0557 
1206.10    6.8000   162.0766  220.5883    4.1420 
1206.20    6.8000   160.3036  221.0518    4.1846 
1206.30    6.9374   158.8807  221.4632    4.2541 
1206.40    7.1000   157.7770  221.9635    4.3986 
1206.50    7.1913   157.0031  222.7201    4.4800 
1206.60    7.3000   156.3384  223.7041    4.4846 
1206.70    7.2543   155.4226  224.6088    4.5174 
1206.80    7.2000   154.5605  225.1832    4.5134 
1206.90    7.2457   154.2085  225.2811    4.3968 
1207.00    7.2543   153.6281  224.5463    4.3146 
1207.10    7.2457   153.0199  223.0089    4.3063 
1207.20    7.3913   153.2143  221.2437    4.3083 
1207.30    7.5000   153.2626  219.6423    4.3758 
1207.40    7.6372   152.9187  218.3004    4.4666 
1207.50    7.6173   153.0793  217.4225    4.5100 
1207.60    7.3543   153.0695  216.9756    4.4232 
1207.70    7.3000   152.5819  216.6156    4.2698 
1207.80    7.3000   152.4829  216.2369    4.2008 
1207.90    7.4372   152.6858  215.9285    4.1626 
1208.00    7.6000   152.4783  215.7652    4.0935 
1208.10    7.6000   152.3475  215.6726    4.0454 
1208.20    7.6913   152.5270  215.6400    4.1085 
1208.30    7.8458   152.7125  215.6949    4.2953 
1208.40    7.9000   153.0755  215.8332    4.4520 
1208.50    7.9457   153.5864  216.0022    4.4991 
1208.60    8.0457   153.7505  216.1913    4.4735 
1208.70    8.0543   153.4593  216.4370    4.4117 
1208.80    8.0916   153.0062  216.7557    4.3946 
1208.90    8.2000   152.7151  217.0863    4.4046 
1209.00    8.2000   152.5108  217.4609    4.3461 
1209.10    8.2000   152.3872  217.9283    4.1969 
1209.20    8.2000   152.6040  218.3644    4.1694 
1209.30    8.1542   152.9221  218.6699    4.3087 
1209.40    8.2372   153.2047  218.8823    4.4083 
1209.50    8.3087   153.6869  219.0531    4.3752 
1209.60    8.2457   154.0451  218.8751    4.2917 
1209.70    8.2087   153.9548  218.2312    4.2746 
1209.80    8.1916   154.0256  217.4828    4.2571 
1209.90    8.2543   154.1375  216.7307    4.2346 
1210.00    8.2000   153.9098  215.9473    4.2857 
1210.10    8.1087   153.9476  215.3887    4.3765 
1210.20    8.0913   154.3005  215.2709    4.4063 
1210.30    8.1542   154.4924  215.2692    4.3808 
1210.40    8.0543   154.4780  215.2251    4.3883 
1210.50    8.0000   154.5655  215.0869    4.4009 
1210.60    7.9543   154.4318  214.8995    4.4357 
1210.70    7.9000   154.0727  214.6247    4.3256 
1210.80    7.8542   153.9807  214.2843    4.0613 
1210.90    7.8000   154.0038  213.9720    3.9663 
1211.00    7.8457   153.9498  213.7195    3.9957 
1211.10    7.9000   154.2609  213.4447    4.1733 
1211.20    7.9913   154.7801  213.1230    4.3520 
1211.30    8.0542   154.6163  212.8226    4.3671 
1211.40    7.9543   154.2550  212.5411    4.3263 
1211.50    7.9000   154.2666  212.2721    4.2917 
1211.60    7.8543   154.0939  212.0926    4.2243 
1211.70    7.8913   153.6260  212.0874    4.1289 
1211.80    7.9542   153.4773  212.0467    4.0892 
1211.90    7.9457   153.5569  211.8594    4.1777 
1212.00    7.9543   153.6141  211.6213    4.3339 
1212.10    7.9913   153.7313  211.1786    4.4739 
1212.20    8.1457   153.9085  210.4364    4.5865 
1212.30    8.1542   153.8179  209.7053    4.5979 
1212.40    8.0085   153.6733  209.1422    4.5143 
1212.50    7.9000   153.2072  208.7139    4.4463 
1212.60    7.9000   152.3331  208.5583    4.3980 
1212.70    7.8543   151.9815  208.6713    4.3006 
1212.80    7.7542   151.8246  208.8990    4.1979 
1212.90    7.7457   151.5986  209.1680    4.1509 
1213.00    7.8000   151.9253  209.4022    4.1857 
1213.10    7.8457   152.2754  209.6005    4.3131 
1213.20    7.9000   151.8842  209.8479    4.4411 
1213.30    7.9000   151.1608  210.0998    4.4763 
1213.40    7.9000   150.4021  210.2905    4.4509 
1213.50    7.9000   145.3613  210.7097    4.4459 
1213.60    7.9000   148.2191  210.4897    4.4587 
1213.70    7.9000   148.0455  210.5235    4.4716 
1213.80    7.8652   147.6596  210.4966    4.4522 
1213.90    7.8000   147.1279  210.3430    4.3930 
1214.00    7.7652   146.2273  210.1095    4.4113 
1214.10    7.7000   145.0530  209.8357    4.4874 
1214.20    7.7694   144.1699  209.5498    4.4853 
1214.30    7.9000   143.3745  209.3730    4.3956 
1214.40    7.8304   142.0576  209.4087    4.3639 
1214.50    7.7348   140.8250  209.5766    4.4352 
1214.60    7.6957   139.7040  209.8104    4.6069 
1214.70    7.5347   138.4036  210.0563    4.8151 
1214.80    7.5304   137.0872  210.0817    4.8582 
1214.90    7.4696   135.9650  209.7487    4.7556 
1215.00    7.7044   134.6447  209.3938    4.8492 
1215.10    8.1085   133.3688  208.9393    5.2038 
1215.20    8.8121   131.9090  208.4405    5.4528 
1215.30    9.7480   129.9721  208.1609    5.6979 
1215.40   10.6784   127.6126  208.2487    6.0218 
1215.50   11.2696   124.7813  208.4235    6.2744 
1215.60   11.3652   121.6103  208.7051    6.3513 
1215.70   11.0919   118.5747  209.0163    6.3060 
1215.80   10.3868   116.1638  209.2505    5.9847 
1215.90    9.4520   114.4717  209.4826    5.6038 
1216.00    8.6608   113.5476  209.6905    5.3230 
1216.10    8.3652   113.3185  209.9504    5.3343 
1216.20    8.5081   113.6009  210.2865    5.4077 
1216.30    9.0740   113.9271  210.7114    5.5261 
1216.40    9.7132   113.4284  210.9548    5.8031 
1216.50   10.9264   112.2699  211.0130    6.1700 
1216.60   12.5171   110.8783  210.9722    6.2366 
1216.70   13.4734   108.9969  210.8576    6.4822 
1216.80   13.7652   106.6260  210.7261    7.4384 
1216.90   13.5956   104.7091  210.7766    7.4794 
1217.00   12.7388   103.0759  211.0383    6.7904 
1217.10   10.8396   101.6070  211.3782    6.7504 
1217.20    9.3573   100.7829  211.7387    6.7848 
1217.30    8.7956   100.6740  212.1044    6.3804 
1217.40    8.7044   100.5449  212.1956    6.1244 
1217.50    9.3524   100.3592  211.8469    6.1944 
1217.60   11.0689   100.3665  211.3932    6.2400 
1217.70   14.1217   100.0652  210.8789    6.2712 
1217.80   18.5051    99.3764  210.3399    6.5214 
1217.90   23.1267    98.7770  210.0470    7.3602 
1218.00   26.2872    98.0496  210.0948    8.6567 
1218.10   26.7134    97.0964  210.2087    8.9899 
1218.20   24.8291    96.2748  210.3694    7.6895 
1218.30   21.2949    96.2198  210.5557    6.4116 
1218.40   17.0212    97.2048  210.7574    5.8204 
1218.50   13.9908    99.1570  211.0792    5.6169 
1218.60   11.5439   102.0199  211.4165    5.4696 
1218.70   10.0839   105.9558  211.6155    5.4327 
1218.80    9.0912   110.1731  211.7896    5.3374 
1218.90    8.5956   114.1658  211.9896    5.2096 
1219.00    8.3652   117.8880  212.1618    5.2074 
1219.10    8.1957   121.2900  212.3582    5.2330 
1219.20    7.8960   124.0374  212.7395    5.2165 
1219.30    7.5260   126.3342  213.2070    5.1752 
1219.40    7.0956   128.2737  213.6801    5.1587 
1219.50    6.8652   129.8488  214.1749    5.2813 
1219.60    6.7652   131.3884  214.7207    5.3296 
1219.70    6.7347   132.6209  215.2195    5.2961 
1219.80    6.8000   133.3297  215.4435    5.2352 
1219.90    6.9044   134.2972  215.0843    5.0934 
