~Version information
VERS.                            2.00: CWLS LAS  -  VERSION 2.00
WRAP.                              NO: One line per depth step
~Well information
#MNEM.UNIT                  DATA TYPE  INFORMATION
#===.================================:==================
STRT.M                          0.000: First depth in file
STOP.M                       3287.330: Last depth in file
STEP.M                          0.200: Depth increment
NULL.                       -9999.00 : Null values
DATE.                      : LOG DATE
TIME.                           16:56: LOG TIME
WELL.                             F1: Well name
GRP.                                1: Group name
FLD.                    F: Field name
ISS.                     окон.каротаж: Well surveys
SRVC.                                : Service Company
~Curve information
#MNEM.UNIT                   API CODE   CURVE DESCRIPTION
#===.================================:==================
DEPT.M                               : Depth curve
GK   ok.MKR/H                        : :11 Гамма-активность, мкр./ч -   67.0 
NKT2  ok.PRIV                        : :13 Малый зонд приведенный,  -  230.0 
NKT1  ok.PRIV                        : :14 Большой зонд приведенный,  -  219.
W  ok.PERC                           : :12 Водонасыщенная пористость, % -  22
#
~Other information
#------------------ REMARKS AREA -----------------------
#=======================================================
# The file is generated by the program GeoTech-EditLog v2000.12
#Number of Curves = 4
~A Log Data Section
# ...
1082.40    2.7643    1.1588    1.3588   34.9437 
1082.60    2.3543    1.1488    1.4403   35.1155 
1082.80    2.4372    1.1688    1.3285   37.4798 
1083.00    2.7586    1.1688    1.2536   38.5770 
1083.20    2.5844    1.1600    1.2624   37.5311 
1083.40    2.5414    1.1424    1.2988   37.2233 
1083.60    2.4986    1.1300    1.2348   37.4565 
1083.80    2.4556    1.1288    1.2952   35.8127 
1084.00    2.4186    1.1464    1.3352   35.3935 
1084.20    2.8072    1.1300    1.2936   35.7869 
1084.40    2.4729    1.1400    1.3336   36.2735 
1084.60    2.5043    1.1752    1.3327   37.7124 
1084.80    2.6056    1.1824    1.2797   37.5641 
1085.00    2.2900    1.1800    1.2988   36.1814 
1085.20    2.3202    1.1512    1.3664   35.7310 
1085.40    2.6229    1.1488    1.3188   36.6267 
1085.60    2.8443    1.1700    1.3852   35.2296 
1085.80    2.9200    1.1612    1.3221   35.9330 
1086.00    2.8971    1.1336    1.3400   36.0349 
1086.20    2.5426    1.1776    1.3452   35.9310 
1086.40    2.7814    1.2140    1.3840   33.9291 
1086.60    2.6200    1.2815    1.7191   30.1545 
1086.80    2.5871    1.4015    1.9379   27.4810 
1087.00    2.5243    1.5076    2.3155   24.3045 
1087.20    2.7115    1.4448    2.1554   25.4461 
1087.40    2.4200    1.2960    1.7757   28.5935 
1087.60    2.0786    1.2160    1.6185   31.1318 
1087.80    2.1772    1.1636    1.3757   34.1596 
1088.00    2.1814    1.1500    1.4000   34.9256 
1088.20    2.2313    1.1676    1.3248   35.8510 
1088.40    2.4157    1.1488    1.3136   35.6193 
1088.60    2.6629    1.1864    1.3748   34.3813 
1088.80    2.7787    1.1524    1.4036   33.8177 
1089.00    2.5514    1.1676    1.4212   34.6008 
1089.20    2.6386    1.1800    1.3772   35.8389 
1089.40    2.4571    1.2176    1.4300   35.9018 
1089.60    2.3557    1.2700    1.5215   33.7255 
1089.80    2.2186    1.2964    1.6264   32.0024 
1090.00    2.1914    1.2724    1.5873   31.3469 
1090.20    2.2868    1.2588    1.5928   30.5442 
1090.40    1.9586    1.2012    1.5836   30.4085 
1090.60    2.1457    1.1888    1.5424   30.7641 
1090.80    2.6187    1.1600    1.5400   31.8111 
1091.00    2.3829    1.1500    1.3988   33.8079 
1091.20    2.3503    1.1564    1.3976   33.8112 
1091.40    2.4386    1.1612    1.4097   34.0031 
1091.60    2.3800    1.1988    1.3457   34.3286 
1091.80    2.1372    1.2112    1.5879   30.6827 
1092.00    2.3229    1.1900    1.5160   31.4613 
1092.20    2.2743    1.1976    1.5648   32.3893 
1092.40    2.5014    1.2000    1.4412   34.3174 
1092.60    2.4143    1.2088    1.4664   34.0942 
1092.80    2.4570    1.2000    1.4076   34.8531 
1093.00    2.2414    1.2112    1.5003   33.3373 
1093.20    2.1685    1.2000    1.4964   33.4222 
1093.40    2.4471    1.2188    1.4612   34.2513 
1093.60    2.6571    1.2024    1.3833   35.2257 
1093.80    2.5129    1.2000    1.4215   34.2854 
1094.00    2.7086    1.2200    1.5452   32.3624 
1094.20    2.3868    1.1824    1.4309   34.6435 
1094.40    2.4729    1.1700    1.3300   36.0595 
1094.60    2.5600    1.2088    1.4327   34.2266 
1094.80    2.4243    1.2000    1.4800   33.6858 
1095.00    2.6457    1.2088    1.4121   34.8500 
1095.20    2.4198    1.2136    1.4500   34.5281 
1095.40    2.3786    1.2276    1.4612   34.1554 
1095.60    2.5376    1.2067    1.4500   33.9769 
1095.80    2.5300    1.2175    1.4325   34.1525 
1096.00    2.6700    1.2100    1.4700   33.6199 
1096.20    2.7300    1.2275    1.5075   32.8021 
1096.40    2.6800    1.2250    1.5000   32.8601 
1096.60    2.7700    1.2500    1.5600   33.2500 
1096.80    2.7600    1.2425    1.5450   33.6130 
1097.00    2.4100    1.2600    1.5025   34.1299 
1097.20    2.0500    1.2350    1.3926   33.9514 
1097.40    2.0400    1.1825    1.4550   33.1702 
1097.60    2.2800    1.1525    1.4425   33.6026 
1097.80    2.4500    1.1650    1.3750   35.3437 
1098.00    2.6200    1.1650    1.3000   37.6101 
1098.20    3.0800    1.1600    1.2925   36.8804 
1098.40    2.9600    1.1550    1.3700   35.2401 
1098.60    3.4100    1.1500    1.3175   35.6600 
1098.80    3.2800    1.1675    1.3451   34.4783 
1099.00    3.2000    1.1525    1.4050   32.4922 
1099.20    3.2100    1.1500    1.5074   31.3605 
1099.40    3.0800    1.1725    1.5075   31.6676 
1099.60    3.1700    1.1875    1.4975   32.5752 
1099.80    2.8400    1.2100    1.4500   33.6376 
1100.00    2.7800    1.2125    1.4725   33.2673 
1100.20    2.7200    1.2175    1.5175   32.7986 
1100.40    2.6700    1.2250    1.4600   33.5773 
1100.60    2.4500    1.2175    1.5225   32.8475 
1100.80    2.8700    1.2225    1.5500   32.0075 
1101.00    3.0100    1.2125    1.5625   32.3500 
1101.20    2.8400    1.2725    1.6523   32.4285 
1101.40    2.6000    1.2275    1.5050   34.0280 
1101.60    2.4900    1.2350    1.4250   34.8376 
1101.80    2.4000    1.2025    1.4650   34.6775 
1102.00    2.3800    1.2175    1.4425   34.5574 
1102.20    2.7700    1.2350    1.4726   33.0838 
1102.40    2.8600    1.1925    1.4475   32.5225 
1102.60    3.0600    1.2050    1.5200   32.1101 
1102.80    2.7800    1.1750    1.5149   33.1739 
1103.00    2.9200    1.1750    1.4375   35.4704 
1103.20    3.6400    1.2100    1.3650   36.5980 
1103.40    3.2300    1.1950    1.3450   36.8522 
1103.60    3.0700    1.2075    1.4625   35.1551 
1103.80    3.1400    1.2050    1.4374   36.2277 
1104.00    3.4100    1.2250    1.4400   35.2748 
1104.20    3.1400    1.2525    1.5275   34.2075 
1104.40    2.9700    1.2750    1.5200   33.6350 
1104.60    2.8600    1.2650    1.5650   33.2873 
1104.80    2.9200    1.2750    1.5475   32.7075 
1105.00    2.3600    1.2650    1.5750   32.5399 
1105.20    2.5400    1.2850    1.5951   32.2596 
1105.40    2.6600    1.2875    1.6974   32.4580 
1105.60    2.7200    1.2650    1.4950   34.7952 
1105.80    2.3400    1.2574    1.4375   34.4563 
1106.00    2.7500    1.2275    1.5375   32.6798 
1106.20    3.4000    1.2575    1.6523   32.0980 
1106.40    3.2600    1.2825    1.6650   32.2475 
1106.60    3.8600    1.2900    1.5850   32.4299 
1106.80    3.4700    1.2875    1.5950   32.2857 
1107.00    2.6500    1.2800    1.6250   32.5025 
1107.20    3.1500    1.2800    1.6000   32.6651 
1107.40    3.0400    1.2775    1.5500   33.0273 
1107.60    2.5900    1.2950    1.6200   31.3571 
1107.80    2.3700    1.3125    1.8025   29.3204 
1108.00    2.2600    1.2825    1.6775   30.7228 
1108.20    1.9900    1.2475    1.5599   31.8031 
1108.40    2.2300    1.2375    1.5600   31.5524 
1108.60    2.3800    1.2275    1.6100   30.9024 
1108.80    2.0800    1.2125    1.5574   31.2260 
1109.00    2.2300    1.1675    1.4725   32.5754 
1109.20    2.1400    1.1850    1.4126   33.3774 
1109.40    2.7500    1.2000    1.4750   34.0853 
1109.60    3.0800    1.2100    1.3800   35.9298 
1109.80    2.6500    1.1925    1.4025   35.6774 
1110.00    2.5800    1.1925    1.3900   35.4697 
1110.20    2.8400    1.2125    1.4675   34.0684 
1110.40    3.3300    1.2150    1.5625   32.4778 
1110.60    3.1300    1.2000    1.5175   33.7027 
1110.80    3.0400    1.2025    1.3949   35.4956 
1111.00    3.0100    1.2075    1.4325   35.2851 
1111.20    2.9200    1.2050    1.4199   36.1114 
1111.40    2.5100    1.1750    1.3325   38.0551 
1111.60    2.8200    1.1850    1.2975   38.7649 
1111.80    2.7200    1.2225    1.3525   36.9461 
1112.00    2.5600    1.2125    1.4525   34.4199 
1112.20    2.8800    1.2025    1.4726   34.4344 
1112.40    2.8200    1.2200    1.4750   35.7354 
1112.60    2.7400    1.2150    1.3650   38.9156 
1112.80    3.1000    1.2400    1.2775   40.7287 
1113.00    3.0400    1.2275    1.3225   38.9399 
1113.20    2.8800    1.2200    1.3150   38.4964 
1113.40    3.1000    1.2150    1.3825   36.7800 
1113.60    3.4100    1.2325    1.4325   34.6495 
1113.80    3.0500    1.2450    1.5600   32.1494 
1114.00    3.0800    1.2325    1.5975   31.6353 
1114.20    3.3200    1.2575    1.5775   32.1709 
1114.40    2.8600    1.2600    1.5050   33.3275 
1114.60    3.6300    1.2525    1.5400   33.1323 
1114.80    3.0400    1.2825    1.6200   32.2022 
1115.00    3.4700    1.2375    1.5175   32.7175 
