~Version information
VERS.                            2.00: CWLS LAS  -  VERSION 2.00
WRAP.                              NO: One line per depth step
~Well information
#MNEM.UNIT                  DATA TYPE  INFORMATION
#===.================================:==================
STRT.M                       1140.000: First depth in file
STOP.M                       1254.600: Last depth in file
STEP.M                          0.100: Depth increment
NULL.                       -9999.00 : Null values
DATE.                      : LOG DATE
TIME.                           11:12: LOG TIME
WELL.                             F1: Well name
GRP.                                 : Group name
FLD.                    F: Field name
ISS.                     окон.каротаж: Well surveys
SRVC.                                : Service Company
~Curve information
#MNEM.UNIT                   API CODE   CURVE DESCRIPTION
#===.================================:==================
DEPT.M                               : Depth curve
GZ3 .OHMM                            : :9 A2.0M0.5N, ќм*м - 1475.0 см
IK  .MSM/M                           : :14 » , м—м/м - 1961.0 см
PS  .MV                              : :16 ѕ—, м¬ - 1575.0 см
BK  .OHMM                            : :20 Ѕ , ќм*м - 1768.0 см
#
~Other information
#------------------ REMARKS AREA -----------------------
#=======================================================
# The file is generated by the program GeoTech-EditLog v2000.12
#Number of Curves = 4
~A Log Data Section
# ...
1156.00    5.2000   275.1672  230.5047    2.6313 
1156.10    5.2000   278.0611  231.0488    2.5651 
1156.20    5.2000   280.8131  231.7836    2.5189 
1156.30    5.2000   283.0640  232.6645    2.4375 
1156.40    5.1875   284.8564  233.8643    2.4225 
1156.50    5.1000   287.5990  235.3516    2.4388 
1156.60    5.1123   290.7816  236.9022    2.4312 
1156.70    5.2000   291.4783  238.5201    2.4412 
1156.80    5.1875   292.9734  239.9452    2.4525 
1156.90    5.0952   293.4137  241.1409    2.4705 
1157.00    5.0569   293.5222  242.0266    2.4743 
1157.10    5.0186   294.3643  242.1289    2.4781 
1157.20    5.0000   295.4650  242.1225    2.4903 
1157.30    5.0000   296.1598  242.3347    2.4948 
1157.40    4.7939   295.6249  242.6346    2.4797 
1157.50    4.6000   294.6238  242.9861    2.4803 
1157.60    4.6000   294.4628  243.4789    2.5106 
1157.70    4.6000   293.6122  243.9555    2.5249 
1157.80    4.6515   292.0714  244.1297    2.5200 
1157.90    4.8546   291.3533  244.0479    2.5252 
1158.00    4.8454   290.2044  244.0624    2.5352 
1158.10    4.7000   288.6534  244.1297    2.5400 
1158.20    4.6485   287.4566  243.5745    2.5451 
1158.30    4.7031   285.8682  242.5344    2.5655 
1158.40    4.8000   284.2027  241.5144    2.5903 
1158.50    4.7485   282.9407  240.4326    2.6206 
1158.60    4.7000   280.9500  239.3956    2.6400 
1158.70    4.5971   278.6056  238.9709    2.6400 
1158.80    4.6031   276.6693  239.1031    2.6709 
1158.90    4.7000   274.4178  239.3340    2.6948 
1159.00    4.5969   272.0419  239.6352    2.6745 
1159.10    4.5515   270.7071  240.0370    2.6291 
1159.20    4.5485   269.4708  240.5688    2.5588 
1159.30    4.4485   267.4498  241.3340    2.5200 
1159.40    4.4000   265.9238  242.4189    2.5200 
1159.50    4.2969   264.4912  243.6383    2.5148 
1159.60    4.2000   262.9448  244.3746    2.5100 
1159.70    4.1485   261.8748  244.4891    2.5512 
1159.80    4.2031   260.6959  244.2848    2.6003 
1159.90    4.3000   258.6401  243.8108    2.5997 
1160.00    4.3000   256.5152  243.2211    2.6106 
1160.10    4.4031   254.1351  243.1255    2.6661 
1160.20    4.5000   250.6014  243.6911    2.7515 
1160.30    4.5000   247.2516  244.4722    2.8464 
1160.40    4.7061   244.0137  245.1795    2.9415 
1160.50    4.8485   240.1560  245.8098    3.0312 
1160.60    4.7485   235.7494  246.2128    3.0958 
1160.70    4.7000   231.5735  245.9295    3.1303 
1160.80    4.7515   227.2811  245.0647    3.1658 
1160.90    4.8515   222.9538  244.1266    3.1694 
1161.00    4.9000   219.3301  243.1538    3.1448 
1161.10    4.8485   215.9409  242.2278    3.1039 
1161.20    4.8000   213.1439  241.8091    3.0082 
1161.30    4.8515   211.5416  241.8727    2.9603 
1161.40    4.8485   210.3930  242.0734    2.9803 
1161.50    4.8000   209.6672  242.4067    3.0003 
1161.60    4.9031   209.6235  242.9395    3.0306 
1161.70    5.1029   208.8810  243.5694    3.0706 
1161.80    5.3546   207.1535  244.2922    3.2034 
1161.90    5.7061   205.3453  245.1541    3.5058 
1162.00    6.0546   203.1023  246.1049    3.9837 
1162.10    6.2000   200.1264  246.8170    4.2755 
1162.20    6.1485   197.6938  246.9165    4.0430 
1162.30    6.2031   195.9866  246.5424    3.6348 
1162.40    6.1454   194.2672  245.9702    3.3412 
1162.50    6.0000   193.3208  245.2581    3.2767 
1162.60    6.1546   193.8763  244.7563    3.4640 
1162.70    6.4029   194.9140  244.8973    3.7187 
1162.80    6.7061   195.7101  245.5213    3.9585 
1162.90    6.9000   196.8714  246.2201    4.1782 
1163.00    7.0031   197.5382  246.9728    4.3161 
1163.10    6.9969   196.9448  247.5655    4.2109 
1163.20    6.7971   196.5439  247.1636    3.9256 
1163.30    6.3908   196.6814  245.8368    3.5945 
1163.40    5.8424   196.7665  244.3374    3.2860 
1163.50    5.3424   197.5627  242.7234    3.0363 
1163.60    4.9454   199.8288  241.1483    2.8530 
1163.70    4.6971   202.0869  240.4188    2.7900 
1163.80    4.4969   203.8861  240.4418    2.8312 
1163.90    4.4515   206.1784  240.5618    2.8958 
1164.00    4.5515   207.7687  240.7334    2.9252 
1164.10    4.7031   208.6124  240.9740    2.9300 
1164.20    5.0573   209.5511  241.3059    2.9454 
1164.30    5.6607   209.7989  241.7576    3.0270 
1164.40    6.3607   209.0093  242.3504    3.2240 
1164.50    6.9576   208.0737  243.0922    3.5613 
1164.60    7.3031   206.8373  243.9334    3.7909 
1164.70    7.3485   205.1811  244.3497    3.5678 
1164.80    7.2485   204.5178  244.2370    3.2321 
1164.90    7.0454   205.2715  243.9751    3.0369 
1165.00    6.8485   206.8972  243.6242    2.8730 
1165.10    6.8000   209.7070  243.2133    2.7997 
1165.20    6.7485   213.5906  243.2882    2.7849 
1165.30    6.7000   217.7030  243.9104    2.7285 
1165.40    6.6485   221.7845  244.6728    2.6388 
1165.50    6.4969   226.4271  245.5437    2.5845 
1165.60    6.2454   230.4657  246.3304    2.5958 
1165.70    5.9456   233.2366  246.2998    2.6097 
1165.80    5.5939   236.5966  245.2592    2.5639 
1165.90    5.2454   239.8955  243.7859    2.4888 
1166.00    5.0485   241.7313  242.0513    2.5015 
1166.10    4.8969   243.3158  240.1507    2.6170 
1166.20    4.8515   244.4780  238.8289    2.7315 
1166.30    4.8485   243.8705  238.3672    2.8418 
1166.40    4.6969   242.5919  238.2079    2.9618 
1166.50    4.7031   240.4418  238.0885    3.0509 
1166.60    4.8515   236.5875  238.0503    2.9976 
1166.70    5.0029   232.1892  238.0806    2.8428 
1166.80    5.2031   226.9765  238.1206    2.8421 
1166.90    5.4546   220.4214  238.1400    2.9718 
1167.00    5.8061   213.8048  238.1915    3.0506 
1167.10    5.9485   207.5154  238.3946    3.1009 
1167.20    5.8485   201.3294  238.4680    3.1609 
1167.30    5.9031   196.4084  238.1115    3.2055 
1167.40    6.0000   192.8065  237.5102    3.2200 
1167.50    6.0000   188.8452  236.9218    3.2612 
1167.60    6.0515   185.0374  236.3508    3.3000 
1167.70    6.2544   182.0972  235.9983    3.3206 
1167.80    6.5546   179.1142  236.1667    3.4121 
1167.90    6.7000   176.2350  236.6994    3.5934 
1168.00    6.7515   174.1745  237.3504    3.7876 
1168.10    6.9031   171.9126  237.8655    3.8803 
1168.20    6.9485   169.4832  238.0091    3.8591 
1168.30    6.9000   167.8881  237.5266    3.8661 
1168.40    6.7454   166.2712  236.5950    3.8742 
1168.50    6.6515   164.7249  235.5429    3.8191 
1168.60    6.6485   164.2156  234.5466    3.7900 
1168.70    6.6000   163.8888  233.8524    3.8415 
1168.80    6.7031   163.5322  233.7340    3.9415 
1168.90    6.8000   163.6690  233.9904    4.0106 
1169.00    6.8000   163.5320  234.2142    4.0970 
1169.10    6.8000   163.2104  234.5094    4.1686 
1169.20    6.8000   162.8488  234.7494    4.1843 
1169.30    6.8000   162.3839  235.0494    4.2000 
1169.40    6.9000   161.8924  235.3965    4.0800 
1169.50    7.0000   161.2228  235.9000    4.1400 
1169.60    7.1000   160.2106  236.5600    4.2600 
1169.70    6.9000   159.8044  237.3000    4.3000 
1169.80    6.8000   160.0503  238.2200    4.3000 
1169.90    6.9000   159.8881  239.5000    4.3300 
1170.00    7.0000   159.6683  240.3200    4.4200 
1170.10    6.9000   160.2742  240.7400    4.3600 
1170.20    7.1000   160.2846  241.2000    4.2200 
1170.30    7.1000   160.4911  241.5800    4.2000 
1170.40    7.4000   161.3428  241.6200    4.2400 
1170.50    7.5000   162.7207  242.0000    4.1400 
1170.60    7.6000   163.0911  242.8000    4.1500 
1170.70    7.7000   163.8118  243.7400    4.1600 
1170.80    7.8000   164.9991  244.5200    4.2000 
1170.90    7.8000   165.2549  245.2200    4.3000 
1171.00    7.6000   166.0107  245.7400    4.3400 
1171.10    7.8000   167.0671  245.2000    4.3200 
1171.20    7.9000   167.6956  243.2200    4.2600 
1171.30    7.8000   168.3609  240.7800    4.2200 
1171.40    7.9000   170.0403  238.3200    4.2500 
1171.50    8.0000   171.1561  236.0200    4.1600 
1171.60    8.1000   171.8608  234.5800    4.1000 
1171.70    8.1000   173.0792  234.2400    4.0300 
1171.80    8.5000   174.0584  234.3200    4.0100 
1171.90    8.6000   174.7184  234.5000    4.0300 
