~Version information
VERS.                            2.00: CWLS LAS  -  VERSION 2.00
WRAP.                              NO: One line per depth step
~Well information
#MNEM.UNIT                  DATA TYPE  INFORMATION
#===.================================:==================
STRT.M                          0.000: First depth in file
STOP.M                       3287.330: Last depth in file
STEP.M                          0.200: Depth increment
NULL.                       -9999.00 : Null values
DATE.                      : LOG DATE
TIME.                           16:56: LOG TIME
WELL.                             F1: Well name
GRP.                                1: Group name
FLD.                    F: Field name
ISS.                     окон.каротаж: Well surveys
SRVC.                                : Service Company
~Curve information
#MNEM.UNIT                   API CODE   CURVE DESCRIPTION
#===.================================:==================
DEPT.M                               : Depth curve
GK   ok.MKR/H                        : :11 Гамма-активность, мкр./ч -   67.0 
NKT2  ok.PRIV                        : :13 Малый зонд приведенный,  -  230.0 
NKT1  ok.PRIV                        : :14 Большой зонд приведенный,  -  219.
W  ok.PERC                           : :12 Водонасыщенная пористость, % -  22
#
~Other information
#------------------ REMARKS AREA -----------------------
#=======================================================
# The file is generated by the program GeoTech-EditLog v2000.12
#Number of Curves = 4
~A Log Data Section
# ...
 426.40    2.3000    1.0175    1.0224   41.8928 
 426.60    2.3600    1.0175    1.0150   41.8836 
 426.80    2.1500    1.0100    1.0650   39.9341 
 427.00    2.3700    1.0025    1.1350   38.1318 
 427.20    1.9000    1.0375    1.1301   38.8228 
 427.40    2.1200    1.0125    1.1075   37.6374 
 427.60    2.1900    1.0125    1.1050   38.7396 
 427.80    2.1700    1.0100    1.1149   38.5825 
 428.00    2.2700    1.0200    1.0675   39.1584 
 428.20    2.2300    1.0225    1.1250   37.4940 
 428.40    1.8800    1.0175    1.2000   36.1915 
 428.60    2.1200    1.0175    1.1375   37.7870 
 428.80    1.9400    1.0200    1.1325   38.4020 
 429.00    2.3400    1.0350    1.1325   38.3006 
 429.20    1.9100    1.0350    1.1450   37.5782 
 429.40    1.9000    1.0300    1.1950   36.5241 
 429.60    1.9700    1.0400    1.1325   38.1149 
 429.80    2.2600    1.0300    1.1800   36.9025 
 430.00    2.1900    1.0250    1.1701   38.0184 
 430.20    2.2200    1.0500    1.1625   38.5651 
 430.40    2.2400    1.0575    1.1676   37.8921 
 430.60    2.2600    1.0275    1.1175   37.5512 
 430.80    2.2700    1.0200    1.1425   35.6081 
 431.00    2.4000    1.0325    1.2700   34.6511 
 431.20    2.2600    1.0125    1.1751   38.0903 
 431.40    2.2600    1.0325    1.1375   38.3978 
 431.60    2.3100    1.0225    1.1226   39.8159 
 431.80    2.3300    1.0275    1.0500   41.1656 
 432.00    2.4400    1.0350    1.0925   40.1850 
 432.20    2.6500    1.0425    1.0975   39.4086 
 432.40    2.3800    1.0375    1.1750   37.5725 
 432.60    2.4600    1.0500    1.1674   36.5069 
 432.80    2.7200    1.0200    1.1576   36.7705 
 433.00    2.4900    1.0150    1.1325   38.3303 
 433.20    1.9600    1.0225    1.1425   38.6120 
 433.40    2.0900    1.0300    1.1324   38.6182 
 433.60    2.4900    1.0350    1.1374   38.7910 
 433.80    2.4800    1.0400    1.1451   39.5359 
 434.00    2.4000    1.0425    1.0700   41.2536 
 434.20    2.2100    1.0625    1.1025   39.1005 
 434.40    2.5200    1.0500    1.1625   39.0159 
 434.60    2.5800    1.0450    1.1277   40.9858 
 434.80    2.7300    1.0600    1.1024   40.7784 
 435.00    2.6300    1.0650    1.1450   40.7788 
 435.20    2.8500    1.0625    1.1025   41.4002 
 435.40    2.7600    1.0675    1.0975   41.0455 
 435.60    2.9300    1.0625    1.1250   39.2842 
 435.80    2.8600    1.0575    1.2200   37.0351 
 436.00    2.5200    1.0775    1.2101   36.8770 
 436.20    2.1500    1.0600    1.2125   37.3723 
 436.40    2.3600    1.0800    1.1950   38.1643 
 436.60    2.4200    1.0600    1.0799   39.4006 
 436.80    2.6000    1.0600    1.1274   38.3091 
 437.00    2.3800    1.0775    1.2475   35.5777 
 437.20    2.3300    1.0800    1.2525   35.5403 
 437.40    2.3200    1.0575    1.2775   35.7118 
 437.60    2.5700    1.0625    1.1924   37.3221 
 437.80    2.7100    1.0450    1.1425   39.6069 
 438.00    2.8300    1.0300    1.0775   41.4623 
 438.20    2.4900    1.0300    1.0575   41.6522 
 438.40    2.6000    1.0500    1.1050   39.9220 
 438.60    2.8100    1.0525    1.1449   37.9711 
 438.80    2.2700    1.0550    1.1950   37.1575 
 439.00    2.4500    1.0600    1.2450   36.7561 
 439.20    2.0600    1.0850    1.2025   38.5096 
 439.40    2.5400    1.0675    1.1751   39.6185 
 439.60    2.5000    1.0725    1.1100   39.9496 
 439.80    2.0100    1.0675    1.1649   36.7443 
 440.00    2.0300    1.0625    1.2576   33.5323 
 440.20    2.1000    1.0375    1.3450   33.4873 
 440.40    2.2200    1.0675    1.3026   33.7445 
 440.60    2.3700    1.0500    1.2650   34.4119 
 440.80    2.2900    1.0575    1.2800   35.2765 
 441.00    2.2300    1.0375    1.2275   37.0511 
 441.20    2.2600    1.0450    1.1550   39.3795 
 441.40    2.0800    1.0400    1.1025   39.3849 
 441.60    2.2600    1.0375    1.0875   39.7206 
 441.80    2.5200    1.0300    1.1525   37.2512 
 442.00    2.4600    1.0375    1.2375   35.7743 
 442.20    2.5700    1.0525    1.1951   37.1548 
 442.40    2.9000    1.0450    1.1749   35.9973 
 442.60    2.6200    1.0375    1.2850   34.0588 
 442.80    2.7400    1.0450    1.2150   36.1019 
 443.00    2.7100    1.0650    1.2426   36.4882 
 443.20    2.3100    1.0400    1.1575   37.9268 
 443.40    2.2400    1.0400    1.1525   38.7793 
 443.60    2.6700    1.0475    1.1125   39.1331 
 443.80    2.0400    1.0050    1.0975   39.1965 
 444.00    2.0600    1.0299    1.0674   40.2621 
 444.20    1.7900    1.0475    1.1474   38.1227 
 444.40    2.1000    1.0250    1.1975   37.0231 
 444.60    2.2000    1.0550    1.2050   37.2687 
 444.80    2.0900    1.0475    1.1374   38.9596 
 445.00    2.3700    1.0550    1.1001   40.4268 
 445.20    2.4800    1.0725    1.1374   39.7155 
 445.40    2.3000    1.0675    1.1676   40.7430 
 445.60    2.4700    1.0500    1.0100   44.0157 
 445.80    2.3700    1.0675    1.0275   40.5779 
 446.00    2.1200    1.0275    1.1998   35.9514 
 446.20    2.0800    1.0450    1.2000   35.7318 
 446.40    2.1400    1.0225    1.1551   36.6668 
 446.60    2.4600    1.0150    1.1324   36.9535 
 446.80    2.4400    1.0250    1.1525   36.8101 
 447.00    2.2100    1.0250    1.1324   36.5570 
 447.20    2.1000    1.0550    1.2300   34.9121 
 447.40    2.0300    1.0350    1.1901   36.1889 
 447.60    2.1300    1.0150    1.1575   37.7854 
 447.80    2.1700    1.0275    1.1275   37.9122 
 448.00    2.0200    1.0001    1.1425   38.6955 
 448.20    2.4600    0.9925    1.0125   41.9677 
 448.40    2.8200    1.0125    1.0799   40.0440 
 448.60    2.6400    1.0000    1.1000   39.7060 
 448.80    2.6000    1.0050    1.0200   41.8041 
 449.00    2.6500    0.9850    1.0250   41.3962 
 449.20    2.4700    1.0000    1.0400   40.3427 
 449.40    2.4200    1.0175    1.0800   39.5128 
 449.60    2.3200    1.0200    1.0724   38.0951 
 449.80    2.4200    0.9925    1.1775   35.6346 
 450.00    2.3700    1.0050    1.1725   36.1548 
 450.20    2.1100    1.0025    1.1650   37.0972 
 450.40    2.3100    1.0200    1.1499   37.3682 
 450.60    2.1800    1.0075    1.1400   37.3622 
 450.80    2.4400    1.0025    1.1375   37.7094 
 451.00    2.4300    1.0225    1.1577   39.3709 
 451.20    2.5600    1.0425    1.1074   39.1215 
 451.40    2.3600    1.0650    1.2201   36.3244 
 451.60    2.5200    1.0425    1.1650   37.1219 
 451.80    2.6800    1.0075    1.1400   38.5094 
 452.00    2.2900    1.0050    1.0950   39.9489 
 452.20    2.2600    1.0325    1.0850   40.3710 
 452.40    2.2200    1.0350    1.0799   38.3788 
 452.60    2.3000    1.0125    1.1224   37.1452 
 452.80    2.3100    1.0275    1.1174   37.2280 
 453.00    2.8600    1.0225    1.1450   36.3861 
 453.20    2.7300    1.0375    1.2000   34.4030 
 453.40    2.7500    0.9725    1.1725   35.3490 
 453.60    2.9700    1.0000    1.1576   35.9022 
 453.80    2.6300    0.9900    1.1751   36.2243 
 454.00    2.7300    0.9925    1.1049   37.8205 
 454.20    3.1900    1.0050    1.1351   38.7262 
 454.40    2.8100    1.0275    1.1150   39.9546 
 454.60    2.5600    1.0625    1.0924   39.8756 
 454.80    2.5600    1.0550    1.1249   38.4884 
 455.00    2.6000    0.9925    1.1025   37.9319 
 455.20    2.2600    1.0075    1.1375   38.3484 
 455.40    2.2600    1.0350    1.2025   36.9001 
 455.60    2.3600    1.0300    1.1299   36.9858 
 455.80    2.6100    1.0300    1.2351   36.1140 
 456.00    2.7400    1.0425    1.1426   37.7574 
 456.20    2.7800    1.0350    1.1600   37.0076 
 456.40    2.3900    1.0200    1.1901   37.5082 
 456.60    2.7800    1.0225    1.1100   38.0362 
 456.80    2.6100    1.0100    1.1075   37.4225 
 457.00    2.6600    1.0250    1.1575   37.2400 
 457.20    2.6800    1.0250    1.1275   36.9274 
 457.40    2.6100    1.0325    1.1874   36.4351 
 457.60    2.5700    1.0250    1.1576   37.3766 
 457.80    2.6800    1.0375    1.1625   37.8673 
 458.00    2.9500    1.0200    1.0950   39.1367 
 458.20    3.0200    1.0475    1.1349   39.5054 
 458.40    2.6100    1.0375    1.1225   40.2711 
 458.60    2.8100    1.0500    1.0900   41.3172 
 458.80    2.5600    1.0375    1.0925   41.3640 
 459.00    2.8100    1.0300    1.0325   41.9409 
