~Version information
VERS.                            2.00: CWLS LAS  -  VERSION 2.00
WRAP.                              NO: One line per depth step
~Well information
#MNEM.UNIT                  DATA TYPE  INFORMATION
#===.================================:==================
STRT.M                       1140.000: First depth in file
STOP.M                       1254.600: Last depth in file
STEP.M                          0.100: Depth increment
NULL.                       -9999.00 : Null values
DATE.                      : LOG DATE
TIME.                           11:12: LOG TIME
WELL.                             F1: Well name
GRP.                                 : Group name
FLD.                    F: Field name
ISS.                     окон.каротаж: Well surveys
SRVC.                                : Service Company
~Curve information
#MNEM.UNIT                   API CODE   CURVE DESCRIPTION
#===.================================:==================
DEPT.M                               : Depth curve
GZ3 .OHMM                            : :9 A2.0M0.5N, ќм*м - 1475.0 см
IK  .MSM/M                           : :14 » , м—м/м - 1961.0 см
PS  .MV                              : :16 ѕ—, м¬ - 1575.0 см
BK  .OHMM                            : :20 Ѕ , ќм*м - 1768.0 см
#
~Other information
#------------------ REMARKS AREA -----------------------
#=======================================================
# The file is generated by the program GeoTech-EditLog v2000.12
#Number of Curves = 4
~A Log Data Section
1140.00    0.3876   -75.9303  181.4864    0.0100 
1140.10    0.2877   -75.6344  179.0796    0.0100 
1140.20    0.2000   -75.0750  176.4232    0.0100 
1140.30    0.2125   -75.8020  174.6179    0.0100 
1140.40    0.3000   -76.2136  173.7102    0.0100 
1140.50    0.3000   -75.7470  173.3277    0.0100 
1140.60    0.3123   -75.7573  173.0704    0.0100 
1140.70    0.3753   -76.4735  172.7589    0.0100 
1140.80    0.2125   -76.4553  171.9005    0.0100 
1140.90    0.3000   -77.6179  170.8253    0.0100 
1141.00    0.3000   -77.8551  170.1152    0.0100 
1141.10    0.3000   -78.1913  169.8271    0.0100 
1141.20    0.2877   -78.6220  170.1852    0.0100 
1141.30    0.1875   -78.9131  171.6216    0.0100 
1141.40    0.1249   -78.2769  173.6593    0.0100 
1141.50    0.3000   -77.5950  175.1894    0.0100 
1141.60    0.2877   -76.4019  176.1987    0.0100 
1141.70    0.1877   -75.2003  176.9740    0.0100 
1141.80    0.1374   -74.7161  177.5747    0.0112 
1141.90    0.3751   -74.0211  178.2644    0.0225 
1142.00    0.1876   -73.8632  179.6738    0.0375 
1142.10    0.1247   -74.5605  181.7486    0.0188 
1142.20    0.3000   -74.9376  184.0491    0.0100 
1142.30    0.2875   -74.9993  185.8823    0.0100 
1142.40    0.2125   -74.9366  186.2303    0.0100 
1142.50    0.2751   -75.1432  185.2940    0.0100 
1142.60    0.1247   -74.6996  182.7750    0.0100 
1142.70    0.3000   -74.7038  179.8174    0.0100 
1142.80    0.2875   -75.0014  176.9984    0.0100 
1142.90    0.2000   -74.6882  175.1680    0.0100 
1143.00    0.2000   -74.5949  174.2773    0.0100 
1143.10    0.1877   -75.3996  174.5795    0.0100 
1143.20    0.1247   -75.4159  174.9192    0.0100 
1143.30    0.2875   -75.9610  175.3998    0.0100 
1143.40    0.1875   -76.2152  175.9047    0.0100 
1143.50    0.1373   -75.4535  176.6045    0.0100 
1143.60    0.3753   -74.9005  177.4830    0.0100 
1143.70    0.1877   -75.0334  178.6702    0.0100 
1143.80    0.1374   -74.6967  180.1042    0.0100 
1143.90    0.3626   -74.9022  181.8867    0.0100 
1144.00    0.1124   -75.2927  183.4569    0.0100 
1144.10    0.2123   -75.4912  184.3688    0.0100 
1144.20    0.3000   -75.9132  185.0789    0.0100 
1144.30    0.3000   -77.4435  185.7072    0.0100 
1144.40    0.3000   -78.4083  186.2373    0.0100 
1144.50    0.3000   -78.9947  186.7271    0.0112 
1144.60    0.3000   -80.3793  187.3844    0.0693 
1144.70    0.3000   -81.7689  187.7518    0.4780 
1144.80    0.3000   -82.3806  188.1748    0.8713 
1144.90    0.3000   -83.9605  188.5600    0.7188 
1145.00    0.3000   -85.9998  188.5351    0.5887 
1145.10    0.2877   -88.7112  188.2909    0.6744 
1145.20    0.2000   -93.3551  187.6742    0.3389 
1145.30    0.2125  -101.1314  186.5882    0.2588 
1145.40    0.3000  -111.8171  185.1080    0.2388 
1145.50    0.3000  -126.6544  184.1302    0.1563 
1145.60    0.3000  -142.6912  183.8244    0.1337 
1145.70    0.3000  -158.5147  184.2288    0.1908 
1145.80    0.3000  -171.7759  184.9870    0.3876 
1145.90    0.3000  -179.7321  186.0270    0.2860 
1146.00    0.3000  -180.2965  187.2167    0.6365 
1146.10    0.3000  -180.6857  188.4902    0.6272 
1146.20    0.3000  -177.4212  189.8899    3.0175 
1146.30    0.3000  -160.3087  191.4692    4.8929 
1146.40    0.2751  -119.1742  193.3415    4.3345 
1146.50    0.1249   -57.0267  195.4338    5.3655 
1146.60    0.3000    23.5962  197.3754    6.3737 
1146.70    0.3000   116.1460  198.6083    5.7440 
1146.80    0.2875   196.9872  199.6520    5.8143 
1146.90    0.2000   232.0739  200.7021    6.8148 
1147.00    0.2124   237.8544  201.6645    4.7238 
1147.10    0.3000   238.1486  202.5233    4.4312 
1147.20    0.3000   238.4013  203.5381    3.0811 
1147.30    0.3000   237.0836  204.6371    2.5237 
1147.40    0.3000   234.6622  205.4550    2.5537 
1147.50    0.2876   232.4632  205.3702    2.5850 
1147.60    0.2000   230.8623  204.9337    2.6262 
1147.70    0.2000   230.5254  204.0487    2.6700 
1147.80    0.2125   229.7749  201.7165    2.6787 
1147.90    0.3000   227.8948  198.4889    2.7637 
1148.00    0.3000   226.0988  195.3643    2.9437 
1148.10    0.3247   224.2835  192.4339    3.0573 
1148.20    0.5987   220.8588  190.2742    3.1874 
1148.30    1.4744   218.0128  189.3476    3.2412 
1148.40    2.7747   215.3424  189.1574    3.2575 
1148.50    3.3498   212.3321  189.4996    3.3088 
1148.60    3.7493   210.1435  190.1512    3.3025 
1148.70    4.1370   207.1376  190.9011    3.3323 
1148.80    4.4498   204.2267  191.7470    3.4275 
1148.90    4.8374   201.5542  192.7920    3.4825 
1149.00    5.1249   198.1569  194.0391    3.5112 
1149.10    5.3123   194.4925  195.4159    3.5863 
1149.20    5.4370   191.8979  196.3041    3.5415 
1149.30    5.7000   189.9246  196.8297    3.3975 
1149.40    5.7000   189.2502  197.3947    3.3063 
1149.50    5.7000   189.3523  197.9996    3.2800 
1149.60    5.6877   190.9211  198.6833    3.2849 
1149.70    5.6123   192.6133  199.7154    3.3138 
1149.80    5.7000   193.2363  201.0068    3.2650 
1149.90    5.7125   194.0218  202.5417    3.2250 
1150.00    5.8000   195.9218  204.2518    3.1925 
1150.10    5.8123   196.7013  205.4261    3.2137 
1150.20    5.9000   197.8370  206.2244    3.2363 
1150.30    5.9498   200.4474  206.4055    3.2125 
1150.40    6.3125   202.7554  205.2234    3.2400 
1150.50    6.4622   204.3695  203.3660    3.3137 
1150.60    6.9123   206.7365  201.9087    3.3474 
1150.70    7.0000   209.3955  201.2871    3.3988 
1150.80    6.9626   210.8297  201.6868    3.3863 
1150.90    6.7125   213.2883  203.4613    3.3612 
1151.00    6.7876   215.3121  206.1081    3.3750 
1151.10    6.6753   216.5243  209.2790    3.4063 
1151.20    6.4753   217.9282  212.8587    3.3664 
1151.30    6.2751   219.9857  216.5833    3.2513 
1151.40    6.0626   220.9976  220.2684    3.1038 
1151.50    5.8124   221.1931  223.6805    2.9950 
1151.60    5.8753   221.8363  226.8552    3.0312 
1151.70    5.7000   221.7720  229.6784    3.0338 
1151.80    5.7249   221.0586  232.0441    2.9875 
1151.90    5.8751   220.9865  233.9692    2.9688 
1152.00    5.7124   221.4485  235.6639    2.9563 
1152.10    5.7877   220.5711  237.4250    2.9251 
1152.20    5.7000   220.2254  238.8682    2.8863 
1152.30    5.7125   220.5350  239.9145    2.8637 
1152.40    5.8249   219.7566  241.0244    2.8975 
1152.50    6.0124   218.3891  242.2148    2.9699 
1152.60    6.1370   216.7284  242.3860    3.1273 
1152.70    6.4247   213.3814  241.7416    3.2722 
1152.80    6.6249   210.3245  240.6634    3.4412 
1152.90    6.8000   208.4976  238.5766    3.5212 
1153.00    6.8124   206.5049  235.1721    3.5288 
1153.10    6.9123   205.1172  231.8048    3.5274 
1153.20    6.9877   203.7598  228.9988    3.5788 
1153.30    6.8875   202.6346  226.8331    3.5638 
1153.40    6.8000   201.7651  225.6376    3.5125 
1153.50    6.8249   201.3753  225.5323    3.4588 
1153.60    6.9753   200.6791  225.9666    3.4697 
1153.70    6.8123   200.8064  226.5238    3.6285 
1153.80    6.9249   200.5143  227.2072    3.7700 
1153.90    7.0751   200.0550  227.9346    3.8574 
1154.00    6.9249   200.2690  228.8644    3.9862 
1154.10    7.0877   201.0743  229.9250    4.0325 
1154.20    6.9877   200.8618  231.4200    4.0389 
1154.30    6.9000   200.9380  232.7971    3.9475 
1154.40    6.9125   201.6715  233.5348    3.8637 
1154.50    6.9627   201.7118  233.9772    3.8888 
1154.60    6.6260   202.3410  234.3701    3.8183 
1154.70    6.0260   204.3602  234.2926    3.3011 
1154.80    5.4751   207.5356  234.3396    2.7163 
1154.90    5.2751   211.7651  235.1894    2.5388 
1155.00    5.0876   218.2803  236.3893    2.4675 
1155.10    5.0000   225.5446  237.5855    2.5336 
1155.20    5.0123   232.3466  238.7162    2.6349 
1155.30    5.1374   239.9206  239.3601    2.6675 
1155.40    5.3751   246.3055  238.8807    2.6463 
1155.50    5.1876   252.0031  237.2088    2.6138 
1155.60    5.1370   257.7919  235.0312    2.5614 
1155.70    5.4000   262.6711  232.9005    2.5012 
1155.80    5.3875   266.5200  231.2254    2.5237 
1155.90    5.2875   271.5461  230.4225    2.6225 
