~Version information
VERS.                            2.00: CWLS LAS  -  VERSION 2.00
WRAP.                              NO: One line per depth step
~Well information
#MNEM.UNIT                  DATA TYPE  INFORMATION
#===.================================:==================
STRT.M                          0.000: First depth in file
STOP.M                       3287.330: Last depth in file
STEP.M                          0.200: Depth increment
NULL.                       -9999.00 : Null values
DATE.                      : LOG DATE
TIME.                           16:56: LOG TIME
WELL.                             F1: Well name
GRP.                                1: Group name
FLD.                    F: Field name
ISS.                     окон.каротаж: Well surveys
SRVC.                                : Service Company
~Curve information
#MNEM.UNIT                   API CODE   CURVE DESCRIPTION
#===.================================:==================
DEPT.M                               : Depth curve
GK   ok.MKR/H                        : :11 Гамма-активность, мкр./ч -   67.0 
NKT2  ok.PRIV                        : :13 Малый зонд приведенный,  -  230.0 
NKT1  ok.PRIV                        : :14 Большой зонд приведенный,  -  219.
W  ok.PERC                           : :12 Водонасыщенная пористость, % -  22
#
~Other information
#------------------ REMARKS AREA -----------------------
#=======================================================
# The file is generated by the program GeoTech-EditLog v2000.12
#Number of Curves = 4
~A Log Data Section
# ...
1312.00    3.4048    1.7158    2.2819   28.5333 
1312.20    3.4020    1.7080    2.3244   27.8532 
1312.40    3.6025    1.6282    2.2082   28.1691 
1312.60    3.8640    1.4882    1.8824   30.0500 
1312.80    4.0027    1.3761    1.7681   30.5870 
1313.00    4.5503    1.3800    1.8437   30.3982 
1313.20    4.3902    1.4220    1.8980   31.2283 
1313.40    4.3182    1.5119    1.9221   32.0679 
1313.60    4.1451    1.5479    1.9200   32.1044 
1313.80    4.0601    1.5779    2.0961   30.5527 
1314.00    3.9048    1.5919    2.1060   30.9479 
1314.20    3.8205    1.6000    2.0341   31.8034 
1314.40    3.5699    1.6219    2.0858   30.7280 
1314.60    3.8236    1.6540    2.2261   29.5079 
1314.80    4.2422    1.6600    2.2899   29.5136 
1315.00    3.9325    1.7139    2.2142   30.5240 
1315.20    4.2261    1.7340    2.2218   29.0466 
1315.40    4.1409    1.7019    2.3921   27.7561 
1315.60    4.1457    1.7201    2.4242   26.6571 
1315.80    4.2691    1.6540    2.3882   27.4496 
1316.00    4.4401    1.6939    2.3581   28.9060 
1316.20    4.1378    1.7520    2.3478   28.3968 
1316.40    3.9837    1.7161    2.3822   27.4676 
1316.60    4.0546    1.6461    2.2842   27.6093 
1316.80    3.9294    1.6160    2.2819   27.7437 
1317.00    3.7575    1.6819    2.4137   27.5078 
1317.20    3.7727    1.6921    2.4056   27.9959 
1317.40    3.6149    1.7300    2.3701   29.1002 
1317.60    3.3742    1.7679    2.3199   29.6300 
1317.80    3.6664    1.7601    2.3542   28.4586 
1318.00    3.8051    1.6842    2.3400   27.5507 
1318.20    3.9437    1.6021    2.2063   28.4034 
1318.40    3.6836    1.5760    2.1181   29.6233 
1318.60    3.8881    1.5740    2.1061   30.0272 
1318.80    4.3254    1.5581    2.0784   30.9345 
1319.00    4.7579    1.5760    2.0079   32.2584 
1319.20    4.7482    1.5680    1.8862   34.0154 
1319.40    4.7796    1.5660    1.9058   33.8577 
1319.60    4.8039    1.5640    1.9140   33.3337 
1319.80    5.0104    1.5840    1.9734   32.3058 
1320.00    5.0884    1.6119    2.0600   31.2995 
1320.20    4.7987    1.6340    2.1657   29.5743 
1320.40    4.6719    1.6279    2.1921   29.2025 
1320.60    4.5633    1.6061    2.1285   29.7010 
1320.80    4.6078    1.5440    2.0460   30.8245 
1321.00    4.5922    1.5600    1.9500   32.6385 
1321.20    4.4511    1.5580    1.8721   33.0661 
1321.40    4.3716    1.5419    1.9221   32.7219 
1321.60    4.4096    1.5400    1.9057   32.8986 
1321.80    4.3319    1.5600    1.9381   32.6679 
1322.00    4.4999    1.5900    1.9439   32.1218 
1322.20    4.1962    1.5920    2.0959   30.8910 
1322.40    3.9949    1.6260    2.0561   31.4351 
1322.60    4.0067    1.6500    2.1176   30.5908 
1322.80    3.9274    1.6899    2.2558   29.1982 
1323.00    3.9367    1.7160    2.3640   27.9049 
1323.20    3.9322    1.6680    2.3343   28.6474 
1323.40    3.6742    1.6660    2.2522   30.0608 
1323.60    3.7799    1.6542    2.1243   30.9878 
1323.80    3.8399    1.6739    2.1496   29.9645 
1324.00    3.8415    1.7119    2.3940   28.0486 
1324.20    3.9221    1.7241    2.4080   28.0020 
1324.40    3.5281    1.6721    2.2921   28.4318 
1324.60    3.9358    1.6221    2.2000   28.6981 
1324.80    4.4363    1.5821    2.1801   29.2984 
1325.00    4.5709    1.5700    2.0521   30.8997 
1325.20    4.5407    1.5740    1.9921   31.6415 
1325.40    4.7854    1.5979    2.0258   31.7553 
1325.60    4.9246    1.6260    2.1436   30.1535 
1325.80    4.5306    1.6419    2.1501   29.9957 
1326.00    4.5218    1.6021    2.0781   29.6395 
1326.20    4.7063    1.5740    2.1638   28.9223 
1326.40    4.8361    1.5800    2.1325   30.1535 
1326.60    4.6531    1.5800    2.0558   30.8871 
1326.80    4.4260    1.5860    1.9843   31.7656 
1327.00    4.7530    1.5560    1.9999   32.5216 
1327.20    4.7274    1.5540    1.9200   33.2010 
1327.40    4.7588    1.5519    1.8801   34.2693 
1327.60    5.0954    1.6079    1.9100   34.4009 
1327.80    4.9425    1.6061    1.9160   33.5395 
1328.00    4.9303    1.5921    1.8881   32.3961 
1328.20    4.2570    1.5060    1.9321   31.6059 
1328.40    4.7333    1.5579    2.0001   31.7770 
1328.60    4.6103    1.5939    1.9940   32.2366 
1328.80    4.4613    1.6479    2.1296   30.9004 
1329.00    4.1727    1.6400    2.1043   31.5494 
1329.20    4.5810    1.6680    2.0760   30.1434 
1329.40    4.5568    1.5842    2.1303   28.8933 
1329.60    4.6351    1.5081    2.0537   29.3464 
1329.80    4.9630    1.4860    1.9481   30.6029 
1330.00    4.9430    1.5021    1.9943   30.7251 
1330.20    4.9360    1.5759    2.1037   30.3200 
1330.40    4.5712    1.7418    2.4473   27.6498 
1330.60    3.8671    1.8678    2.7979   25.2738 
1330.80    3.2786    1.9458    2.9879   24.0671 
1331.00    3.2006    1.8803    2.8161   23.8751 
1331.20    3.7035    1.7582    2.5784   24.4948 
1331.40    3.6878    1.6161    2.3407   26.4098 
1331.60    4.2499    1.5740    2.2499   28.3166 
1331.80    4.4737    1.6079    2.2437   29.1237 
1332.00    4.0784    1.7399    2.4696   28.0676 
1332.20    4.1322    1.7940    2.5282   27.6350 
1332.40    4.3473    1.7842    2.4801   27.6358 
1332.60    4.1700    1.7719    2.5003   28.5575 
1332.80    4.0145    1.8219    2.4342   29.3794 
1333.00    3.6464    1.8440    2.4818   28.5204 
1333.20    3.4199    1.7861    2.4080   28.4972 
1333.40    3.6088    1.8019    2.4518   27.7490 
1333.60    4.0414    1.8081    2.6555   25.8921 
1333.80    4.1219    1.7600    2.5376   25.9412 
1334.00    3.8989    1.6961    2.4701   26.3884 
1334.20    3.9630    1.6421    2.3341   27.0609 
1334.40    4.0722    1.6460    2.3239   27.5501 
1334.60    4.0697    1.6419    2.3678   27.7447 
1334.80    4.2257    1.6379    2.2501   29.9769 
1335.00    3.9304    1.6221    2.0322   31.9135 
1335.20    3.8639    1.6539    2.1037   32.2287 
1335.40    3.8914    1.7460    2.2575   31.2379 
1335.60    3.8536    1.7819    2.3339   29.9898 
1335.80    3.9239    1.7940    2.4139   29.0531 
1336.00    3.8036    1.7640    2.3401   29.3030 
1336.20    3.7126    1.7540    2.3579   28.7793 
1336.40    3.6364    1.7061    2.3581   28.3899 
1336.60    3.4057    1.7199    2.3442   28.8315 
1336.80    3.3701    1.7340    2.3979   28.3791 
1337.00    3.0824    1.7040    2.2643   29.3962 
1337.20    3.2978    1.7100    2.3779   29.1604 
1337.40    3.4137    1.7500    2.2901   29.4296 
1337.60    3.8693    1.6921    2.2203   30.3099 
1337.80    4.1054    1.6560    2.0660   30.9782 
1338.00    4.0152    1.6340    2.2040   29.8676 
1338.20    3.8291    1.6820    2.2557   29.3674 
1338.40    4.0494    1.7160    2.3919   28.3000 
1338.60    4.5418    1.7021    2.2704   28.8545 
1338.80    3.9801    1.6021    2.1046   29.9512 
1339.00    4.3316    1.5619    2.0699   30.8815 
1339.20    4.8218    1.6039    2.0799   31.1929 
1339.40    4.9103    1.6560    2.2057   30.5445 
1339.60    4.6585    1.7079    2.2716   29.9630 
1339.80    4.1642    1.7579    2.3581   29.1246 
1340.00    4.5757    1.7281    2.3178   28.5444 
1340.20    5.0298    1.6421    2.2524   28.9829 
1340.40    4.9484    1.6160    2.1081   30.7484 
1340.60    4.7621    1.6860    2.2957   28.8392 
1340.80    4.3118    1.6940    2.3645   28.5759 
1341.00    4.3690    1.7060    2.3015   28.5226 
1341.20    4.4657    1.7060    2.3104   28.5528 
1341.40    4.7048    1.7000    2.3237   27.8173 
1341.60    4.3757    1.7200    2.4799   26.6709 
1341.80    4.3297    1.7560    2.5703   26.9315 
1342.00    4.4021    1.7661    2.4722   27.5472 
1342.20    4.0445    1.6979    2.2923   28.4957 
1342.40    3.9401    1.7121    2.3322   27.5873 
1342.60    3.9578    1.6401    2.3367   27.5427 
1342.80    4.2173    1.5881    2.1557   29.2501 
1343.00    4.3564    1.6039    2.1463   29.8047 
1343.20    4.5571    1.5880    2.0423   30.1678 
1343.40    4.3828    1.5800    2.0763   30.1875 
1343.60    4.4676    1.6000    2.1219   30.4976 
1343.80    4.5490    1.6140    2.1461   31.2315 
1344.00    4.7099    1.6499    2.0624   33.1075 
1344.20    4.3724    1.7060    2.1278   32.7000 
1344.40    4.5861    1.6581    2.0101   32.7694 
1344.60    4.1494    1.6300    2.0281   32.6203 
