~Version information
VERS.                            2.00: CWLS LAS  -  VERSION 2.00
WRAP.                              NO: One line per depth step
~Well information
#MNEM.UNIT                  DATA TYPE  INFORMATION
#===.================================:==================
STRT.M                          0.000: First depth in file
STOP.M                       3287.330: Last depth in file
STEP.M                          0.200: Depth increment
NULL.                       -9999.00 : Null values
DATE.                      : LOG DATE
TIME.                           16:56: LOG TIME
WELL.                             F1: Well name
GRP.                                1: Group name
FLD.                    F: Field name
ISS.                     окон.каротаж: Well surveys
SRVC.                                : Service Company
~Curve information
#MNEM.UNIT                   API CODE   CURVE DESCRIPTION
#===.================================:==================
DEPT.M                               : Depth curve
GK   ok.MKR/H                        : :11 Гамма-активность, мкр./ч -   67.0 
NKT2  ok.PRIV                        : :13 Малый зонд приведенный,  -  230.0 
NKT1  ok.PRIV                        : :14 Большой зонд приведенный,  -  219.
W  ok.PERC                           : :12 Водонасыщенная пористость, % -  22
#
~Other information
#------------------ REMARKS AREA -----------------------
#=======================================================
# The file is generated by the program GeoTech-EditLog v2000.12
#Number of Curves = 4
~A Log Data Section
# ...
3017.60    4.7200    2.1700    3.8200   19.9700 
3017.80    4.9500    2.1800    3.9300   20.1300 
3018.00    4.8300    2.2200    3.8500   18.9600 
3018.20    5.0600    2.1000    3.8200   19.5100 
3018.40    5.5100    2.0900    3.6000   21.3300 
3018.60    5.1400    2.1200    3.5500   21.5300 
3018.80    5.1600    2.1900    3.7800   19.9000 
3019.00    4.7800    2.2100    3.7900   19.5400 
3019.20    5.1800    2.1400    3.9000   19.3600 
3019.40    5.3800    2.1000    3.5700   20.2800 
3019.60    5.4100    2.0900    3.8200   19.4700 
3019.80    5.1700    2.1000    3.7500   20.3600 
3020.00    5.4800    2.1400    3.7800   20.1600 
3020.20    5.8000    2.1300    3.6700   19.9800 
3020.40    6.2500    2.1200    3.7000   19.8500 
3020.60    6.4100    2.0900    3.6600   20.5900 
3020.80    5.8700    2.0500    3.5400   20.7300 
3021.00    6.0500    2.0900    3.5400   20.5900 
3021.20    6.1400    2.0800    3.5900   20.7000 
3021.40    6.3800    2.0800    3.5400   21.2700 
3021.60    6.6100    2.0700    3.4800   21.4300 
3021.80    6.1600    2.1300    3.6500   20.0100 
3022.00    6.2700    2.0700    3.5800   20.5100 
3022.20    5.9400    2.0900    3.6800   20.4400 
3022.40    6.1800    2.2000    3.6400   20.9100 
3022.60    5.4500    2.1900    3.9800   19.3800 
3022.80    4.9000    2.3100    4.2300   17.6700 
3023.00    4.6100    2.2800    4.6200   16.3900 
3023.20    4.0700    2.3100    4.4100   17.1800 
3023.40    4.3700    2.3200    4.3400   17.8800 
3023.60    4.5900    2.3600    4.5400   17.2500 
3023.80    4.2100    2.3500    4.5000   16.9200 
3024.00    4.8000    2.2800    4.4100   16.4900 
3024.20    4.8800    2.2300    4.2800   17.1900 
3024.40    5.2800    2.1800    3.9700   18.5200 
3024.60    5.3400    2.1800    3.9100   19.3500 
3024.80    5.0200    2.2000    3.9400   19.9700 
3025.00    5.5100    2.2200    3.9400   19.2500 
3025.20    5.8300    2.1900    3.7700   20.0700 
3025.40    5.4500    2.1900    3.8800   19.7500 
3025.60    5.3600    2.1400    3.6200   20.9400 
3025.80    5.3500    2.1700    3.7400   20.2900 
3026.00    4.5700    2.1900    3.8900   19.5300 
3026.20    4.6700    2.2200    4.1200   18.3400 
3026.40    4.6800    2.1700    3.8700   19.1700 
3026.60    5.3300    2.1500    3.7200   20.3600 
3026.80    4.8000    2.0900    3.5000   21.3100 
3027.00    5.3800    2.0500    3.6500   20.7400 
3027.20    5.5600    2.1100    3.6400   20.8400 
3027.40    6.1500    2.2000    3.9300   19.5700 
3027.60    5.2700    2.2800    4.2300   18.1200 
3027.80    5.2000    2.3200    4.3800   17.5400 
3028.00    5.0000    2.2700    4.5100   16.5000 
3028.20    4.5200    2.2200    4.1700   18.4400 
3028.40    3.6900    2.2800    4.1300   18.2700 
3028.60    4.7400    2.1800    3.8100   18.3700 
3028.80    5.1600    1.9900    3.6200   19.5800 
3029.00    5.0900    2.0400    3.4500   20.9400 
3029.20    4.6800    2.1400    3.9300   19.9000 
3029.40    4.6300    2.1800    3.8200   20.1100 
3029.60    4.8900    2.1700    3.6600   20.4900 
3029.80    4.8300    2.1700    3.7200   20.4100 
3030.00    5.5500    2.1800    3.6800   20.9900 
3030.20    5.2500    2.1600    3.6700   21.3700 
3030.40    5.0600    2.1600    3.7000   20.1300 
3030.60    5.3400    2.1400    3.8100   20.2700 
3030.80    5.5500    2.1500    3.6300   21.3300 
3031.00    5.1000    2.1200    3.5200   21.3300 
3031.20    6.0100    2.1800    3.7700   19.9300 
3031.40    4.3400    2.2200    3.9400   19.2100 
3031.60    5.0800    2.2400    4.0200   18.6100 
3031.80    5.1200    2.2100    3.8600   19.7500 
3032.00    5.1500    2.1800    3.7800   19.4700 
3032.20    5.2800    2.1300    3.6500   19.9600 
3032.40    5.4300    2.1100    3.5000   21.2700 
3032.60    5.0800    2.1300    3.6100   21.0500 
3032.80    4.5600    2.1800    3.7900   19.5600 
3033.00    5.0000    2.1300    3.7700   19.5800 
3033.20    5.1800    2.1500    3.7100   20.1300 
3033.40    4.3500    2.2400    4.0400   19.6500 
3033.60    3.7100    2.4100    4.7600   17.6900 
3033.80    3.3300    2.5300    5.0400   15.4100 
3034.00    3.2800    2.4700    5.1200   14.8000 
3034.20    3.8100    2.3100    4.5200   16.6300 
3034.40    4.2100    2.3400    4.6700   17.1000 
3034.60    3.6000    2.4900    5.1000   15.4400 
3034.80    3.5600    2.4300    4.9800   15.2300 
3035.00    3.5700    2.3100    4.3600   17.8300 
3035.20    3.6300    2.3100    4.1600   18.3900 
3035.40    4.3400    2.2500    4.0800   18.4800 
3035.60    3.7300    2.2000    3.9400   19.4500 
3035.80    3.4800    2.2700    4.2600   18.4800 
3036.00    3.6800    2.2600    4.1300   18.7700 
3036.20    3.8400    2.2600    4.0300   19.0300 
3036.40    4.1400    2.1900    3.9300   19.3500 
3036.60    4.0000    2.2000    3.8200   20.1500 
3036.80    3.8600    2.2200    4.0300   18.5000 
3037.00    3.8600    2.1700    4.0100   18.8100 
3037.20    4.0800    2.2400    4.0000   18.8900 
3037.40    4.0500    2.2800    4.3400   18.1300 
3037.60    3.6000    2.3200    4.2400   18.5600 
3037.80    3.9800    2.2800    4.3200   18.3700 
3038.00    3.5900    2.2500    3.8300   20.4000 
3038.20    3.3400    2.2100    3.7800   20.8800 
3038.40    4.1900    2.2500    3.6700   20.7300 
3038.60    3.8700    2.2100    3.7500   20.4700 
3038.80    4.3600    2.1500    3.6100   21.1200 
3039.00    4.3900    2.1400    3.4800   21.6600 
3039.20    4.2900    2.1700    3.7500   20.3400 
3039.40    3.7400    2.2000    3.9100   19.4000 
3039.60    4.0800    2.1900    4.0800   18.8900 
3039.80    4.2900    2.2500    3.9000   19.6600 
3040.00    4.6800    2.2700    4.0900   18.4400 
3040.20    4.7200    2.2400    4.1800   18.2800 
3040.40    4.7400    2.2400    4.0000   19.3400 
3040.60    5.3900    2.2600    4.1000   19.0000 
3040.80    4.5000    2.3100    4.3200   18.8500 
3041.00    3.7800    2.4500    4.5100   17.1200 
3041.20    4.3000    2.2700    4.4800   16.4900 
3041.40    4.3400    2.2300    4.0800   18.0500 
3041.60    4.8500    2.1400    3.8100   19.6000 
3041.80    5.2300    2.1700    3.8600   19.6000 
3042.00    5.1700    2.1700    3.8400   19.8200 
3042.20    5.1700    2.1700    3.8100   20.3400 
3042.40    5.2800    2.1700    3.6900   20.3600 
3042.60    4.9500    2.1400    3.6600   20.7200 
3042.80    5.0900    2.1600    3.6600   20.7200 
3043.00    5.1800    2.1800    3.6900   20.6400 
3043.20    4.3700    2.2000    3.8600   20.3200 
3043.40    5.2100    2.1900    3.6900   20.0100 
3043.60    5.2500    2.1100    3.6000   20.7900 
3043.80    5.3500    2.1300    3.6800   20.7700 
3044.00    4.7000    2.1800    3.7400   20.3200 
3044.20    4.4100    2.2500    3.9900   18.7100 
3044.40    4.9000    2.2000    4.0200   17.8800 
3044.60    5.3600    2.0700    3.7400   20.1500 
3044.80    5.3000    2.1400    3.5800   21.5200 
3045.00    5.1300    2.1600    3.7900   19.8800 
3045.20    5.5600    2.1300    3.7500   19.3700 
3045.40    5.0800    2.0900    3.6800   19.9300 
3045.60    5.0200    2.1300    3.9000   19.0200 
3045.80    4.9800    2.0900    3.8300   18.4500 
3046.00    5.1800    2.1100    3.9000   19.0700 
3046.20    5.0500    2.1800    3.8300   19.1800 
3046.40    5.2100    2.1600    3.9200   18.9000 
3046.60    4.8500    2.1600    4.0000   18.7500 
3046.80    5.2500    2.1700    3.9700   19.1100 
3047.00    5.0900    2.2200    4.0100   18.3800 
3047.20    5.0100    2.1800    3.8700   18.5800 
3047.40    4.8800    2.1600    4.0600   19.0800 
3047.60    5.1900    2.1900    3.7400   19.6800 
3047.80    5.0500    2.1400    3.9600   19.2700 
3048.00    5.1500    2.1800    3.9100   18.4600 
3048.20    4.5600    2.0900    3.8700   18.9900 
3048.40    4.8400    2.1600    3.9800   20.1500 
3048.60    4.8100    2.2500    3.9300   20.1800 
3048.80    4.5100    2.2600    3.9500   19.5500 
3049.00    4.4900    2.2800    4.0700   18.8800 
3049.20    4.7100    2.2400    4.1600   18.5400 
3049.40    4.2000    2.2400    4.0800   19.0400 
3049.60    4.6600    2.3000    4.0400   19.2500 
3049.80    4.7400    2.2800    4.0400   19.1600 
3050.00    4.7300    2.2200    4.0600   18.5000 
3050.20    4.5900    2.1700    3.7100   18.7800 
