~Version information
VERS.                            2.00: CWLS LAS  -  VERSION 2.00
WRAP.                              NO: One line per depth step
~Well information
#MNEM.UNIT                  DATA TYPE  INFORMATION
#===.================================:==================
STRT.M                          0.000: First depth in file
STOP.M                       3287.330: Last depth in file
STEP.M                          0.200: Depth increment
NULL.                       -9999.00 : Null values
DATE.                      : LOG DATE
TIME.                           16:56: LOG TIME
WELL.                             F1: Well name
GRP.                                1: Group name
FLD.                    F: Field name
ISS.                     окон.каротаж: Well surveys
SRVC.                                : Service Company
~Curve information
#MNEM.UNIT                   API CODE   CURVE DESCRIPTION
#===.================================:==================
DEPT.M                               : Depth curve
GK   ok.MKR/H                        : :11 Гамма-активность, мкр./ч -   67.0 
NKT2  ok.PRIV                        : :13 Малый зонд приведенный,  -  230.0 
NKT1  ok.PRIV                        : :14 Большой зонд приведенный,  -  219.
W  ok.PERC                           : :12 Водонасыщенная пористость, % -  22
#
~Other information
#------------------ REMARKS AREA -----------------------
#=======================================================
# The file is generated by the program GeoTech-EditLog v2000.12
#Number of Curves = 4
~A Log Data Section
# ...
2591.20    4.5977    2.0248    3.3387   22.1085 
2591.40    4.0128    2.0126    3.1652   23.5072 
2591.60    4.2570    2.0787    3.2068   23.3697 
2591.80    4.2236    2.0487    3.2652   22.8910 
2592.00    4.8974    2.0678    3.3284   23.1810 
2592.20    4.8861    2.1174    3.3339   23.0215 
2592.40    4.7467    2.0687    3.4680   22.5105 
2592.60    4.1500    2.1113    3.3400   22.8419 
2592.80    4.2433    2.1613    3.4497   21.6039 
2593.00    4.4581    2.1374    3.7126   19.4303 
2593.20    4.6248    2.1752    4.0290   18.6719 
2593.40    4.3546    2.1809    3.9550   18.8801 
2593.60    4.5730    2.0661    3.5280   20.4203 
2593.80    4.3971    1.9984    3.3058   20.9485 
2594.00    4.5199    1.9100    3.2084   21.9950 
2594.20    4.6754    1.9339    2.9981   23.3054 
2594.40    4.7856    2.0100    3.2526   22.5985 
2594.60    4.5496    2.0926    3.5461   21.6013 
2594.80    4.3059    2.1439    3.5952   21.2135 
2595.00    4.9203    2.1235    3.5461   21.2665 
2595.20    4.6612    2.0539    3.4622   21.9488 
2595.40    4.6976    2.0952    3.4439   21.8526 
2595.60    4.4924    2.1326    3.5350   20.7965 
2595.80    4.6078    2.1348    3.6890   19.7760 
2596.00    4.5310    2.1074    3.8258   19.3437 
2596.20    4.3810    2.1200    3.7397   19.9749 
2596.40    4.5541    2.1139    3.7789   20.7194 
2596.60    4.4992    2.1726    3.6226   21.4828 
2596.80    4.5233    2.1287    3.4935   21.4246 
2597.00    4.3778    2.0839    3.5045   21.8188 
2597.20    5.0214    2.0948    3.3810   22.3891 
2597.40    5.3209    2.0348    3.1248   23.5729 
2597.60    5.2479    1.9835    2.8632   24.6585 
2597.80    5.5839    1.8497    2.7641   24.6414 
2598.00    5.7515    1.7161    2.4558   26.2327 
2598.20    5.0435    1.6761    2.4287   27.0721 
2598.40    5.4933    1.6765    2.3552   28.8998 
2598.60    5.2880    1.7926    2.4552   28.6835 
2598.80    5.0259    1.8829    2.7240   26.1640 
2599.00    5.1861    2.0487    3.2194   22.2449 
2599.20    5.2010    2.0348    3.3655   20.4666 
2599.40    4.5270    1.9539    3.5670   19.8822 
2599.60    4.8198    2.0152    3.4904   20.6333 
2599.80    4.8746    2.0813    3.6074   20.8142 
2600.00    4.6794    2.0800    3.4790   21.1806 
2600.20    4.6459    2.0626    3.5146   20.8845 
2600.40    4.5492    2.1287    3.5661   21.1868 
2600.60    4.6670    2.0874    3.4991   21.6137 
2600.80    4.5548    2.0674    3.4067   22.7109 
2601.00    4.5070    2.0687    3.1622   24.1961 
2601.20    4.2901    2.0374    3.1097   24.3304 
2601.40    4.3909    1.9761    2.9587   24.9941 
2601.60    4.1556    1.9587    2.8213   25.5245 
2601.80    4.2078    1.9461    2.8887   25.0870 
2602.00    4.1052    1.9087    2.8893   24.9540 
2602.20    4.3697    1.8761    2.7452   25.2380 
2602.40    4.6037    1.8035    2.6970   25.4992 
2602.60    4.3324    1.7574    2.5100   27.0013 
2602.80    4.5941    1.7813    2.5029   27.0180 
2603.00    4.4484    1.7652    2.5613   26.9080 
2603.20    4.3190    1.8013    2.6003   25.9264 
2603.40    4.4052    1.8100    2.7057   25.8296 
2603.60    4.5122    1.8139    2.5804   26.6297 
2603.80    4.5378    1.8300    2.7013   25.7065 
2604.00    4.3761    1.8539    2.6994   26.0318 
2604.20    4.0242    1.9278    3.0126   24.7318 
2604.40    4.5848    1.9626    3.0387   24.6442 
2604.60    4.5665    1.9748    2.9354   25.7400 
2604.80    4.3897    1.8900    2.6626   27.5303 
2605.00    4.1313    1.8639    2.5900   27.6094 
2605.20    4.1616    1.8974    2.7678   25.9292 
2605.40    4.1152    1.9400    2.8256   24.7832 
2605.60    4.1632    1.9639    3.2459   22.1950 
2605.80    3.7645    2.1520    3.8633   20.2553 
2606.00    3.3371    2.4239    4.6262   17.0598 
2606.20    3.6662    2.3319    4.5680   17.1087 
2606.40    4.1613    2.0922    3.7330   20.5469 
2606.60    4.1698    2.0087    3.1970   23.5135 
2606.80    4.0110    1.9913    3.0513   24.4723 
2607.00    3.7010    1.9839    3.0126   25.1901 
2607.20    4.0227    2.0226    2.9787   25.8459 
2607.40    4.0674    2.0587    2.9156   25.6500 
2607.60    4.1874    2.0074    3.0270   24.4946 
2607.80    3.9413    1.9587    2.8952   25.1067 
2608.00    3.8681    1.9213    2.9284   24.4610 
2608.20    3.5799    1.8987    2.8900   24.5591 
2608.40    3.6102    1.9239    2.9011   24.9335 
2608.60    3.6294    1.9778    3.1744   24.7341 
2608.80    3.9346    2.0513    2.9713   25.2918 
2609.00    4.3009    1.9848    2.9574   24.2935 
2609.20    3.8226    1.9074    2.9239   24.4397 
2609.40    4.0257    1.8874    2.8413   25.0613 
2609.60    3.9402    1.8752    2.7778   26.0779 
2609.80    3.5374    1.9674    2.7955   25.9180 
2610.00    3.8954    1.9726    2.8829   24.9998 
2610.20    3.7533    1.9435    3.0826   23.1065 
2610.40    3.8768    1.8626    2.9135   24.7398 
2610.60    3.8246    1.9300    2.9232   25.4296 
2610.80    4.0038    1.9400    2.8768   25.5910 
2611.00    3.8684    2.0003    2.9820   25.1207 
2611.20    3.5810    2.1074    3.2800   23.1567 
2611.40    3.4359    2.0300    3.2509   22.8933 
2611.60    3.8226    2.0261    3.1309   23.2489 
2611.80    4.2622    1.9700    3.0490   23.2596 
2612.00    3.9654    1.9513    3.1842   22.6694 
2612.20    3.8684    1.9652    3.2271   23.4120 
2612.40    3.6552    2.0587    3.1661   23.7787 
2612.60    3.4176    1.9952    3.0768   24.3633 
2612.80    3.8122    2.0339    3.1090   25.0329 
2613.00    3.8222    2.0900    3.0074   25.4110 
2613.20    3.8048    2.0787    3.1548   24.5429 
2613.40    4.0798    2.0074    3.0009   25.1357 
2613.60    3.9200    2.0100    2.9765   25.0921 
2613.80    3.9229    1.9887    3.0687   24.4640 
2614.00    4.1771    1.9461    2.7997   25.5864 
2614.20    4.5320    1.8522    2.7922   25.0353 
2614.40    5.0602    1.8165    2.7113   26.1892 
2614.60    4.8233    1.9252    2.8781   25.7424 
2614.80    4.5294    1.9878    3.0242   24.9825 
2615.00    4.4824    2.0800    3.1594   23.6771 
2615.20    4.7290    2.0910    3.4545   21.7479 
2615.40    4.5574    2.0526    3.2552   22.9239 
2615.60    4.6285    2.0626    3.3352   22.8196 
2615.80    4.1580    2.0800    3.3613   22.9042 
2616.00    4.0430    2.1226    3.3639   22.9325 
2616.20    4.5822    2.1435    3.3726   21.7847 
2616.40    4.4306    2.0635    3.5428   20.8152 
2616.60    4.5542    1.9544    3.1389   22.2687 
2616.80    5.1730    1.7597    2.5861   25.0822 
2617.00    5.8215    1.7252    2.5113   26.6549 
2617.20    5.3232    1.7878    2.5449   26.4149 
2617.40    4.6685    1.9278    3.0994   23.8641 
2617.60    4.7187    2.0439    3.3339   22.8209 
2617.80    4.4777    2.1074    3.3113   22.3654 
2618.00    4.6452    2.0348    3.3500   21.4248 
2618.20    4.6907    1.9974    3.3041   21.7708 
2618.40    4.6526    1.9952    3.3239   21.8043 
2618.60    4.3065    2.0109    3.3415   21.3098 
2618.80    4.4252    1.9110    3.1035   21.9840 
2619.00    4.6939    1.8752    3.0600   22.7946 
2619.20    4.9361    1.9300    3.0765   23.2854 
2619.40    4.7570    1.9626    3.1087   22.8865 
2619.60    4.3533    2.0039    3.1828   22.1493 
2619.80    4.1467    2.0842    3.6597   20.5092 
2620.00    3.5278    2.2690    4.0871   19.0188 
2620.20    3.8152    2.3548    4.4136   17.2457 
2620.40    4.1219    2.3061    4.3548   17.2368 
2620.60    4.0413    2.2057    4.0624   17.6429 
2620.80    4.3240    1.9774    3.5396   19.8181 
2621.00    4.8099    1.8535    3.0154   22.6002 
2621.20    4.7336    1.7787    2.7813   24.1359 
2621.40    5.2628    1.8191    2.8520   24.3250 
2621.60    4.8467    2.0026    3.2939   22.3161 
2621.80    4.5346    2.0078    3.3216   22.5429 
2622.00    4.8586    2.0748    3.3493   21.9310 
2622.20    4.4414    1.9584    3.1529   22.1279 
2622.40    4.9552    1.7748    2.7354   24.3236 
2622.60    5.6774    1.7000    2.4800   26.5078 
2622.80    5.4240    1.7339    2.5100   27.3362 
2623.00    5.8012    1.8568    2.7378   26.1328 
2623.20    4.9429    2.0416    3.4039   22.2839 
2623.40    4.4004    2.1352    3.6900   20.4808 
2623.60    4.4072    2.1187    3.6896   20.2281 
2623.80    4.6286    2.1226    3.7274   20.2778 
