~Version information
VERS.                            2.00: CWLS LAS  -  VERSION 2.00
WRAP.                              NO: One line per depth step
~Well information
#MNEM.UNIT                  DATA TYPE  INFORMATION
#===.================================:==================
STRT.M                          0.000: First depth in file
STOP.M                       3287.330: Last depth in file
STEP.M                          0.200: Depth increment
NULL.                       -9999.00 : Null values
DATE.                      : LOG DATE
TIME.                           16:56: LOG TIME
WELL.                             F1: Well name
GRP.                                1: Group name
FLD.                    F: Field name
ISS.                     окон.каротаж: Well surveys
SRVC.                                : Service Company
~Curve information
#MNEM.UNIT                   API CODE   CURVE DESCRIPTION
#===.================================:==================
DEPT.M                               : Depth curve
GK   ok.MKR/H                        : :11 Гамма-активность, мкр./ч -   67.0 
NKT2  ok.PRIV                        : :13 Малый зонд приведенный,  -  230.0 
NKT1  ok.PRIV                        : :14 Большой зонд приведенный,  -  219.
W  ok.PERC                           : :12 Водонасыщенная пористость, % -  22
#
~Other information
#------------------ REMARKS AREA -----------------------
#=======================================================
# The file is generated by the program GeoTech-EditLog v2000.12
#Number of Curves = 4
~A Log Data Section
# ...
2394.40    4.4267    1.8222    2.7583   25.3122 
2394.60    4.5383    1.7287    2.4593   28.3553 
2394.80    4.5990    1.7213    2.2606   31.3680 
2395.00    4.4764    1.7387    2.1265   31.8937 
2395.20    4.7171    1.7461    2.2784   29.9935 
2395.40    5.1772    1.7300    2.3474   29.0322 
2395.60    4.9194    1.7574    2.4468   27.4611 
2395.80    4.9088    1.7752    2.4678   27.4916 
2396.00    5.1851    1.9052    2.8707   25.2749 
2396.20    4.5216    1.9887    3.1048   23.7413 
2396.40    4.3909    2.0013    3.1113   23.9291 
2396.60    4.9700    2.0448    3.1174   23.5971 
2396.80    4.8187    1.9410    3.0887   22.7688 
2397.00    4.9071    1.8674    2.8771   24.1195 
2397.20    4.3829    1.8274    2.7219   25.5631 
2397.40    4.7017    1.7448    2.4496   26.6176 
2397.60    4.7426    1.7074    2.4026   26.8391 
2397.80    4.6561    1.6913    2.3884   26.7873 
2398.00    3.9397    1.7665    2.6713   25.8955 
2398.20    4.1371    1.8739    2.7897   25.4979 
2398.40    3.9132    1.9439    2.9957   24.8083 
2398.60    3.7404    1.9700    2.9556   24.3248 
2398.80    3.2285    1.9639    3.1322   23.4662 
2399.00    3.4627    1.9600    3.0787   23.7043 
2399.20    3.8354    1.9500    2.9735   24.6133 
2399.40    3.2833    1.9122    2.7561   25.3533 
2399.60    3.4946    1.8952    2.8822   25.3113 
2399.80    3.2580    1.9074    2.7800   25.3825 
2400.00    3.2116    1.8548    2.8000   25.5405 
2400.20    3.2481    1.8474    2.6135   27.3089 
2400.40    3.6665    1.8361    2.4865   28.1459 
2400.60    3.8048    1.7874    2.4861   27.8554 
2400.80    3.6575    1.7639    2.4255   28.1941 
2401.00    3.3920    1.8000    2.4761   27.6646 
2401.20    3.5020    1.8352    2.6774   27.1119 
2401.40    3.5611    1.8600    2.6478   27.1154 
2401.60    3.9400    1.8761    2.4765   27.7102 
2401.80    3.7791    1.8487    2.6078   25.4175 
2402.00    4.1623    1.7822    2.7654   23.7734 
2402.20    4.4681    1.6900    2.5819   25.4350 
2402.40    4.5383    1.7352    2.5333   25.8919 
2402.60    4.4756    1.8265    2.8291   24.6780 
2402.80    4.7252    1.9439    3.0368   23.9509 
2403.00    4.4345    2.0161    3.1619   23.4905 
2403.20    4.3497    1.9274    2.9567   25.0680 
2403.40    4.6346    1.9009    2.7028   26.9029 
2403.60    4.4111    1.8122    2.4906   27.7531 
2403.80    4.4870    1.7452    2.5039   27.4605 
2404.00    4.5655    1.8052    2.6081   26.8370 
2404.20    4.5792    1.9039    2.7852   26.0973 
2404.40    4.1946    1.9526    2.9600   25.0854 
2404.60    3.6689    2.0187    3.0639   24.0910 
2404.80    3.3393    1.9939    3.2606   23.0371 
2405.00    3.4997    2.0026    3.0594   23.3872 
2405.20    3.6263    1.9835    3.2193   21.9081 
2405.40    4.5072    1.8461    2.9793   22.6501 
2405.60    5.6467    1.7413    2.7457   24.5959 
2405.80    5.2243    1.7539    2.5500   26.7552 
2406.00    3.7709    1.8539    2.7220   25.8611 
2406.20    3.2654    1.8700    2.8000   25.4794 
2406.40    3.0617    1.8635    2.7474   25.5535 
2406.60    3.3019    1.8574    2.6065   26.0400 
2406.80    3.3948    1.8000    2.6261   25.9998 
2407.00    2.9265    1.8100    2.6784   26.5895 
2407.20    2.9181    1.8500    2.5878   27.3677 
2407.40    3.0433    1.8413    2.6574   26.9667 
2407.60    3.2394    1.8287    2.6183   26.8994 
2407.80    3.4154    1.8187    2.5474   27.2407 
2408.00    3.4296    1.7674    2.4787   27.4926 
2408.20    3.4826    1.7765    2.5103   27.3420 
2408.40    3.6998    1.7887    2.6094   25.9083 
2408.60    3.7244    1.8052    2.6500   26.2250 
2408.80    3.3787    1.8587    2.7520   25.3479 
2409.00    3.3419    1.8652    2.8955   25.0443 
2409.20    3.3368    1.9639    2.9010   25.8181 
2409.40    3.5522    1.9913    2.9578   25.5658 
2409.60    3.1044    1.9874    3.0976   24.9314 
2409.80    3.0784    1.9613    2.9235   26.0913 
2410.00    2.8942    1.9652    2.8503   25.8895 
2410.20    2.9803    1.9813    3.0320   24.3092 
2410.40    2.9907    2.0213    3.0720   23.6332 
2410.60    2.8846    2.0126    3.2033   22.7022 
2410.80    3.1265    2.0200    3.2787   22.3148 
2411.00    3.2180    2.0303    3.3816   22.1922 
2411.20    3.4110    2.1578    3.6116   21.3281 
2411.40    3.5230    2.2352    3.9446   19.2773 
2411.60    3.4170    2.2557    4.1459   18.2307 
2411.80    3.0933    2.0071    3.5335   20.3966 
2412.00    3.5797    1.8939    2.9255   23.9481 
2412.20    3.5235    1.9474    2.9935   23.9626 
2412.40    3.2383    1.9500    3.0030   23.3784 
2412.60    2.8181    1.9235    2.9200   23.3165 
2412.80    2.7720    1.8300    2.9161   23.7176 
2413.00    3.1726    1.8665    2.9261   24.4048 
2413.20    3.6452    1.9513    3.0013   24.1577 
2413.40    3.7394    1.9974    3.1056   23.7700 
2413.60    3.5987    2.0274    3.0880   24.5579 
2413.80    3.5339    1.9700    3.0352   24.7161 
2414.00    3.6755    1.9561    2.8648   25.0693 
2414.20    4.0740    1.8306    2.5680   25.5767 
2414.40    4.7831    1.6548    2.3544   27.2235 
2414.60    5.3372    1.5735    2.0896   29.8514 
2414.80    5.2200    1.4913    1.9119   32.8514 
2415.00    5.1010    1.5313    1.7803   34.4097 
2415.20    5.0658    1.5665    1.9384   32.0879 
2415.40    4.4137    1.6626    2.3033   28.0267 
2415.60    4.2404    1.7426    2.5396   26.7543 
2415.80    3.9027    1.7674    2.5655   26.3158 
2416.00    4.3699    1.7813    2.5790   26.6416 
2416.20    4.0765    1.8578    2.7339   26.6829 
2416.40    4.2509    1.9161    2.7461   26.6229 
2416.60    4.1287    1.8500    2.5400   27.9850 
2416.80    3.9646    1.8478    2.6629   27.2535 
2417.00    4.2754    1.9300    2.7390   26.4440 
2417.20    4.3658    1.8587    2.6774   25.6140 
2417.40    4.3879    1.8100    2.6687   25.8541 
2417.60    4.6091    1.8100    2.7948   25.2189 
2417.80    4.9184    1.8465    2.7968   25.7835 
2418.00    4.7190    1.9952    2.9881   25.0986 
2418.20    4.1491    2.0274    3.0581   24.0844 
2418.40    4.1181    2.0287    3.2435   23.3915 
2418.60    4.3080    2.0413    3.1900   23.8219 
2418.80    4.0210    1.9987    3.1061   23.7965 
2419.00    4.4593    1.9348    2.9310   24.6498 
2419.20    4.2388    1.8826    2.7626   25.6483 
2419.40    4.5322    1.9426    2.8939   24.4921 
2419.60    4.5293    1.9552    3.1059   22.5358 
2419.80    4.4884    2.0013    3.4048   21.1097 
2420.00    4.3784    1.9865    3.4645   21.8352 
2420.20    4.1903    2.0174    3.2048   22.9152 
2420.40    3.8519    1.9787    3.0526   23.7605 
2420.60    3.9813    1.9387    2.9500   24.6250 
2420.80    3.9922    1.9174    2.9635   24.6217 
2421.00    3.6412    1.8700    2.7700   25.9178 
2421.20    3.3595    1.8539    2.7435   26.4620 
2421.40    3.9517    1.9239    2.9139   25.6480 
2421.60    4.2393    1.9613    2.8783   25.6981 
2421.80    3.8325    1.9713    2.9516   25.0143 
2422.00    3.4584    1.9600    3.0206   24.1254 
2422.20    3.8458    1.9387    3.0065   23.0650 
2422.40    3.8361    1.8861    3.0843   22.1841 
2422.60    4.1472    1.8813    2.9591   23.0802 
2422.80    4.5803    1.8987    2.9913   23.3367 
2423.00    4.1642    1.9174    3.1052   22.5678 
2423.20    4.1865    1.8913    3.0439   23.2395 
2423.40    3.9750    1.8987    2.9087   24.4817 
2423.60    4.2030    1.8761    2.8165   24.5282 
2423.80    4.1458    1.8326    2.8610   24.4733 
2424.00    4.0248    1.8700    2.8378   24.7497 
2424.20    4.0444    1.8661    2.8184   24.9463 
2424.40    3.7392    1.8361    2.6448   26.1202 
2424.60    3.8624    1.8200    2.7132   26.2448 
2424.80    4.1939    1.8200    2.5416   26.4889 
2425.00    4.0997    1.8326    2.7865   25.1099 
2425.20    4.1120    1.8552    2.8016   25.0390 
2425.40    3.9232    1.8913    2.8381   24.8835 
2425.60    3.7113    1.9539    2.9752   24.5850 
2425.80    3.9223    1.9613    3.0184   24.2278 
2426.00    4.1551    1.9274    2.9326   24.3887 
2426.20    3.9300    1.9239    3.0035   24.2888 
2426.40    3.8263    2.0026    3.0191   24.1861 
2426.60    3.7611    2.0087    3.1865   23.0808 
2426.80    3.6549    2.0339    3.3684   22.7114 
2427.00    3.6316    2.0387    3.1435   23.4345 
