~Version information
VERS.                            2.00: CWLS LAS  -  VERSION 2.00
WRAP.                              NO: One line per depth step
~Well information
#MNEM.UNIT                  DATA TYPE  INFORMATION
#===.================================:==================
STRT.M                          0.000: First depth in file
STOP.M                       3287.330: Last depth in file
STEP.M                          0.200: Depth increment
NULL.                       -9999.00 : Null values
DATE.                      : LOG DATE
TIME.                           16:56: LOG TIME
WELL.                             F1: Well name
GRP.                                1: Group name
FLD.                    F: Field name
ISS.                     окон.каротаж: Well surveys
SRVC.                                : Service Company
~Curve information
#MNEM.UNIT                   API CODE   CURVE DESCRIPTION
#===.================================:==================
DEPT.M                               : Depth curve
GK   ok.MKR/H                        : :11 Гамма-активность, мкр./ч -   67.0 
NKT2  ok.PRIV                        : :13 Малый зонд приведенный,  -  230.0 
NKT1  ok.PRIV                        : :14 Большой зонд приведенный,  -  219.
W  ok.PERC                           : :12 Водонасыщенная пористость, % -  22
#
~Other information
#------------------ REMARKS AREA -----------------------
#=======================================================
# The file is generated by the program GeoTech-EditLog v2000.12
#Number of Curves = 4
~A Log Data Section
# ...
 229.60    1.4200    1.1360    1.4280   33.2748 
 229.80    1.3600    1.1260    1.3241   35.3090 
 230.00    1.3900    1.1400    1.2559   36.2956 
 230.20    1.6400    1.1121    1.3018   34.7595 
 230.40    1.8300    1.1000    1.3400   34.9150 
 230.60    1.9500    1.1101    1.2720   36.4420 
 230.80    1.7900    1.0660    1.1720   38.4880 
 231.00    1.6600    1.0920    1.1961   38.0561 
 231.20    1.6400    1.0660    1.2200   36.9373 
 231.40    1.8800    1.0800    1.1699   37.0645 
 231.60    2.0500    1.0700    1.2558   35.5639 
 231.80    2.2300    1.0800    1.2477   36.6336 
 232.00    1.8500    1.1040    1.2841   37.7131 
 232.20    1.8900    1.0940    1.1459   39.4343 
 232.40    1.8800    1.1180    1.2100   38.1154 
 232.60    1.9100    1.1260    1.2820   36.7791 
 232.80    2.0800    1.1640    1.3217   34.2915 
 233.00    1.8900    1.1281    1.4182   32.9464 
 233.20    1.6800    1.0860    1.2879   34.8712 
 233.40    2.0200    1.0720    1.2400   35.6581 
 233.60    1.7900    1.0460    1.2658   36.0547 
 233.80    2.1700    1.0580    1.1622   39.2874 
 234.00    2.1500    1.0840    1.1340   40.3297 
 234.20    2.1600    1.0921    1.1240   39.2716 
 234.40    2.1900    1.0740    1.2317   37.2119 
 234.60    1.9300    1.0760    1.2040   36.7844 
 234.80    1.9500    1.0700    1.2580   35.6528 
 235.00    1.7800    1.0660    1.2519   35.8349 
 235.20    1.9600    1.0840    1.2159   36.8819 
 235.40    1.9900    1.0700    1.2019   36.2413 
 235.60    1.7100    1.0181    1.1900   35.6663 
 235.80    1.9900    1.0000    1.1481   36.0538 
 236.00    2.1400    1.0060    1.1480   36.8743 
 236.20    2.2700    1.0040    1.1338   37.1200 
 236.40    2.2500    1.0160    1.1801   37.8305 
 236.60    2.1700    1.0180    1.0840   39.9122 
 236.80    2.1200    1.0380    1.0839   39.0473 
 237.00    2.2000    1.0300    1.1540   37.9460 
 237.20    2.3900    1.0360    1.1421   38.8228 
 237.40    2.1500    1.0440    1.0720   38.7866 
 237.60    2.2500    1.0200    1.1980   37.3450 
 237.80    1.8100    1.0260    1.0881   39.5698 
 238.00    2.0700    1.0100    1.0359   41.4247 
 238.20    2.4800    1.0340    1.0660   41.6872 
 238.40    2.3500    1.0300    1.0777   40.2132 
 238.60    2.1900    1.0181    1.1101   39.5991 
 238.80    2.1500    1.0240    1.0761   40.6337 
 239.00    1.9900    1.0081    1.0719   39.6529 
 239.20    2.0900    1.0119    1.1121   39.0199 
 239.40    2.3000    1.0060    1.0741   39.5212 
 239.60    1.9000    1.0080    1.0780   39.9256 
 239.80    2.1500    1.0100    1.0560   39.3656 
 240.00    2.3600    1.0120    1.1400   37.4057 
 240.20    2.3400    1.0079    1.1359   37.4260 
 240.40    2.1500    1.0140    1.0980   37.7897 
 240.60    2.1100    0.9960    1.1099   37.4600 
 240.80    2.2100    0.9980    1.1259   37.9395 
 241.00    1.9100    1.0200    1.1619   38.2978 
 241.20    2.0700    1.0300    1.0862   40.8037 
 241.40    2.4200    1.0360    1.0660   40.5576 
 241.60    2.2400    1.0140    1.0941   40.4723 
 241.80    2.0800    1.0000    1.0422   41.6029 
 242.00    2.1000    0.9960    1.0140   40.9776 
 242.20    2.0600    1.0000    1.0458   39.5877 
 242.40    2.3900    1.0019    1.1199   38.9093 
 242.60    2.5600    1.0160    1.1001   39.2615 
 242.80    2.1700    1.0060    1.0561   40.4029 
 243.00    2.4500    1.0040    1.0458   39.8329 
 243.20    2.2600    1.0300    1.1619   37.5918 
 243.40    2.2000    1.0300    1.1122   39.1134 
 243.60    2.0100    1.0380    1.1580   39.2643 
 243.80    1.9700    1.0740    1.1222   39.7609 
 244.00    2.1600    1.0540    1.1480   39.2851 
 244.20    2.0800    1.0481    1.1256   39.0945 
 244.40    2.1000    1.0440    1.0822   41.0179 
 244.60    1.9100    1.0481    1.0760   41.0972 
 244.80    2.3600    1.0360    1.1178   38.8462 
 245.00    2.1200    1.0540    1.1719   37.2305 
 245.20    2.0000    1.0400    1.1881   37.8291 
 245.40    2.0100    1.0240    1.1601   39.2976 
 245.60    2.2700    1.0560    1.0781   40.8517 
 245.80    2.4200    1.0360    1.0500   40.0050 
 246.00    2.2400    1.0260    1.1578   36.9519 
 246.20    2.0200    1.0360    1.2319   35.5374 
 246.40    2.2000    1.0320    1.2140   36.2319 
 246.60    2.3100    1.0060    1.1441   38.0841 
 246.80    2.2900    1.0080    1.0782   41.6590 
 247.00    2.3900    1.0200    1.0142   43.9004 
 247.20    2.3400    1.0160    1.0019   43.5564 
 247.40    2.3500    1.0240    1.0639   41.5237 
 247.60    2.2100    1.0300    1.0620   41.6519 
 247.80    2.1000    1.0340    1.0440   41.1556 
 248.00    2.0200    1.0360    1.1563   38.7072 
 248.20    2.2500    1.0160    1.1459   39.4021 
 248.40    2.0400    1.0360    1.0500   40.5497 
 248.60    1.9500    1.0300    1.0881   39.1136 
 248.80    2.0900    1.0160    1.1159   39.1116 
 249.00    2.2900    1.0381    1.0660   39.2868 
 249.20    2.4300    1.0140    1.1181   38.1042 
 249.40    2.2600    1.0100    1.1499   37.1547 
 249.60    2.1500    1.0100    1.1240   38.0676 
 249.80    2.1000    1.0000    1.1019   39.3573 
 250.00    2.0800    0.9960    1.0542   40.6558 
 250.20    2.3600    0.9821    1.0399   40.3629 
 250.40    2.3700    0.9880    1.0760   39.6633 
 250.60    2.2200    1.0040    1.1181   40.0662 
 250.80    2.0500    1.0140    1.0477   41.3104 
 251.00    2.1300    1.0200    1.0219   40.1567 
 251.20    2.2900    1.0060    1.1559   37.4147 
 251.40    2.0200    0.9781    1.0620   39.1733 
 251.60    1.7200    0.9880    1.0542   42.2481 
 251.80    1.9900    1.0079    0.9521   44.4703 
 252.00    1.7700    1.0040    1.0060   42.8079 
 252.20    1.9000    1.0140    1.0360   40.9065 
 252.40    2.2600    1.0160    1.1060   38.7369 
 252.60    2.3000    1.0060    1.1120   38.3652 
 252.80    2.5400    0.9900    1.0459   39.3552 
 253.00    2.3400    0.9881    1.0860   38.7088 
 253.20    1.9500    0.9800    1.0977   39.4886 
 253.40    2.2800    0.9780    1.0122   42.1149 
 253.60    2.1800    0.9720    1.0219   41.8412 
 253.80    2.0800    0.9860    0.9900   41.2845 
 254.00    2.1000    0.9860    1.0801   38.5483 
 254.20    2.2100    0.9700    1.0360   38.2686 
 254.40    2.2200    0.9819    1.1600   37.6714 
 254.60    2.3300    0.9800    1.0241   40.6315 
 254.80    2.2000    0.9840    1.0500   39.8533 
 255.00    1.9400    0.9860    1.0419   39.0387 
 255.20    2.1500    0.9800    1.0682   38.7310 
 255.40    2.3200    0.9640    1.0599   37.9237 
 255.60    2.5400    0.9700    1.1100   36.8399 
 255.80    1.9900    0.9900    1.1240   37.5628 
 256.00    2.0300    0.9920    1.0780   38.0500 
 256.20    2.1100    0.9920    1.1358   36.5210 
 256.40    2.1600    0.9740    1.1240   37.2821 
 256.60    1.9100    0.9800    1.0720   38.7515 
 256.80    1.9500    0.9860    1.1020   38.4996 
 257.00    2.3300    0.9860    1.0881   39.4438 
 257.20    2.7500    1.0100    1.0499   39.7775 
 257.40    2.3300    0.9921    1.0919   37.6097 
 257.60    2.3300    0.9800    1.0961   38.1534 
 257.80    2.1500    0.9940    1.1140   38.3318 
 258.00    2.4100    0.9840    1.1002   39.5317 
 258.20    2.0500    1.0000    1.0760   39.6350 
 258.40    2.0500    0.9841    1.0481   39.5200 
 258.60    2.2000    0.9640    1.0119   40.9795 
 258.80    2.4100    0.9840    1.0439   40.0895 
 259.00    2.1000    0.9820    1.0380   39.4629 
 259.20    2.2500    0.9781    1.0580   39.5551 
 259.40    2.3100    0.9900    1.0438   40.2867 
 259.60    1.9400    0.9900    1.0340   39.5434 
 259.80    1.7400    0.9860    1.0600   37.8953 
 260.00    1.8800    0.9800    1.0918   36.0681 
 260.20    1.9300    0.9640    1.1661   34.9815 
 260.40    2.2200    0.9640    1.1262   36.6718 
 260.60    2.0700    0.9680    1.1280   37.9755 
 260.80    2.2700    0.9700    1.0681   39.5209 
 261.00    2.2600    0.9920    1.0540   39.8119 
 261.20    2.2900    0.9711    1.0100   40.3945 
 261.40    2.3072    0.9766    1.0100   40.3670 
 261.60    2.4565    0.9648    1.0405   39.1761 
 261.80    2.4172    0.9829    1.0671   38.7905 
 262.00    2.2473    0.9900    1.0876   39.0129 
 262.20    2.3109    0.9947    1.0771   39.7165 
