~Version information
VERS.                            2.00: CWLS LAS  -  VERSION 2.00
WRAP.                              NO: One line per depth step
~Well information
#MNEM.UNIT                  DATA TYPE  INFORMATION
#===.================================:==================
STRT.M                          0.000: First depth in file
STOP.M                       3287.330: Last depth in file
STEP.M                          0.200: Depth increment
NULL.                       -9999.00 : Null values
DATE.                      : LOG DATE
TIME.                           16:56: LOG TIME
WELL.                             F1: Well name
GRP.                                1: Group name
FLD.                    F: Field name
ISS.                     окон.каротаж: Well surveys
SRVC.                                : Service Company
~Curve information
#MNEM.UNIT                   API CODE   CURVE DESCRIPTION
#===.================================:==================
DEPT.M                               : Depth curve
GK   ok.MKR/H                        : :11 Гамма-активность, мкр./ч -   67.0 
NKT2  ok.PRIV                        : :13 Малый зонд приведенный,  -  230.0 
NKT1  ok.PRIV                        : :14 Большой зонд приведенный,  -  219.
W  ok.PERC                           : :12 Водонасыщенная пористость, % -  22
#
~Other information
#------------------ REMARKS AREA -----------------------
#=======================================================
# The file is generated by the program GeoTech-EditLog v2000.12
#Number of Curves = 4
~A Log Data Section
   0.00   13.1936  -9999.00  -9999.00  -9999.00 
   0.20   11.4490  -9999.00  -9999.00  -9999.00 
   0.40    8.2988  -9999.00    4.0300   -8.5500 
   0.60    7.3356    0.2100    3.1800   -7.6000 
   0.80    7.3507    0.2100    2.9800   -7.6000 
   1.00    7.8344    0.2000    2.7500   -7.5900 
   1.20    8.1217    0.1700    1.8800   -7.7100 
   1.40    8.3886    0.0900    1.4200   -7.2800 
   1.60    8.6114    0.0900    1.2800   -6.8900 
   1.80    8.0304    0.1000    1.2800   -6.6600 
   2.00    8.0192    0.1200    1.6000   -6.8700 
   2.20    7.8066    0.1300    1.7100   -6.8100 
   2.40    7.0142    0.1300    1.6900   -6.6200 
   2.60    6.9524    0.1300    1.6000   -6.3200 
   2.80    6.1159    0.1400    2.2100   -6.1800 
   3.00    6.1517    0.3000    3.4500   -5.7500 
   3.20    6.9182    0.4100    4.2400   -5.9900 
   3.40    7.6851    0.4600    5.2200   -6.3300 
   3.60    8.3358    0.6500   10.8200   -5.0400 
   3.80    8.9682    1.5700   15.5200   -4.6800 
   4.00    8.7738    2.2400   19.6600   -5.0200 
   4.20   10.1048    2.6500   23.8300   -5.8600 
   4.40   10.8506    1.2300   18.3300   -8.8300 
   4.60   11.3424    0.3300    7.8100   -8.0500 
   4.80   10.9074    0.2500    3.8200   -7.1600 
   5.00    8.4046    0.2700    4.0300   -6.8700 
   5.20    7.8442    0.5100    7.0800   -7.8100 
   5.40    8.6213    0.5800    8.1600   -8.4700 
   5.60    8.4608    0.4100    8.7000   -8.8500 
   5.80    7.9062    0.3100    5.4200   -7.6000 
   6.00    7.3997    0.4800    5.7200   -5.8600 
   6.20    7.9968    0.6900    7.1600   -6.1500 
   6.40    7.9117    0.8300    7.9900   -7.1800 
   6.60    7.9958    0.4800    6.6600   -8.2100 
   6.80    7.3828    0.2600    3.7800   -7.1900 
   7.00    5.6192    0.2700    3.7100   -6.7800 
   7.20    5.1959    0.3300    4.8400   -6.3400 
   7.40    4.4922    0.5100    5.8000   -5.3600 
   7.60    3.5563    0.7000    7.0900   -5.2800 
   7.80    3.8565    0.8500    8.2900   -5.5800 
   8.00    3.7958    0.8900    9.1300   -7.0400 
   8.20    3.5642    0.6300    7.6500   -7.2800 
   8.40    3.2232    0.4000    3.6200   -6.9400 
   8.60    2.4963    0.1900    2.0300   -6.2000 
   8.80    2.0138    0.2100    2.7000   -4.3100 
   9.00    2.2617    0.3600    3.5800   -3.1100 
   9.20    2.3696    0.5900    4.7000   -2.0100 
   9.40    2.2407    1.2900    9.8700   -2.2600 
   9.60    2.5224    1.9400   13.1500   -3.5100 
   9.80    2.4624    2.0400   15.1000   -3.8600 
  10.00    2.9506    2.1100   15.7800   -3.9800 
  10.20    3.4424    2.1500   15.8100   -4.0500 
  10.40    3.3996    2.1300   16.0000   -4.1800 
  10.60    3.0021    2.0500   15.7600   -4.1300 
  10.80    3.3745    2.0500   15.7700   -4.0200 
  11.00    3.6200    2.1000   16.1200   -4.0000 
  11.20    3.5169    2.1200   15.7100   -3.9000 
  11.40    3.7034    2.1100   15.5200   -4.0700 
  11.60    3.7879    2.0200   15.4900   -4.1200 
  11.80    3.7796    2.0400   15.6000   -4.1400 
  12.00    3.6645    2.0200   15.4100   -4.1700 
  12.20    3.8465    1.9600   15.0900   -4.0500 
  12.40    4.1500    1.9900   14.8800   -4.0000 
  12.60    4.4538    2.0000   14.9500   -4.1000 
  12.80    4.3414    1.9800   15.2000   -4.1600 
  13.00    4.1555    1.9900   15.1800   -4.1100 
  13.20    3.9759    1.9900   15.2800   -4.1000 
  13.40    3.8952    2.0400   15.3600   -4.1300 
  13.60    4.1006    2.0100   15.6500   -4.1600 
  13.80    3.9814    2.0400   15.4700   -4.1000 
  14.00    4.1483    2.0200   15.4500   -4.1300 
  14.20    4.0155    2.0100   15.0700   -4.1400 
  14.40    4.2696    1.9700   14.9100   -4.1000 
  14.60    4.4914    1.9400   14.6800   -4.0300 
  14.80    4.0755    1.9600   14.3700   -3.7900 
  15.00    3.9924    2.0300   15.2000   -3.8900 
  15.20    4.3300    2.0600   15.5000   -3.8600 
  15.40    4.2714    2.1200   15.9300   -3.9200 
  15.60    3.9569    2.1700   15.9000   -3.9200 
  15.80    3.8055    2.1700   16.2400   -4.0000 
  16.00    4.0069    2.1900   16.3700   -3.9800 
  16.20    3.5948    2.1800   16.7100   -4.0200 
  16.40    3.5648    2.2000   16.2100   -3.9600 
  16.60    3.7717    2.2200   16.4900   -4.0300 
  16.80    4.0410    2.1400   15.5400   -3.9900 
  17.00    3.9555    2.0900   15.2900   -4.0200 
  17.20    3.9441    2.0200   15.3100   -4.0600 
  17.40    4.0083    1.9900   15.0500   -4.0400 
  17.60    4.2779    2.0100   14.8300   -4.0400 
  17.80    4.0762    1.9600   15.3400   -4.1200 
  18.00    4.0538    2.0300   15.5000   -4.0800 
  18.20    4.6010    2.0400   15.2400   -4.0700 
  18.40    4.1573    2.0100   15.1700   -4.0100 
  18.60    3.9151    2.0600   15.2400   -4.0500 
  18.80    4.1114    2.0000   14.5700   -4.2400 
  19.00    4.3403    1.8900   14.3000   -4.5800 
  19.20    3.9235    1.7100   13.4000   -4.8800 
  19.40    3.8510    1.4100   12.0600   -4.6500 
  19.60    4.2979    1.3100   10.6900   -3.5500 
  19.80    3.3980    1.6300   11.7300   -3.2400 
  20.00    3.4583    1.8400   13.3800   -3.7900 
  20.20    3.7345    1.9300   14.4900   -4.0900 
  20.40    3.5745    1.9200   14.8200   -4.1600 
  20.60    3.8482    1.9100   14.6800   -4.0600 
  20.80    3.6717    1.9500   14.7700   -3.9800 
  21.00    3.8504    1.9900   14.6500   -3.9600 
  21.20    3.7413    1.9400   14.6400   -4.0400 
  21.40    3.8125    1.9400   14.5500   -4.0000 
  21.60    3.4900    1.9200   14.3000   -3.9100 
  21.80    3.5069    1.9100   14.0900   -3.8600 
  22.00    3.6503    1.9600   14.4600   -3.9200 
  22.20    3.9917    1.9400   14.3600   -3.8800 
  22.40    4.0234    1.9400   14.6700   -3.9000 
  22.60    3.9483    1.9500   14.5000   -3.9600 
  22.80    3.7783    1.9600   14.5900   -3.9500 
  23.00    3.9417    1.9700   14.3500   -3.9900 
  23.20    3.9289    1.9300   14.5300   -3.9900 
  23.40    4.2793    1.9600   14.9300   -3.9900 
  23.60    4.1276    1.9800   14.5400   -3.9700 
  23.80    3.8683    1.9600   14.6400   -4.0000 
  24.00    3.7125    1.9200   14.6200   -3.9900 
  24.20    3.9234    1.9700   14.7800   -4.0200 
  24.40    3.9563    1.9900   14.7600   -4.0800 
  24.60    4.2431    1.9300   14.7300   -4.1500 
  24.80    4.3538    1.9400   15.0000   -4.2200 
  25.00    4.3677    1.9300   14.6900   -4.1300 
  25.20    3.7880    1.9000   14.3400   -4.0700 
  25.40    3.7197    1.8900   14.2800   -3.8800 
  25.60    3.5549    1.9700   14.6800   -3.9600 
  25.80    4.0389    1.9600   14.7200   -3.9700 
  26.00    4.0593    1.9800   14.6200   -4.0200 
  26.20    3.9583    1.9300   14.5400   -4.0100 
  26.40    3.9748    1.9400   14.4700   -3.9600 
  26.60    4.0969    1.9500   14.3600   -3.9800 
  26.80    4.4758    1.9400   14.5600   -4.0100 
  27.00    4.4734    1.9100   14.5400   -3.9600 
  27.20    3.9790    1.9500   14.4000   -3.9300 
  27.40    3.6701    1.9500   14.4000   -3.9400 
  27.60    4.0386    1.9600   14.4500   -3.9100 
  27.80    4.1579    1.9400   14.0300   -3.9000 
  28.00    3.6914    1.9100   14.4700   -3.9200 
  28.20    3.8421    1.9700   14.4500   -3.9200 
  28.40    3.7693    2.0000   14.5800   -3.9400 
  28.60    3.9442    1.9700   14.6700   -3.9800 
  28.80    3.7166    1.9500   14.6100   -3.9900 
  29.00    3.5696    1.9800   14.5500   -3.9000 
  29.20    4.0945    1.9600   14.4600   -3.9100 
  29.40    4.3058    1.9500   14.7500   -4.1000 
  29.60    4.2204    1.9200   14.4500   -4.1500 
  29.80    3.8863    1.9200   14.5200   -4.3600 
  30.00    4.1127    1.8200   13.9300   -4.5800 
  30.20    4.0558    1.6200   12.9400   -4.5100 
  30.40    4.0434    1.4600   11.8400   -3.5200 
  30.60    3.8125    1.7900   12.1800   -3.2100 
  30.80    3.6245    1.9100   14.1500   -3.9700 
  31.00    3.8011    1.8800   14.3600   -4.0900 
  31.20    3.7676    1.8900   13.9900   -4.0200 
  31.40    3.8289    1.8800   14.2300   -4.1300 
  31.60    4.2600    1.8500   13.7900   -3.9500 
  31.80    4.2907    1.8900   14.0100   -3.9900 
  32.00    3.9284    1.9000   14.0800   -3.9400 
  32.20    3.9431    1.8900   13.8200   -3.9900 
  32.40    3.8976    1.8400   13.5500   -3.9700 
  32.60    3.6889    1.8200   13.4100   -3.9300 
