~Version information
VERS.                            2.00: CWLS LAS  -  VERSION 2.00
WRAP.                              NO: One line per depth step
~Well information
#MNEM.UNIT                  DATA TYPE  INFORMATION
#===.================================:==================
STRT.M                          0.000: First depth in file
STOP.M                       3287.330: Last depth in file
STEP.M                          0.200: Depth increment
NULL.                       -9999.00 : Null values
DATE.                      : LOG DATE
TIME.                           16:56: LOG TIME
WELL.                             F1: Well name
GRP.                                1: Group name
FLD.                    F: Field name
ISS.                     окон.каротаж: Well surveys
SRVC.                                : Service Company
~Curve information
#MNEM.UNIT                   API CODE   CURVE DESCRIPTION
#===.================================:==================
DEPT.M                               : Depth curve
GK   ok.MKR/H                        : :11 Гамма-активность, мкр./ч -   67.0 
NKT2  ok.PRIV                        : :13 Малый зонд приведенный,  -  230.0 
NKT1  ok.PRIV                        : :14 Большой зонд приведенный,  -  219.
W  ok.PERC                           : :12 Водонасыщенная пористость, % -  22
#
~Other information
#------------------ REMARKS AREA -----------------------
#=======================================================
# The file is generated by the program GeoTech-EditLog v2000.12
#Number of Curves = 4
~A Log Data Section
# ...
3247.20    4.0100    2.1900    3.7700   21.3700 
3247.40    3.9200    2.3400    4.2500   18.4400 
3247.60    3.8900    2.3400    4.3000   18.0700 
3247.80    4.2800    2.3200    4.1400   18.0900 
3248.00    4.5200    2.1800    3.9000   19.2200 
3248.20    4.6300    2.0100    3.1300   23.6900 
3248.40    3.6400    1.7200    2.2000   30.1800 
3248.60    3.3500    1.7000    2.1300   33.9900 
3248.80    3.9400    2.1400    3.1100   25.5200 
3249.00    4.8000    2.1500    3.6000   20.1700 
3249.20    4.3100    1.7900    2.7100   24.1900 
3249.40    3.5700    1.5500    1.8300   33.7700 
3249.60    2.5600    1.4800    1.7200   38.3300 
3249.80    3.2200    1.9000    2.5900   32.4300 
3250.00    4.9200    2.3800    4.0200   19.9600 
3250.20    5.3700    2.2900    4.4800   16.6800 
3250.40    5.6600    2.2300    4.2600   17.9800 
3250.60    5.4200    2.2800    4.0600   18.4000 
3250.80    5.3900    2.2200    4.0900   17.7900 
3251.00    5.4300    2.2000    4.0700   17.6900 
3251.20    5.4700    2.2500    4.1000   18.3100 
3251.40    5.1548    2.2000    4.1600   17.8100 
3251.60    4.2583    2.1900    4.0500   18.5800 
3251.80    4.4429    2.1800    4.0700   18.3600 
3252.00    5.4100    2.2200    4.3100   18.4600 
3252.20    4.1200    2.3000    4.2000   18.4400 
3252.40    4.3000    2.3300    4.6100   16.6000 
3252.60    3.9000    2.3500    4.6300   16.6400 
3252.80    4.3200    2.3100    4.4300   16.7600 
3253.00    4.6700    2.1300    3.7800   19.0500 
3253.20    4.6900    2.0500    3.3600   21.3400 
3253.40    4.4300    1.9800    3.3300   22.1900 
3253.60    5.2500    2.0400    3.1300   24.0500 
3253.80    5.2100    2.0500    3.3300   22.0400 
3254.00    5.1500    1.8300    2.7200   25.7500 
3254.20    3.9800    1.7100    2.6300   27.8800 
3254.40    4.6700    2.1400    3.3600   23.4800 
3254.60    5.0200    2.3400    4.1800   18.7900 
3254.80    5.3700    2.3200    4.4000   16.8000 
3255.00    5.4200    2.2000    4.0700   17.6100 
3255.20    6.4600    2.1700    3.9300   18.4000 
3255.40    5.9100    2.2000    4.0600   18.8500 
3255.60    5.5800    2.2300    4.0600   18.6500 
3255.80    4.7200    2.3100    4.3400   18.4600 
3256.00    4.4500    2.3000    4.1700   18.8400 
3256.20    5.0700    2.3100    4.1600   18.1200 
3256.40    4.1600    2.2600    4.2900   18.1800 
3256.60    4.4200    2.2300    3.9100   19.8500 
3256.80    4.5100    2.2400    4.0100   19.9000 
3257.00    4.2900    2.3300    4.3000   18.5200 
3257.20    4.5500    2.2700    4.2300   18.4900 
3257.40    4.3400    2.2400    4.0200   19.3600 
3257.60    4.4500    2.2700    4.0300   19.3100 
3257.80    5.3400    2.2300    3.9800   19.8000 
3258.00    3.9400    2.3000    4.2400   19.7200 
3258.20    3.2000    2.4300    4.1700   19.2600 
3258.40    3.1300    2.3400    4.1700   19.0700 
3258.60    2.9200    2.3600    4.3600   18.4400 
3258.80    3.2800    2.3200    4.2500   18.3700 
3259.00    4.3600    2.2400    4.0500   18.6700 
3259.20    4.1300    2.1800    3.7800   20.2600 
3259.40    4.5800    2.0600    3.3100   22.8700 
3259.60    4.6700    1.8400    2.4700   27.1600 
3259.80    3.4900    1.5800    1.9800   33.7200 
3260.00    3.6900    1.9100    2.6700   29.8100 
3260.20    5.2700    2.2400    3.8200   19.8900 
3260.40    5.5000    2.2400    4.2000   18.5800 
3260.60    5.7200    2.1600    3.8100   19.4100 
3260.80    5.4000    2.1500    3.9200   18.5800 
3261.00    5.1300    2.1700    3.8900   19.0800 
3261.20    4.4600    2.2400    3.9100   19.2800 
3261.40    4.2400    2.1900    4.1500   17.9100 
3261.60    4.1200    2.1600    4.0600   18.5600 
3261.80    3.8600    2.2100    4.1700   18.5200 
3262.00    3.1800    2.3100    4.0700   19.4500 
3262.20    2.7500    2.3900    4.4700   18.2000 
3262.40    3.2400    2.4300    4.7300   17.2200 
3262.60    3.1800    2.3300    4.3700   17.4300 
3262.80    3.0600    2.2000    3.9300   19.7200 
3263.00    3.4300    2.3400    4.1800   20.4500 
3263.20    2.8400    2.5200    4.8000   17.4800 
3263.40    2.9000    2.5700    5.0100   16.5700 
3263.60    2.6200    2.5600    5.3300   14.9200 
3263.80    3.0600    2.5400    5.2800   15.0200 
3264.00    3.4700    2.5700    5.2600   15.1100 
3264.20    2.8300    2.5600    5.4000   14.7000 
3264.40    2.5400    2.5700    5.3900   14.5900 
3264.60    2.8300    2.5600    5.4200   14.6800 
3264.80    2.9300    2.5900    5.3500   15.2400 
3265.00    2.8900    2.5700    5.1500   15.4500 
3265.20    2.8800    2.4700    4.7400   16.6400 
3265.40    2.9800    2.4400    4.9500   16.5700 
3265.60    2.8600    2.5900    5.1400   15.6200 
3265.80    2.9000    2.5600    5.1900   15.0600 
3266.00    3.0900    2.5000    5.2100   14.7200 
3266.20    2.7500    2.4900    5.1300   15.6500 
3266.40    3.0500    2.5200    5.1100   15.8100 
3266.60    3.1400    2.5000    5.1200   15.7000 
3266.80    2.7900    2.4400    4.9800   16.0000 
3267.00    3.0400    2.5200    4.8400   16.1400 
3267.20    3.0900    2.4500    4.8300   16.7200 
3267.40    3.5300    2.3600    4.1300   19.0700 
3267.60    3.5100    2.2600    4.0700   20.8200 
3267.80    2.9500    2.5300    4.6100   18.6200 
3268.00    2.9100    2.5400    5.1300   16.3500 
3268.20    2.9600    2.5300    4.9600   16.1600 
3268.40    2.7500    2.5100    4.9600   16.4100 
3268.60    2.7000    2.5400    5.0100   16.1600 
3268.80    3.1800    2.5200    5.0800   15.5900 
3269.00    2.9300    2.4900    5.1400   15.4600 
3269.20    3.0100    2.4500    4.7600   16.5600 
3269.40    3.1600    2.4200    4.8700   16.5400 
3269.60    2.9800    2.4500    4.6500   17.0500 
3269.80    3.0400    2.4200    4.7000   17.0000 
3270.00    3.0600    2.4000    4.7000   16.9500 
3270.20    3.1200    2.4300    4.6500   16.9100 
3270.40    3.0900    2.4300    4.8000   16.0300 
3270.60    2.8345    2.4300    4.8300   16.1100 
3270.80    2.7290    2.4700    4.9700   16.2700 
3271.00    2.8081    2.5600    5.1100   16.4600 
3271.20    3.0322    2.5900    5.2400   15.6300 
3271.40    2.9531    2.5200    5.2200   14.6900 
3271.60    2.9795    2.4700    5.4400   14.4100 
3271.80    2.6500    2.6400    5.8700   12.8100 
3272.00    2.2000    2.7500    7.0600   10.3400 
3272.20    2.0300    2.6900    6.8200   10.3200 
3272.40    2.3000    2.4900    5.7000   12.7500 
3272.60    2.9000    2.4900    4.9800   15.8300 
3272.80    3.3600    2.5700    5.1900   15.1400 
3273.00    2.7300    2.5200    5.3400   14.6600 
3273.20    3.1800    2.5600    5.2400   14.7700 
3273.40    2.4800    2.5800    5.4500   14.2800 
3273.60    2.5300    2.5900    5.5900   13.8900 
3273.80    2.5800    2.4400    5.1100   14.9900 
3274.00    3.0800    2.4800    5.1500   15.5900 
3274.20    3.3200    2.5400    5.1600   15.6400 
3274.40    2.9500    2.5300    4.9400   16.6300 
3274.60    3.0600    2.5200    5.0300   16.0500 
3274.80    2.7100    2.5100    5.0500   16.1200 
3275.00    3.0500    2.5300    4.8400   16.1100 
3275.20    3.0000    2.4100    4.6000   16.8500 
3275.40    3.1000    2.3700    4.5200   18.3600 
3275.60    3.3100    2.5400    4.9100   16.9400 
3275.80    3.0300    2.5300    4.9400   16.6000 
3276.00    2.9076    2.5075    5.0330   15.9823 
3276.20    2.9958    2.4737    5.0659   15.4888 
3276.40    3.0656    2.5034    5.1992   15.5703 
3276.60    3.1102    2.5433    5.1172   15.8492 
3276.80    3.2264    2.5333    5.0130   16.1486 
3277.00    2.7861    2.5167    5.0305   16.0548 
3277.20    2.9159    2.5232    5.0505   16.3288 
3277.40    2.7765    2.4469    4.5502   17.1734 
3277.60    2.8432    2.3534    4.6264   17.3266 
3277.80    3.0675    2.3565    4.4235   18.5463 
3278.00    3.0696    2.5066    4.5356   17.9877 
3278.20    2.9137    2.4603    4.6007   16.8773 
3278.40    2.8223    2.3402    4.4567   17.0360 
3278.60    3.9243    2.1902    4.0407   18.3961 
3278.80    3.3674    2.2594    4.0763   19.6694 
3279.00    3.0299    2.4531    4.7024   17.5544 
3279.20    2.7549    2.5063    4.8919   16.8393 
3279.40    2.8024    2.5500    5.1333   15.7207 
3279.60    2.7603    2.5200    5.1429   15.6040 
3279.80    2.9399    2.5266    5.0601   16.1947 
