~Version information
VERS.                            2.00: CWLS LAS  -  VERSION 2.00
WRAP.                              NO: One line per depth step
~Well information
#MNEM.UNIT                  DATA TYPE  INFORMATION
#===.================================:==================
STRT.M                          0.000: First depth in file
STOP.M                       3287.330: Last depth in file
STEP.M                          0.200: Depth increment
NULL.                       -9999.00 : Null values
DATE.                      : LOG DATE
TIME.                           16:56: LOG TIME
WELL.                             F1: Well name
GRP.                                1: Group name
FLD.                    F: Field name
ISS.                     окон.каротаж: Well surveys
SRVC.                                : Service Company
~Curve information
#MNEM.UNIT                   API CODE   CURVE DESCRIPTION
#===.================================:==================
DEPT.M                               : Depth curve
GK   ok.MKR/H                        : :11 Гамма-активность, мкр./ч -   67.0 
NKT2  ok.PRIV                        : :13 Малый зонд приведенный,  -  230.0 
NKT1  ok.PRIV                        : :14 Большой зонд приведенный,  -  219.
W  ok.PERC                           : :12 Водонасыщенная пористость, % -  22
#
~Other information
#------------------ REMARKS AREA -----------------------
#=======================================================
# The file is generated by the program GeoTech-EditLog v2000.12
#Number of Curves = 4
~A Log Data Section
# ...
 852.80    2.8200    1.0823    1.2217   37.5831 
 853.00    2.8100    1.1000    1.2023   38.2028 
 853.20    3.0600    1.1153    1.2459   37.8223 
 853.40    2.9300    1.0923    1.2147   38.0527 
 853.60    2.3700    1.0930    1.1500   38.5044 
 853.80    2.9800    1.0853    1.2253   38.0045 
 854.00    2.8000    1.0647    1.1453   39.8058 
 854.20    2.5100    1.0923    1.1358   39.1808 
 854.40    2.8300    1.1000    1.2500   36.3033 
 854.60    2.7900    1.1000    1.2953   36.1690 
 854.80    2.8300    1.1223    1.2947   37.3982 
 855.00    2.8000    1.1553    1.2623   38.0513 
 855.20    2.4800    1.1377    1.2264   37.6845 
 855.40    2.3700    1.1223    1.2877   36.9892 
 855.60    2.6200    1.1270    1.2753   37.8653 
 855.80    2.6400    1.1530    1.3053   35.5360 
 856.00    2.6800    1.0577    1.2753   35.2372 
 856.20    2.3500    1.0947    1.2241   36.9427 
 856.40    2.3100    1.1094    1.3188   36.0867 
 856.60    2.2400    1.1600    1.3306   36.2649 
 856.80    2.6700    1.1647    1.3247   37.0631 
 857.00    2.7300    1.2123    1.3730   36.7193 
 857.20    2.8800    1.2023    1.3517   36.6951 
 857.40    2.7600    1.2053    1.3970   34.9129 
 857.60    3.1000    1.2047    1.4817   33.5125 
 857.80    3.0200    1.2223    1.4910   33.4914 
 858.00    2.7700    1.2623    1.5706   32.5952 
 858.20    2.5100    1.2253    1.5323   32.4443 
 858.40    2.5400    1.2123    1.4500   33.8895 
 858.60    2.6800    1.2223    1.4911   33.3167 
 858.80    2.4800    1.2553    1.5506   32.9591 
 859.00    2.4100    1.2353    1.4677   34.0382 
 859.20    2.4500    1.2523    1.4877   34.3550 
 859.40    2.7200    1.2400    1.4641   33.7882 
 859.60    2.7300    1.2200    1.4741   33.1590 
 859.80    2.7300    1.2323    1.5517   32.4062 
 860.00    2.6900    1.2477    1.5241   32.4393 
 860.20    2.2900    1.2200    1.5442   32.5023 
 860.40    2.4900    1.2300    1.5647   32.6497 
 860.60    2.8600    1.2577    1.6047   32.0241 
 860.80    2.7800    1.2423    1.5643   33.1770 
 861.00    2.8400    1.2577    1.5541   33.1878 
 861.20    2.5900    1.2500    1.5423   32.8716 
 861.40    2.4600    1.2377    1.5470   32.4144 
 861.60    2.4000    1.2400    1.5147   32.4844 
 861.80    2.5604    1.2273    1.5800   31.9293 
 862.00    2.6945    1.2039    1.5800   32.3507 
 862.20    2.8419    1.2267    1.4801   33.2458 
 862.40    2.7819    1.2100    1.5100   32.7958 
 862.60    2.7718    1.1900    1.5304   33.1207 
 862.80    2.4145    1.2167    1.4529   34.6404 
 863.00    2.7409    1.2067    1.4266   35.8199 
 863.20    2.3828    1.2167    1.3767   36.7327 
 863.40    2.7491    1.2100    1.3501   36.1289 
 863.60    2.4237    1.1866    1.4269   34.2609 
 863.80    2.5573    1.2067    1.4597   34.3581 
 864.00    2.4955    1.2067    1.4435   34.7573 
 864.20    2.3826    1.2234    1.4338   33.7618 
 864.40    2.3337    1.2334    1.5397   32.2577 
 864.60    2.5691    1.2233    1.5033   32.4715 
 864.80    2.3582    1.1865    1.4966   32.5493 
 865.00    2.6073    1.1667    1.4334   34.5235 
 865.20    2.4845    1.1833    1.3536   35.2417 
 865.40    2.3499    1.1700    1.4134   34.4734 
 865.60    2.1955    1.1866    1.4867   34.1773 
 865.80    2.5955    1.1934    1.3899   35.9832 
 866.00    2.7427    1.2168    1.3867   35.9005 
 866.20    2.7473    1.2234    1.4267   35.1017 
 866.40    2.8045    1.2200    1.5007   33.2937 
 866.60    2.4819    1.2100    1.4899   33.5255 
 866.80    2.5473    1.2200    1.4868   33.7271 
 867.00    2.6036    1.2366    1.4903   33.2973 
 867.20    2.5591    1.2267    1.4826   34.0159 
 867.40    2.4936    1.2200    1.4636   34.3891 
 867.60    2.4809    1.2066    1.4631   33.9379 
 867.80    2.5145    1.2166    1.5000   33.9266 
 868.00    2.7264    1.1999    1.4000   34.1516 
 868.20    2.7663    1.2134    1.4666   33.6844 
 868.40    2.6509    1.2066    1.4564   33.5100 
 868.60    2.4600    1.2033    1.4363   33.7155 
 868.80    2.4918    1.2133    1.4899   33.3637 
 869.00    2.4409    1.2067    1.4799   34.0258 
 869.20    2.5345    1.2233    1.4903   33.5415 
 869.40    2.3991    1.2166    1.4196   33.6397 
 869.60    2.1955    1.2033    1.4328   33.3991 
 869.80    2.1864    1.1934    1.4597   33.5648 
 870.00    2.4436    1.2134    1.4567   33.6162 
 870.20    2.3882    1.2033    1.4866   32.7403 
 870.40    2.5828    1.1867    1.4262   34.1819 
 870.60    2.6918    1.2034    1.4466   34.2713 
 870.80    2.6782    1.2034    1.3896   35.2884 
 871.00    2.5045    1.2067    1.4232   34.6749 
 871.20    2.4281    1.2166    1.4597   33.2591 
 871.40    2.2573    1.1966    1.5670   32.2866 
 871.60    2.1491    1.2001    1.4263   34.4214 
 871.80    2.1800    1.2133    1.4968   33.9794 
 872.00    2.2791    1.2501    1.5168   33.7854 
 872.20    2.6036    1.2466    1.5266   34.2466 
 872.40    2.6909    1.2132    1.3830   35.6101 
 872.60    2.2018    1.2033    1.4201   35.2038 
 872.80    2.2482    1.1900    1.3465   35.5800 
 873.00    2.4900    1.1467    1.3132   36.1135 
 873.20    3.1391    1.1767    1.3768   35.1536 
 873.40    3.1000    1.1934    1.3928   35.0799 
 873.60    2.8573    1.1699    1.4064   35.3328 
 873.80    2.9191    1.1667    1.3266   36.3719 
 874.00    2.8318    1.1800    1.3735   34.4854 
 874.20    2.6791    1.1799    1.4668   32.1505 
 874.40    2.3600    1.1466    1.4733   32.8376 
 874.60    2.4890    1.1567    1.3833   34.7382 
 874.80    2.2336    1.2101    1.4301   34.2469 
 875.00    2.4982    1.2034    1.4870   32.1193 
 875.20    2.5190    1.1999    1.5030   31.0440 
 875.40    2.2472    1.1767    1.5334   30.8189 
 875.60    2.2236    1.1967    1.6134   30.7813 
 875.80    2.1064    1.1999    1.5061   32.0713 
 876.00    2.2373    1.1867    1.5070   32.1519 
 876.20    2.0327    1.1900    1.5166   32.8634 
 876.40    2.0309    1.1900    1.4064   34.8531 
 876.60    1.9455    1.2034    1.4601   34.6964 
 876.80    2.0991    1.2133    1.4368   34.5124 
 877.00    2.2718    1.1900    1.3765   34.8823 
 877.20    2.3291    1.1800    1.4333   34.6519 
 877.40    2.2918    1.1867    1.3963   35.2034 
 877.60    2.1964    1.1966    1.4734   33.7812 
 877.80    2.1945    1.2001    1.4430   34.7894 
 878.00    2.1991    1.2033    1.4134   35.2412 
 878.20    1.9872    1.1966    1.3697   36.3203 
 878.40    2.0318    1.1632    1.2834   36.3251 
 878.60    2.3046    1.1333    1.3033   35.6172 
 878.80    2.2936    1.1033    1.2394   36.5921 
 879.00    2.1318    1.1000    1.2171   35.3835 
 879.20    2.3118    1.0900    1.3433   33.9085 
 879.40    2.2691    1.0800    1.2797   35.6985 
 879.60    2.2273    1.0967    1.3131   36.2205 
 879.80    2.4191    1.1334    1.3170   36.7492 
 880.00    2.5255    1.1567    1.2697   36.4219 
 880.20    2.4436    1.1267    1.2868   34.9152 
 880.40    2.4773    1.0867    1.3466   34.4213 
 880.60    2.3527    1.1267    1.3533   34.5876 
 880.80    2.4018    1.1367    1.3968   33.5474 
 881.00    2.4236    1.1501    1.4537   33.0332 
 881.20    2.4273    1.1600    1.4030   34.0270 
 881.40    2.6527    1.1967    1.4437   33.0625 
 881.60    2.4882    1.1733    1.4734   32.6377 
 881.80    2.4982    1.1467    1.4167   33.6177 
 882.00    2.5627    1.1767    1.4167   33.7792 
 882.20    2.5955    1.1567    1.4401   32.8675 
 882.40    2.9864    1.1567    1.3667   33.5121 
 882.60    2.8136    1.1400    1.4070   32.7615 
 882.80    2.7355    1.1433    1.4733   32.9679 
 883.00    2.8191    1.1701    1.4099   34.0842 
 883.20    2.9600    1.1600    1.3601   34.1393 
 883.40    3.1337    1.1434    1.3964   34.3128 
 883.60    3.4518    1.1400    1.3936   35.1849 
 883.80    3.2855    1.1701    1.3132   36.0734 
 884.00    2.8045    1.1700    1.3767   34.9623 
 884.20    2.8164    1.1700    1.3966   34.8278 
 884.40    3.1082    1.1867    1.4303   34.3681 
 884.60    2.8954    1.2069    1.4669   33.4826 
 884.80    2.4973    1.2667    1.6437   31.1331 
 885.00    2.6018    1.2701    1.6201   31.6229 
 885.20    2.4754    1.2599    1.5830   31.7630 
 885.40    2.2100    1.1699    1.4499   34.1513 
