~Version information
VERS.                            2.00: CWLS LAS  -  VERSION 2.00
WRAP.                              NO: One line per depth step
~Well information
#MNEM.UNIT                  DATA TYPE  INFORMATION
#===.================================:==================
STRT.M                          0.000: First depth in file
STOP.M                       3287.330: Last depth in file
STEP.M                          0.200: Depth increment
NULL.                       -9999.00 : Null values
DATE.                      : LOG DATE
TIME.                           16:56: LOG TIME
WELL.                             F1: Well name
GRP.                                1: Group name
FLD.                    F: Field name
ISS.                     окон.каротаж: Well surveys
SRVC.                                : Service Company
~Curve information
#MNEM.UNIT                   API CODE   CURVE DESCRIPTION
#===.================================:==================
DEPT.M                               : Depth curve
GK   ok.MKR/H                        : :11 Гамма-активность, мкр./ч -   67.0 
NKT2  ok.PRIV                        : :13 Малый зонд приведенный,  -  230.0 
NKT1  ok.PRIV                        : :14 Большой зонд приведенный,  -  219.
W  ok.PERC                           : :12 Водонасыщенная пористость, % -  22
#
~Other information
#------------------ REMARKS AREA -----------------------
#=======================================================
# The file is generated by the program GeoTech-EditLog v2000.12
#Number of Curves = 4
~A Log Data Section
# ...
2164.80    3.0487    1.9935    3.3132   21.9270 
2165.00    3.0490    1.9500    3.1087   23.3259 
2165.20    2.9865    1.9526    3.0287   24.0746 
2165.40    2.9863    2.0161    3.0781   23.7117 
2165.60    3.2357    1.9974    3.1222   23.6103 
2165.80    3.1555    1.9726    2.9887   24.7684 
2166.00    3.2413    2.0187    3.1113   24.0554 
2166.20    3.0026    2.0152    3.0894   23.7395 
2166.40    3.5439    2.0000    3.2413   22.8118 
2166.60    3.4954    1.9348    3.0535   23.7111 
2166.80    3.6667    1.9113    2.9161   25.2462 
2167.00    3.4454    1.9665    2.9971   25.0676 
2167.20    3.1980    2.0926    3.2161   23.7886 
2167.40    3.2930    2.0987    3.3026   22.9421 
2167.60    3.5763    2.0535    3.1906   22.9576 
2167.80    3.9029    1.9835    3.1561   23.1227 
2168.00    3.5945    1.9726    3.1797   23.9250 
2168.20    3.2952    2.0226    3.1261   24.4461 
2168.40    3.5415    2.0361    3.1161   24.2067 
2168.60    3.3848    1.9500    2.9861   24.4987 
2168.80    3.4990    1.9713    3.0203   24.1854 
2169.00    3.6958    1.9639    3.1213   24.2304 
2169.20    3.4352    2.0200    3.0584   25.1495 
2169.40    3.4428    2.0361    3.0248   25.0382 
2169.60    3.7517    1.9761    2.9013   24.9948 
2169.80    3.3067    1.9100    2.8858   25.4572 
2170.00    3.8497    1.9074    2.7322   25.8103 
2170.20    3.9900    1.8713    2.7565   25.4083 
2170.40    3.8472    1.8587    2.8709   24.6905 
2170.60    4.4328    1.8361    2.7932   25.5911 
2170.80    4.1974    1.8413    2.6900   26.7171 
2171.00    4.3646    1.8578    2.6494   27.0737 
2171.20    4.5040    1.9287    2.7278   26.2626 
2171.40    5.1182    1.9300    2.8313   26.1324 
2171.60    4.5878    1.9665    2.9620   25.0475 
2171.80    4.3387    2.0213    3.1648   24.0420 
2172.00    3.8615    2.0626    3.1774   23.7711 
2172.20    3.3016    2.0913    3.4684   21.9892 
2172.40    3.0472    2.0687    3.3848   21.7268 
2172.60    2.9093    2.0361    3.3657   21.9720 
2172.80    3.0393    2.0239    3.3787   22.2991 
2173.00    2.7926    2.0452    3.2629   22.9625 
2173.20    2.9422    2.1013    3.5019   22.3639 
2173.40    3.0780    2.1539    3.6274   21.9454 
2173.60    2.7889    2.1874    3.6296   21.6419 
2173.80    2.9135    2.1626    3.6168   21.5483 
2174.00    2.9374    2.1835    3.5371   21.2887 
2174.20    3.2178    2.1035    3.4797   21.1519 
2174.40    3.3609    2.0200    3.4996   21.3041 
2174.60    3.2381    1.9913    3.2661   22.0363 
2174.80    3.0497    1.9965    3.2471   22.0882 
2175.00    2.8374    2.1000    3.6026   21.0367 
2175.20    2.8943    2.0939    3.6739   20.9490 
2175.40    3.1187    2.1313    3.5937   21.5794 
2175.60    3.1659    2.1135    3.4748   22.0915 
2175.80    3.2622    2.0574    3.2826   23.1317 
2176.00    3.2567    2.0339    3.1867   24.2957 
2176.20    2.7423    2.0800    3.1090   24.4192 
2176.40    3.1343    2.0613    3.2687   23.3019 
2176.60    3.0037    2.0748    3.2944   23.0303 
2176.80    3.3855    2.0487    3.2454   23.9817 
2177.00    3.5922    2.0500    3.2142   23.6929 
2177.20    3.2220    2.0500    3.2058   23.7629 
2177.40    3.3583    2.0400    3.1900   23.4515 
2177.60    3.4417    2.0152    3.3048   23.2937 
2177.80    2.8671    2.0665    3.3032   23.7510 
2178.00    3.0216    2.0961    3.2735   23.6878 
2178.20    3.2122    2.0887    3.2761   23.3780 
2178.40    3.3004    2.0322    3.1580   23.5126 
2178.60    3.2835    1.9548    3.0287   23.7611 
2178.80    3.1480    1.9187    2.9413   24.4991 
2179.00    3.2429    1.8887    2.8110   25.5930 
2179.20    3.6999    1.8887    2.7939   25.6542 
2179.40    3.4639    1.8974    2.7030   25.9648 
2179.60    3.1657    1.9026    2.8394   25.4765 
2179.80    3.2890    1.9765    3.0042   24.8028 
2180.00    3.2532    2.0726    3.1526   23.8440 
2180.20    3.0295    2.0687    3.3120   22.2960 
2180.40    3.3250    2.0287    3.3541   22.0285 
2180.60    3.0981    2.0087    3.2170   23.0661 
2180.80    3.4297    2.0039    3.1229   23.2954 
2181.00    3.4201    2.0139    3.3068   22.2848 
2181.20    3.7844    2.0574    3.4013   21.7852 
2181.40    3.1595    2.0787    3.4417   21.5583 
2181.60    3.0843    2.0526    3.4789   22.2887 
2181.80    3.4297    2.0387    3.1300   23.8413 
2182.00    3.5441    2.0326    3.1897   23.6664 
2182.20    3.4565    2.0148    3.1348   23.0102 
2182.40    4.1965    1.8996    3.0415   22.4759 
2182.60    4.6080    1.7661    2.7957   24.0953 
2182.80    4.7393    1.7587    2.6135   25.4243 
2183.00    4.6376    1.7300    2.5110   26.5972 
2183.20    4.9474    1.7539    2.4468   27.3557 
2183.40    5.1635    1.7752    2.5661   27.5068 
2183.60    4.6359    1.8313    2.6257   28.4194 
2183.80    4.6364    1.8300    2.4635   29.6127 
2184.00    4.3486    1.8452    2.4581   30.3224 
2184.20    4.1126    1.9387    2.5533   28.6662 
2184.40    4.3652    1.9013    2.6548   27.7341 
2184.60    4.1926    1.9061    2.6378   26.6106 
2184.80    4.1890    1.8548    2.6322   25.8506 
2185.00    4.3917    1.7787    2.6381   25.3786 
2185.20    4.2858    1.7990    2.7320   25.2456 
2185.40    4.2822    1.9278    2.9868   23.7554 
2185.60    4.2404    1.9200    3.1689   23.1809 
2185.80    3.7763    1.9026    2.9161   25.0252 
2186.00    4.5058    1.9087    2.8806   25.7362 
2186.20    4.7325    1.8900    2.7735   25.9687 
2186.40    4.1015    1.8761    2.7222   25.7866 
2186.60    4.3563    1.8187    2.7450   26.9529 
2186.80    4.9084    1.8126    2.3987   29.2680 
2187.00    4.7090    1.8535    2.5222   27.7375 
2187.20    4.4337    1.8161    2.6029   25.9767 
2187.40    5.1954    1.7800    2.6022   26.2496 
2187.60    4.6415    1.8152    2.6317   26.3380 
2187.80    4.5790    1.8487    2.6594   26.0348 
2188.00    4.6919    1.8713    2.8274   25.8133 
2188.20    4.5703    1.9039    2.7871   27.0230 
2188.40    4.4032    1.9022    2.5809   27.7572 
2188.60    4.5898    1.8374    2.5915   28.1126 
2188.80    4.7135    1.8113    2.5474   27.8096 
2189.00    4.3546    1.7700    2.4039   27.9274 
2189.20    4.3684    1.7852    2.5993   27.6501 
2189.40    4.5626    1.8152    2.5526   27.7489 
2189.60    4.4904    1.8287    2.5874   27.1252 
2189.80    4.5922    1.7887    2.4726   27.7500 
2190.00    4.7322    1.7926    2.4422   27.8167 
2190.20    4.5651    1.7548    2.4687   26.2128 
2190.40    4.5832    1.6452    2.4665   26.2537 
2190.60    4.3885    1.7478    2.6617   26.5361 
2190.80    3.3600    1.8816    2.7952   26.3211 
2191.00    3.2922    1.9865    2.9590   25.0933 
2191.20    2.8767    2.0078    3.1481   23.4801 
2191.40    2.7848    2.0248    3.2148   22.3096 
2191.60    2.7111    1.9322    3.1344   22.2361 
2191.80    2.8753    1.8384    2.8180   23.3825 
2192.00    3.1980    1.7287    2.6426   24.4310 
2192.20    2.6981    1.7526    2.7322   24.6691 
2192.40    2.9643    1.8317    2.9150   24.4380 
2192.60    3.0335    1.9865    3.2167   24.0211 
2192.80    2.9619    2.0313    3.0313   24.7810 
2193.00    3.0707    2.0013    3.0178   24.9470 
2193.20    3.3355    2.0465    3.2000   24.3867 
2193.40    3.1119    2.1087    3.2826   24.0806 
2193.60    2.8576    2.1000    3.1978   23.9337 
2193.80    2.9622    2.0397    3.1061   23.9495 
2194.00    3.1062    1.9165    2.9248   25.3159 
2194.20    3.3200    1.9826    2.8452   26.0231 
2194.40    3.4544    2.0287    2.9272   24.8016 
2194.60    3.2380    2.0300    3.3468   21.8048 
2194.80    3.2671    2.0487    3.5093   21.2475 
2195.00    3.5009    1.9887    3.2587   22.1652 
2195.20    3.0500    2.0126    3.2848   22.7288 
2195.40    3.2922    2.0448    3.2267   23.3535 
2195.60    3.2235    2.0074    3.1187   23.6845 
2195.80    3.3706    1.9461    2.9374   24.1524 
2196.00    3.5929    1.9200    2.9597   24.6056 
2196.20    3.3061    1.9465    2.9303   24.7782 
2196.40    3.3744    2.0439    3.2107   22.9043 
2196.60    3.3887    2.0765    3.5256   21.1482 
2196.80    3.0797    2.2090    3.9397   19.6866 
2197.00    2.5735    2.3165    4.2426   18.7561 
2197.20    2.4826    2.2784    3.9713   18.7885 
2197.40    2.3665    2.1174    3.7850   20.2500 
