~Version information
VERS.                            2.00: CWLS LAS  -  VERSION 2.00
WRAP.                              NO: One line per depth step
~Well information
#MNEM.UNIT                  DATA TYPE  INFORMATION
#===.================================:==================
STRT.M                       1140.000: First depth in file
STOP.M                       1254.600: Last depth in file
STEP.M                          0.100: Depth increment
NULL.                       -9999.00 : Null values
DATE.                      : LOG DATE
TIME.                           11:12: LOG TIME
WELL.                             F1: Well name
GRP.                                 : Group name
FLD.                    F: Field name
ISS.                     окон.каротаж: Well surveys
SRVC.                                : Service Company
~Curve information
#MNEM.UNIT                   API CODE   CURVE DESCRIPTION
#===.================================:==================
DEPT.M                               : Depth curve
GZ3 .OHMM                            : :9 A2.0M0.5N, ќм*м - 1475.0 см
IK  .MSM/M                           : :14 » , м—м/м - 1961.0 см
PS  .MV                              : :16 ѕ—, м¬ - 1575.0 см
BK  .OHMM                            : :20 Ѕ , ќм*м - 1768.0 см
#
~Other information
#------------------ REMARKS AREA -----------------------
#=======================================================
# The file is generated by the program GeoTech-EditLog v2000.12
#Number of Curves = 4
~A Log Data Section
# ...
1220.00    7.4828   135.4087  214.4712    4.8734 
1220.10    8.6518   135.8917  213.8089    4.7230 
1220.20   10.0548   136.4051  213.0434    4.7273 
1220.30   11.5524   137.3645  212.5391    4.8157 
1220.40   12.6784   138.4229  212.6322    4.9513 
1220.50   13.2348   139.1953  212.9844    5.0135 
1220.60   13.2652   139.9150  213.3538    5.0061 
1220.70   13.1306   140.2738  213.8673    4.9800 
1220.80   12.8956   140.1794  214.3105    4.9800 
1220.90   12.6304   140.4577  214.5566    4.9800 
1221.00   12.3956   140.6184  214.7696    4.9626 
1221.10   12.0957   140.6301  214.9556    4.9474 
1221.20   11.9000   140.7609  215.1224    5.0112 
1221.30   11.7956   140.9561  215.3722    5.0770 
1221.40   11.5304   140.6387  215.7453    5.0830 
1221.50   11.3304   140.3355  216.1610    5.0352 
1221.60   11.1652   140.2124  216.6599    4.9457 
1221.70   11.1347   140.0587  217.1195    4.9069 
1221.80   11.2348   140.2698  217.6149    4.9339 
1221.90   11.3696   141.0934  218.1610    4.9844 
1222.00   11.7436   141.7576  218.6322    5.0230 
1222.10   12.4433   142.3218  219.0538    4.9891 
1222.20   13.3508   143.4550  219.5603    4.9639 
1222.30   14.6176   144.6189  219.9070    5.0492 
1222.40   15.6088   145.6669  219.6486    5.3375 
1222.50   16.0348   147.2794  218.6737    5.8266 
1222.60   15.8915   148.9757  217.2300    5.7342 
1222.70   14.9105   150.6618  215.5219    4.6944 
1222.80   13.1736   153.2560  213.8050    4.0722 
1222.90   11.5824   156.5733  212.5616    4.0130 
1223.00   10.4520   160.4772  211.8590    3.9234 
1223.10    9.5220   165.2929  211.4018    3.6862 
1223.20    8.8266   170.3576  211.0552    3.3852 
1223.30    8.3608   175.4165  210.6808    3.1048 
1223.40    8.0652   180.8789  210.3156    3.0896 
1223.50    8.1392   186.0598  210.0852    3.3696 
1223.60    8.5043   189.9578  210.0269    3.7230 
1223.70    8.6306   192.9621  210.0885    3.8808 
1223.80    8.4304   195.2143  210.2635    3.9374 
1223.90    8.1956   196.0555  210.5035    3.7682 
1224.00    7.8260   196.8509  210.7644    3.2334 
1224.10    7.2915   198.3887  211.0504    2.8809 
1224.20    6.7266   200.4580  211.3102    2.7353 
1224.30    6.2260   203.1577  211.5566    2.6456 
1224.40    5.7956   206.8398  211.7905    2.5930 
1224.50    5.6348   209.7076  211.9670    2.5904 
1224.60    5.7000   211.7373  212.0078    2.6100 
1224.70    5.7000   213.7524  212.1016    2.6308 
1224.80    5.7000   214.7229  212.2218    2.7083 
1224.90    5.7696   214.2312  212.2374    2.8044 
1225.00    5.9696   213.0723  211.9878    2.8987 
1225.10    6.2043   211.1035  211.5454    3.0630 
1225.20    6.4347   208.4775  210.9165    3.2867 
1225.30    6.6044   205.9834  210.1903    3.4952 
1225.40    6.7652   202.6860  209.6208    3.6252 
1225.50    6.7348   198.7442  209.3600    3.7274 
1225.60    6.8000   195.3483  209.3878    3.7704 
1225.70    6.8000   192.5242  209.5024    3.7935 
1225.80    6.9044   190.0654  209.6478    3.7548 
1225.90    7.1348   188.6254  209.7626    3.6735 
1226.00    7.2696   187.8676  209.9287    3.7914 
1226.10    7.4695   187.4138  210.1173    4.0765 
1226.20    7.6000   187.3198  210.4318    4.2443 
1226.30    7.6000   187.2193  210.8540    4.2761 
1226.40    7.6348   186.9542  211.4027    4.2744 
1226.50    7.6652   187.0337  212.1053    4.2991 
1226.60    7.5305   186.9013  212.9736    4.2079 
1226.70    7.2266   186.3192  213.8982    3.9990 
1226.80    6.6216   186.3832  214.7662    3.5777 
1226.90    5.9956   187.3500  215.5975    3.0512 
1227.00    5.6260   188.6508  216.3445    2.7578 
1227.10    5.1610   190.8356  217.1042    2.6391 
1227.20    4.9000   194.0484  217.9676    2.5965 
1227.30    5.0044   197.0668  219.0706    2.6074 
1227.40    5.2000   199.0848  220.1114    2.6852 
1227.50    5.2696   200.3863  220.7801    2.8013 
1227.60    5.6085   200.2328  221.1217    2.9017 
1227.70    6.0347   198.1452  221.1307    3.0494 
1227.80    6.2392   195.0058  220.8260    3.2426 
1227.90    6.6044   191.3743  220.4234    3.4296 
1228.00    6.7652   187.1846  220.2382    3.5844 
1228.10    6.7695   183.2572  220.1044    3.5813 
1228.20    6.9000   179.9272  219.9723    3.4623 
1228.30    6.9348   177.3115  219.9270    3.4866 
1228.40    7.1044   175.1871  219.9330    3.7170 
1228.50    7.4740   173.9736  219.9061    3.9218 
1228.60    7.8348   172.7482  219.8869    4.0626 
1228.70    7.9347   171.1132  219.9069    4.2320 
1228.80    8.0000   169.5487  219.9409    4.3335 
1228.90    8.0000   168.5076  220.0914    4.2948 
1229.00    7.8956   167.4390  220.4949    4.1996 
1229.10    7.6305   166.8990  221.1033    4.1904 
1229.20    7.4653   167.2849  221.8235    4.1927 
1229.30    7.2956   167.8978  222.5914    4.1809 
1229.40    7.0652   168.3758  223.3227    4.2165 
1229.50    7.0000   169.4599  223.9349    4.1717 
1229.60    7.0000   170.7553  224.4390    4.0826 
1229.70    7.1040   172.1885  224.8387    4.0569 
1229.80    7.3348   174.3446  225.2253    4.0735 
1229.90    7.4348   177.1127  225.5505    4.0939 
1230.00    7.5696   179.6405  225.6434    4.1096 
1230.10    7.7695   182.1930  225.2776    4.0518 
1230.20    7.9694   185.2106  224.5479    3.9939 
1230.30    8.2044   188.2176  223.5703    3.9956 
1230.40    8.4348   191.1694  222.4294    3.8247 
1230.50    8.5696   194.5941  221.3398    3.4821 
1230.60    8.6305   197.8860  220.5523    3.2661 
1230.70    8.2919   201.0666  220.0197    3.1811 
1230.80    7.7956   204.9256  219.5339    2.9412 
1230.90    7.3216   209.6338  219.1069    2.6408 
1231.00    6.5564   214.1836  218.6881    2.5196 
1231.10    5.9262   218.8530  218.3304    2.4896 
1231.20    5.5752   223.7786  218.0476    2.4617 
1231.30    5.5038   228.0224  217.8375    2.4379 
1231.40    5.4324   230.3588  217.6818    2.4141 
1231.50    5.3610   231.4626  217.5249    2.3903 
1231.60    5.2564   234.6918  216.9744    2.3671 
1231.70    5.0000   237.1324  216.7659    2.3558 
1231.80    5.0147   239.9154  216.6805    2.3900 
1231.90    5.0854   243.3238  216.8937    2.3988 
1232.00    5.0145   245.6808  217.5766    2.4573 
1232.10    5.0855   246.0462  218.5050    2.4971 
1232.20    5.0581   245.8074  219.3766    2.4800 
1232.30    5.3853   245.0285  220.2943    2.4990 
1232.40    5.3293   243.0392  221.0624    2.6217 
1232.50    5.5436   240.5185  221.7414    2.6987 
1232.60    5.8291   238.4197  222.3246    2.7602 
1232.70    6.0000   234.7903  223.0156    2.8302 
1232.80    6.0440   231.1611  223.4776    2.9090 
1232.90    6.3000   227.4582  223.5098    3.0244 
1233.00    6.2855   223.4176  222.9721    3.0326 
1233.10    6.1709   219.7685  222.0224    2.9155 
1233.20    5.9855   217.3675  220.6479    2.8155 
1233.30    5.8560   215.3385  219.2154    2.7241 
1233.40    5.5707   214.0813  217.9966    2.6798 
1233.50    5.3709   213.5769  217.0379    2.6171 
1233.60    5.2145   212.9128  216.1951    2.6073 
1233.70    5.3581   212.5534  215.3234    2.6718 
1233.80    5.7000   211.9898  214.3676    2.8396 
1233.90    5.7146   209.3743  213.3249    3.1344 
1234.00    5.8145   206.6476  212.2834    3.5521 
1234.10    5.9145   203.0049  211.3841    3.8436 
1234.20    6.0000   197.9231  210.7415    4.1174 
1234.30    6.0000   192.9608  210.2302    4.2200 
1234.40    6.0146   189.1411  209.9195    4.2244 
1234.50    6.1000   185.7050  209.7971    4.2471 
1234.60    6.1291   182.9361  209.7945    4.2344 
1234.70    6.3291   180.7351  209.9149    4.2309 
1234.80    6.5440   179.1922  210.1845    4.0087 
1234.90    6.8000   177.7509  210.6566    3.6998 
1235.00    6.8145   176.9398  211.3246    3.6298 
1235.10    6.8564   176.6947  212.0708    3.5293 
1235.20    6.5274   176.2207  213.0202    3.2566 
1235.30    6.0560   175.8654  214.2910    3.0453 
1235.40    5.7268   176.4781  215.7278    2.9600 
1235.50    5.2709   177.1076  217.1202    2.9585 
1235.60    5.0709   177.6819  218.3166    2.9427 
1235.70    4.9145   179.3026  219.2217    2.9029 
1235.80    5.0147   181.1431  219.8522    2.9361 
1235.90    5.1293   180.9099  220.0634    3.0417 
