~Version information
VERS.                            2.00: CWLS LAS  -  VERSION 2.00
WRAP.                              NO: One line per depth step
~Well information
#MNEM.UNIT                  DATA TYPE  INFORMATION
#===.================================:==================
STRT.M                          0.000: First depth in file
STOP.M                       3287.330: Last depth in file
STEP.M                          0.200: Depth increment
NULL.                       -9999.00 : Null values
DATE.                      : LOG DATE
TIME.                           16:56: LOG TIME
WELL.                             F1: Well name
GRP.                                1: Group name
FLD.                    F: Field name
ISS.                     окон.каротаж: Well surveys
SRVC.                                : Service Company
~Curve information
#MNEM.UNIT                   API CODE   CURVE DESCRIPTION
#===.================================:==================
DEPT.M                               : Depth curve
GK   ok.MKR/H                        : :11 Гамма-активность, мкр./ч -   67.0 
NKT2  ok.PRIV                        : :13 Малый зонд приведенный,  -  230.0 
NKT1  ok.PRIV                        : :14 Большой зонд приведенный,  -  219.
W  ok.PERC                           : :12 Водонасыщенная пористость, % -  22
#
~Other information
#------------------ REMARKS AREA -----------------------
#=======================================================
# The file is generated by the program GeoTech-EditLog v2000.12
#Number of Curves = 4
~A Log Data Section
# ...
2820.80    4.2600    2.0300    3.4500   20.7900 
2821.00    4.2300    2.1300    3.9100   19.0800 
2821.20    3.9700    2.2300    4.1000   18.2800 
2821.40    3.8400    2.1900    4.1800   17.6800 
2821.60    3.6800    2.1300    3.8100   19.8200 
2821.80    3.7000    2.1200    3.4600   22.0800 
2822.00    3.5800    2.1000    3.3300   22.4700 
2822.20    3.2700    2.0500    3.3400   23.9300 
2822.40    3.5100    2.1700    3.3500   23.4300 
2822.60    3.4700    2.1500    3.6200   20.9900 
2822.80    3.3100    2.0800    3.5500   20.9500 
2823.00    3.2600    2.0000    3.2600   22.3300 
2823.20    3.7400    2.0200    3.1900   23.3600 
2823.40    3.6700    2.0700    3.4700   22.1900 
2823.60    3.9400    2.1600    3.6000   21.2000 
2823.80    3.6200    2.1000    3.4500   21.6400 
2824.00    3.6600    2.0100    3.3600   22.1700 
2824.20    3.4300    2.0600    3.3500   23.3300 
2824.40    3.3600    2.1200    3.3600   23.5500 
2824.60    2.9900    2.2200    3.5400   21.9800 
2824.80    3.5400    2.0600    3.3000   22.5100 
2825.00    3.7800    2.0000    3.0300   24.1700 
2825.20    3.2200    2.0300    3.0300   24.5300 
2825.40    3.4600    2.0400    3.2100   23.8800 
2825.60    3.5900    2.0800    3.4900   21.9900 
2825.80    3.2700    2.1000    3.3800   21.6600 
2826.00    3.2800    2.0100    3.3700   22.3000 
2826.20    3.9500    2.1100    3.5000   22.7000 
2826.40    3.5200    2.1900    3.4900   22.6600 
2826.60    3.4200    2.2200    3.7500   20.5200 
2826.80    3.7600    2.0800    3.5200   20.3200 
2827.00    4.2300    1.9500    3.2600   21.6900 
2827.20    3.2100    2.0100    3.3000   22.3300 
2827.40    3.5400    2.1500    3.7200   20.3100 
2827.60    3.3900    2.3600    4.4300   17.9500 
2827.80    3.0400    2.5800    5.5100   14.2400 
2828.00    2.8800    2.3700    5.0300   13.5100 
2828.20    3.2700    2.1600    4.3000   17.1900 
2828.40    3.7200    2.1800    3.7400   21.0500 
2828.60    3.4300    2.1300    3.4300   22.7000 
2828.80    3.5500    2.0400    3.1100   23.4100 
2829.00    3.3500    2.0300    3.3000   22.9600 
2829.20    3.3800    2.1000    3.4500   22.3100 
2829.40    3.9900    2.1400    3.5700   21.2000 
2829.60    3.5200    2.1300    3.5000   20.7600 
2829.80    3.2500    2.0500    3.5200   20.1500 
2830.00    3.1600    1.9900    3.3900   21.2900 
2830.20    3.0400    2.0400    3.4400   22.0800 
2830.40    3.3700    2.2500    3.9000   21.1800 
2830.60    2.9500    2.4000    4.0500   20.1300 
2830.80    2.8400    2.3200    4.0700   18.4800 
2831.00    2.8700    2.1700    3.9300   19.2000 
2831.20    3.5200    2.0600    3.5900   20.5700 
2831.40    3.8400    2.1000    3.6600   20.5400 
2831.60    3.0600    2.1800    3.8000   19.8100 
2831.80    3.5500    2.1700    3.8000   19.7500 
2832.00    3.6300    2.1100    3.6000   19.8400 
2832.20    4.2500    1.9900    3.3900   20.8700 
2832.40    6.1000    1.9500    3.0700   21.3900 
2832.60    6.0300    1.9200    3.3100   20.8500 
2832.80    5.6000    1.9900    3.3600   20.8700 
2833.00    4.8200    2.0400    3.5900   19.8900 
2833.20    5.0700    2.0300    3.6200   19.5600 
2833.40    5.0800    2.0500    3.7500   19.6000 
2833.60    4.9700    2.1500    3.8000   19.7500 
2833.80    4.9100    2.1600    3.8900   18.8100 
2834.00    5.3900    2.0800    3.7700   19.3500 
2834.20    5.3400    2.0500    3.4200   21.0700 
2834.40    5.7500    2.0400    3.3500   22.2200 
2834.60    5.7300    2.1000    3.2000   23.0700 
2834.80    5.0800    2.1700    3.8100   20.4100 
2835.00    4.3000    2.2000    3.8600   19.4100 
2835.20    4.1500    2.1400    3.8900   20.1700 
2835.40    3.5400    2.1800    3.6700   20.7700 
2835.60    3.3300    2.1800    3.8300   19.6800 
2835.80    3.8400    2.1500    3.7700   20.5800 
2836.00    3.3200    2.1700    3.5900   20.5300 
2836.20    3.4500    2.1100    3.6800   19.8800 
2836.40    3.8800    2.1300    3.6300   20.2100 
2836.60    3.9700    2.0300    3.4300   20.4800 
2836.80    4.7100    1.9700    3.2500   20.6800 
2837.00    5.3200    1.8800    3.2300   20.7200 
2837.20    6.0500    1.8800    3.1000   21.7400 
2837.40    5.8300    1.8500    3.0100   23.5100 
2837.60    6.1400    1.9900    3.0600   22.9400 
2837.80    5.7200    2.0400    3.4700   20.8600 
2838.00    6.3000    2.0800    3.6000   20.5800 
2838.20    5.7200    2.1800    3.9200   18.8800 
2838.40    5.0100    2.1900    4.0400   17.3300 
2838.60    5.7900    1.9900    3.4700   18.2600 
2838.80    5.5700    1.7800    2.9800   22.8900 
2839.00    5.4500    1.7900    2.7500   25.4600 
2839.20    5.9600    1.9900    3.1500   23.6100 
2839.40    5.7100    2.0900    3.5300   20.5900 
2839.60    5.5600    2.1300    3.9100   19.0100 
2839.80    5.6500    2.1300    3.8100   19.3500 
2840.00    6.5300    2.1500    3.6900   19.7000 
2840.20    6.0400    2.0400    3.2800   20.8400 
2840.40    6.3000    1.9500    3.1800   22.4400 
2840.60    5.9300    2.0300    3.3700   21.7700 
2840.80    6.1100    2.0200    3.3900   22.3600 
2841.00    4.2200    2.1800    3.6400   21.9600 
2841.20    3.6100    2.2500    3.8700   20.0100 
2841.40    3.7500    2.1600    3.6600   20.0200 
2841.60    4.6200    2.0900    3.5500   20.9100 
2841.80    5.6200    2.0300    3.6200   19.9200 
2842.00    5.5300    2.0700    3.7200   19.3400 
2842.20    4.6600    2.0500    3.5800   20.2700 
2842.40    4.2000    2.1500    3.8600   19.5500 
2842.60    4.7000    2.2500    3.9600   19.4100 
2842.80    4.8700    2.1700    3.6500   19.9500 
2843.00    4.6500    2.0800    3.5600   20.8800 
2843.20    4.7600    2.1800    3.8400   20.3400 
2843.40    4.9300    2.1400    3.5100   20.2400 
2843.60    4.5800    2.0200    3.4000   21.2400 
2843.80    3.9700    1.9300    3.1500   23.4200 
2844.00    4.1700    1.9800    3.0400   24.9600 
2844.20    5.4100    1.9800    3.0100   23.7800 
2844.40    4.6500    1.9900    3.1500   24.2300 
2844.60    3.7400    2.1100    3.2300   23.9300 
2844.80    3.4200    2.1200    3.3000   23.1200 
2845.00    3.6000    2.0900    3.2600   22.2900 
2845.20    3.8300    2.0100    3.1800   23.2600 
2845.40    3.4200    2.0700    3.3700   22.3400 
2845.60    3.0000    2.1200    3.6900   20.8800 
2845.80    3.4000    2.1400    3.4800   22.0300 
2846.00    3.3500    2.1400    3.4500   22.7600 
2846.20    3.2000    2.1700    3.5400   22.2200 
2846.40    3.2000    2.2000    3.6000   22.2200 
2846.60    3.4600    2.2500    3.6600   21.3500 
2846.80    3.1200    2.1900    3.7400   20.6900 
2847.00    3.2000    2.1000    3.4200   22.8500 
2847.20    3.1500    2.1300    3.5000   22.8300 
2847.40    3.0400    2.1800    3.5800   21.9600 
2847.60    3.4600    2.1900    3.5900   21.6600 
2847.80    3.4000    2.1800    3.6900   21.5900 
2848.00    3.7000    2.1900    3.4300   22.9400 
2848.20    3.5300    2.1700    3.4900   22.4300 
2848.40    3.5700    2.2600    3.7600   22.3600 
2848.60    3.6100    2.3300    3.9200   20.6400 
2848.80    3.9200    2.2800    4.0100   19.9800 
2849.00    3.5700    2.1800    3.7400   20.2400 
2849.20    3.2900    2.1900    3.8700   19.8000 
2849.40    3.3700    2.2400    4.1400   19.0000 
2849.60    3.3600    2.3100    4.1300   18.7800 
2849.80    3.5600    2.3300    4.3800   17.6900 
2850.00    3.3400    2.3400    4.2000   18.1700 
2850.20    3.2200    2.2500    4.3500   18.0000 
2850.40    3.5200    2.3000    4.2300   19.4400 
2850.60    3.2100    2.3700    4.1000   19.9900 
2850.80    3.7300    2.4100    4.3700   18.7200 
2851.00    3.5400    2.3900    4.3800   18.5700 
2851.20    3.2400    2.3000    4.0900   18.9800 
2851.40    3.5400    2.2200    3.9200   20.0300 
2851.60    3.5700    2.3000    3.9400   20.2200 
2851.80    3.4100    2.3000    3.8600   19.8100 
2852.00    3.1200    2.2700    4.1000   18.5200 
2852.20    2.7600    2.2400    4.2100   18.7800 
2852.40    3.1500    2.2400    3.8900   20.4500 
2852.60    3.1700    2.3300    4.1900   19.5700 
2852.80    3.5600    2.4000    4.1900   19.2700 
2853.00    3.4300    2.5800    5.1400   16.4400 
2853.20    3.3200    2.7400    5.9900   13.1100 
2853.40    3.2500    2.5900    5.9700   12.2200 
