~Version information
VERS.                            2.00: CWLS LAS  -  VERSION 2.00
WRAP.                              NO: One line per depth step
~Well information
#MNEM.UNIT                  DATA TYPE  INFORMATION
#===.================================:==================
STRT.M                       1140.000: First depth in file
STOP.M                       1254.600: Last depth in file
STEP.M                          0.100: Depth increment
NULL.                       -9999.00 : Null values
DATE.                      : LOG DATE
TIME.                           11:12: LOG TIME
WELL.                             F1: Well name
GRP.                                 : Group name
FLD.                    F: Field name
ISS.                     окон.каротаж: Well surveys
SRVC.                                : Service Company
~Curve information
#MNEM.UNIT                   API CODE   CURVE DESCRIPTION
#===.================================:==================
DEPT.M                               : Depth curve
GZ3 .OHMM                            : :9 A2.0M0.5N, ќм*м - 1475.0 см
IK  .MSM/M                           : :14 » , м—м/м - 1961.0 см
PS  .MV                              : :16 ѕ—, м¬ - 1575.0 см
BK  .OHMM                            : :20 Ѕ , ќм*м - 1768.0 см
#
~Other information
#------------------ REMARKS AREA -----------------------
#=======================================================
# The file is generated by the program GeoTech-EditLog v2000.12
#Number of Curves = 4
~A Log Data Section
# ...
1236.00    5.3581   180.2534  220.2552    3.1332 
1236.10    5.7581   179.4852  220.6672    3.3020 
1236.20    6.1726   177.5008  221.2672    3.5176 
1236.30    6.6147   174.8622  221.8943    3.6990 
1236.40    6.7585   172.5477  222.6566    3.8422 
1236.50    7.1291   169.9836  223.2549    4.0474 
1236.60    7.3145   167.1552  223.4745    4.1485 
1236.70    7.4000   165.4450  223.5513    4.1284 
1236.80    7.4000   164.7051  223.4883    4.0527 
1236.90    7.4146   163.5620  223.4141    3.9998 
1237.00    7.5291   162.5071  223.4178    3.9444 
1237.10    7.6855   162.2386  223.6865    3.9831 
1237.20    7.6436   161.9325  224.0007    4.0760 
1237.30    7.9147   161.5578  224.2576    4.1744 
1237.40    7.9707   161.5526  224.3629    4.1839 
1237.50    7.7419   161.6553  224.3771    4.0784 
1237.60    7.3709   161.5557  224.3571    3.9955 
1237.70    7.1855   161.2150  224.3458    3.8940 
1237.80    7.0707   161.2679  224.4064    3.7985 
1237.90    6.9146   161.9328  224.5659    3.7915 
1238.00    7.0145   162.4915  224.5593    3.8029 
1238.10    7.1000   163.2612  224.2357    3.8229 
1238.20    7.1000   164.7242  223.6325    3.8356 
1238.30    7.1440   165.8328  222.8652    3.8115 
1238.40    7.4146   166.6666  221.9512    3.8200 
1238.50    7.5436   167.7139  221.0925    3.8215 
1238.60    7.8581   168.8142  220.3641    3.8315 
1238.70    8.2581   169.4962  219.6779    3.8531 
1238.80    8.6440   170.8197  218.8164    3.9417 
1238.90    8.9732   171.9636  217.8132    4.0217 
1239.00    9.4726   172.3081  216.6714    4.0813 
1239.10    9.9581   173.0188  215.5231    4.0256 
1239.20   10.2564   174.0846  214.4925    3.9768 
1239.30    9.9267   174.4809  213.7984    3.7931 
1239.40    9.3829   175.0616  213.4371    3.4512 
1239.50    8.5256   176.8046  213.4723    3.0050 
1239.60    7.3692   179.3376  213.8759    2.7298 
1239.70    6.5709   182.8951  214.5708    2.6685 
1239.80    6.4147   187.6015  215.4982    2.6629 
1239.90    6.5439   193.3282  216.5927    2.6859 
1240.00    6.8000   198.4770  217.7627    2.7273 
1240.10    6.7564   203.1708  218.8682    2.7744 
1240.20    6.5145   207.1410  219.8708    2.8029 
1240.30    6.6440   209.9500  220.7572    2.8229 
1240.40    6.8854   210.8722  221.5249    2.8385 
1240.50    6.8000   211.8111  222.0897    2.8387 
1240.60    6.8145   212.3192  222.5407    2.8784 
1240.70    6.8274   212.4507  222.7771    2.7940 
1240.80    6.3707   213.5525  222.7014    2.6912 
1240.90    6.1561   214.7693  222.2517    2.6429 
1241.00    5.8709   215.4521  221.4834    2.6600 
1241.10    5.7000   216.3554  220.5318    2.6585 
1241.20    5.7000   217.1652  219.5292    2.6485 
1241.30    5.7293   217.1319  218.6516    2.6385 
1241.40    5.9000   217.1021  217.9351    2.6315 
1241.50    5.9145   216.5514  217.3412    2.6415 
1241.60    6.0436   214.8538  216.6496    2.6529 
1241.70    6.2855   213.4154  215.8896    2.6773 
1241.80    6.2000   211.9073  215.1404    2.7303 
1241.90    6.2146   208.7797  214.4781    2.8046 
1242.00    6.3581   205.4579  213.9419    2.9191 
1242.10    6.7145   202.7651  213.5535    3.1321 
1242.20    6.8291   198.8383  213.2306    3.4250 
1242.30    7.0440   195.2610  212.8345    3.7340 
1242.40    7.3000   191.6115  212.0971    4.0441 
1242.50    7.3000   187.8719  211.2638    4.3702 
1242.60    7.3145   183.6480  210.4870    4.4387 
1242.70    7.3855   179.9512  209.8615    4.4929 
1242.80    7.3147   176.5579  209.3824    4.5012 
1242.90    7.3854   173.3508  209.2917    4.4251 
1243.00    7.2274   171.1777  209.3891    4.2219 
1243.10    6.7419   170.3761  209.5542    3.8103 
1243.20    6.3564   169.5947  209.5084    3.3506 
1243.30    6.1000   169.5787  209.4224    3.0556 
1243.40    6.0854   170.3899  209.3141    3.0680 
1243.50    6.0291   170.8946  209.2829    3.3307 
1243.60    6.2291   171.0934  209.3668    3.6063 
1243.70    6.4145   171.6376  209.8733    3.8636 
1243.80    6.5147   171.2353  210.6631    4.1493 
1243.90    6.6146   169.6505  211.5146    4.2966 
1244.00    6.6855   168.2465  212.4657    4.1527 
1244.10    6.6000   166.6886  213.6202    4.1507 
1244.20    6.6436   165.0031  214.8573    4.4147 
1244.30    6.9293   163.8765  216.1080    4.5512 
1244.40    7.1146   163.3798  217.5512    4.4839 
1244.50    7.2291   162.9678  219.1034    4.3551 
1244.60    7.4291   162.3898  220.4540    4.1355 
1244.70    7.6000   162.6916  221.4821    4.0587 
1244.80    7.6000   163.3336  222.2908    4.1085 
1244.90    7.6000   164.0322  222.8698    4.0854 
1245.00    7.5855   164.2512  223.1862    3.9985 
1245.10    7.4855   164.8882  223.3807    3.9900 
1245.20    7.4145   165.9143  223.6461    3.9842 
1245.30    7.4853   166.3950  223.7883    3.9749 
1245.40    7.4000   166.8979  223.7054    4.1332 
1245.50    7.4000   167.8679  223.6026    4.2115 
1245.60    7.4145   168.7434  223.4767    4.1808 
1245.70    7.5145   169.6922  223.3109    3.9253 
1245.80    7.6293   170.8095  223.1224    3.7756 
1245.90    7.8146   172.2056  223.0054    3.7632 
1246.00    7.9145   173.3227  222.8648    3.8720 
1246.10    8.0000   174.7634  222.4674    4.0803 
1246.20    8.0291   176.7204  221.9702    4.2015 
1246.30    8.2147   178.5804  221.5014    4.2159 
1246.40    8.2854   180.1957  221.0810    4.2588 
1246.50    8.2291   182.3980  220.5706    4.3027 
1246.60    8.3855   184.2213  220.2364    4.2426 
1246.70    8.3581   186.3027  219.9335    4.1415 
1246.80    8.7293   189.2994  219.5838    4.1515 
1246.90    8.8707   192.4379  219.0610    4.1424 
1247.00    8.6128   194.5906  218.5186    3.9470 
1247.10    8.0128   197.3841  217.9441    3.3099 
1247.20    7.3547   200.9839  217.2870    2.7480 
1247.30    6.4267   204.4658  216.6785    2.5541 
1247.40    5.9415   208.9725  216.2585    2.5200 
1247.50    5.5419   215.1342  215.8593    2.5069 
1247.60    5.2000   221.5821  215.6142    2.4198 
1247.70    5.2000   227.6160  215.5974    2.3585 
1247.80    5.1853   233.4293  215.7498    2.3456 
1247.90    5.0854   238.1841  216.1366    2.3259 
1248.00    5.0581   240.7905  216.8133    2.3702 
1248.10    5.4145   242.1000  217.5992    2.4402 
1248.20    5.5291   242.5494  218.3436    2.5145 
1248.30    5.7293   241.0466  218.5883    2.6103 
1248.40    5.9146   238.9646  218.4644    2.6715 
1248.50    6.0145   235.7535  218.0499    2.6815 
1248.60    6.1000   231.9106  217.3979    2.6900 
1248.70    6.0855   228.1801  216.6190    2.6929 
1248.80    6.0147   225.2453  216.2395    2.7188 
1248.90    6.1439   221.4606  216.0907    2.7802 
1249.00    6.3855   218.2842  215.9055    2.8647 
1249.10    6.3291   215.0052  215.8258    3.0187 
1249.20    6.5436   211.2109  215.8455    3.0715 
1249.30    6.7853   207.9076  215.6750    3.0932 
1249.40    6.7146   204.2506  214.9664    3.1832 
1249.50    6.8000   200.1817  213.4381    3.2673 
1249.60    6.8000   197.3102  211.4720    3.3144 
1249.70    6.8145   195.1395  209.3200    3.3545 
1249.80    6.8853   192.3131  206.9566    3.4605 
1249.90    6.8146   190.0383  204.5883    3.6078 
1250.00    6.8855   188.4714  202.9340    3.7932 
1250.10    6.7564   187.0140  201.6540    3.9373 
1250.20    6.5145   185.0388  200.4118    3.9538 
1250.30    6.5853   184.0079  199.4345    3.8000 
1250.40    6.5000   182.8745  198.7380    3.7883 
1250.50    6.4855   181.7410  198.1757    3.7098 
1250.60    6.4145   180.7723  197.6044    3.6282 
1250.70    6.4709   181.0064  197.0902    3.4724 
1250.80    6.3147   181.1411  196.6390    3.2866 
1250.90    6.4293   182.0807  196.3532    3.1456 
1251.00    6.5564   183.5736  196.0335    3.1273 
1251.10    6.3145   184.9787  195.7106    3.1831 
1251.20    6.4436   186.4603  195.3910    3.2556 
1251.30    6.6560   188.5424  195.2200    3.2403 
1251.40    6.4000   190.5536  195.2610    3.3234 
1251.50    6.4145   191.6848  195.5523    3.4673 
1251.60    6.4709   193.6310  195.9297    3.5085 
1251.70    6.3291   195.4402  196.4068    3.4985 
1251.80    6.4707   196.7125  196.8322    3.4944 
1251.90    6.3439   198.3696  197.0317    3.5244 
