~Version information
VERS.                            2.00: CWLS LAS  -  VERSION 2.00
WRAP.                              NO: One line per depth step
~Well information
#MNEM.UNIT                  DATA TYPE  INFORMATION
#===.================================:==================
STRT.M                          0.000: First depth in file
STOP.M                       3287.330: Last depth in file
STEP.M                          0.200: Depth increment
NULL.                       -9999.00 : Null values
DATE.                      : LOG DATE
TIME.                           16:56: LOG TIME
WELL.                             F1: Well name
GRP.                                1: Group name
FLD.                    F: Field name
ISS.                     окон.каротаж: Well surveys
SRVC.                                : Service Company
~Curve information
#MNEM.UNIT                   API CODE   CURVE DESCRIPTION
#===.================================:==================
DEPT.M                               : Depth curve
GK   ok.MKR/H                        : :11 Гамма-активность, мкр./ч -   67.0 
NKT2  ok.PRIV                        : :13 Малый зонд приведенный,  -  230.0 
NKT1  ok.PRIV                        : :14 Большой зонд приведенный,  -  219.
W  ok.PERC                           : :12 Водонасыщенная пористость, % -  22
#
~Other information
#------------------ REMARKS AREA -----------------------
#=======================================================
# The file is generated by the program GeoTech-EditLog v2000.12
#Number of Curves = 4
~A Log Data Section
# ...
1508.80    2.8839    1.7940    2.6027   27.1611 
1509.00    2.7039    1.8299    2.4401   28.2134 
1509.20    2.8445    1.8420    2.7117   26.2163 
1509.40    2.8045    1.8439    2.7145   26.9548 
1509.60    3.1114    1.8760    2.6101   28.2369 
1509.80    3.1291    1.8860    2.5940   28.7285 
1510.00    3.2422    1.9200    2.6160   27.7812 
1510.20    3.1002    1.9040    2.7578   27.3100 
1510.40    3.3458    1.8881    2.5764   28.7969 
1510.60    3.4470    1.8761    2.5199   28.9206 
1510.80    3.1155    1.8560    2.4981   28.9867 
1511.00    3.1179    1.8679    2.5581   28.7961 
1511.20    2.5646    1.9120    2.6240   28.5065 
1511.40    2.3655    1.9719    2.7518   26.9310 
1511.60    2.6418    1.9481    2.8116   25.7518 
1511.80    2.9315    1.9500    2.8921   24.9086 
1512.00    2.9899    1.9400    3.0400   24.5569 
1512.20    2.9459    1.9360    2.8563   26.2555 
1512.40    3.0657    1.9240    2.6724   28.2277 
1512.60    3.1103    1.8921    2.5763   29.1103 
1512.80    2.9481    1.9219    2.5997   29.5766 
1513.00    2.6685    1.9660    2.6842   29.0182 
1513.20    3.0795    1.9879    2.6620   28.7028 
1513.40    2.8640    1.9740    2.7376   27.4962 
1513.60    2.8981    1.9721    2.8721   26.3555 
1513.80    3.2948    1.9540    2.7242   26.6304 
1514.00    3.0868    1.9340    2.7439   25.6705 
1514.20    3.2059    1.8661    2.8222   24.9570 
1514.40    2.9499    1.8321    2.7439   26.0185 
1514.60    3.0101    1.8600    2.6401   26.4386 
1514.80    3.2422    1.8400    2.6381   26.1689 
1515.00    3.4396    1.8579    2.7439   24.7710 
1515.20    3.1338    1.9299    3.1334   21.9393 
1515.40    3.1139    2.2154    4.1339   17.6978 
1515.60    2.7489    2.6334    5.8468   11.9018 
1515.80    2.4840    2.7700    7.7215    8.0474 
1516.00    2.5285    2.8299    8.2973    7.1107 
1516.20    2.4482    2.9000    9.0589    6.3548 
1516.40    2.3618    2.9319    9.2037    6.1421 
1516.60    2.4216    2.9381    9.3837    6.0858 
1516.80    2.3573    2.9519    9.0018    6.3301 
1517.00    2.1249    2.9219    9.1214    6.1325 
1517.20    2.2054    2.9379    9.4039    5.9740 
1517.40    2.2157    2.9860    9.3819    5.8025 
1517.60    2.2645    2.9021    9.2909    5.8754 
1517.80    2.3045    2.8760    9.0521    6.2534 
1518.00    2.2975    2.8540    8.8446    6.9224 
1518.20    2.2523    2.7741    8.1351    8.6912 
1518.40    2.1778    2.5724    6.4717   12.1309 
1518.60    2.5216    2.2385    4.4250   17.9106 
1518.80    2.8570    1.9163    3.0751   24.2316 
1519.00    2.9364    1.8779    2.6643   27.9826 
1519.20    2.7500    1.9120    2.6200   28.7841 
1519.40    2.4497    1.9619    2.6799   28.2097 
1519.60    2.6496    1.9381    2.6821   27.7619 
1519.80    2.7316    1.9101    2.6621   27.2442 
1520.00    2.9142    1.9160    2.7536   26.1325 
1520.20    2.7318    1.9520    2.8462   25.8215 
1520.40    2.5878    2.0039    3.0037   24.7174 
1520.60    2.4363    2.1158    3.4175   22.5747 
1520.80    2.4499    2.0684    3.3924   22.1481 
1521.00    2.7855    1.8342    2.7768   25.8716 
1521.20    3.1767    1.8179    2.5079   28.1299 
1521.40    3.1501    1.8760    2.6176   26.9968 
1521.60    3.1237    1.9000    2.7543   25.7616 
1521.80    3.2734    1.8261    2.6422   26.3408 
1522.00    3.2799    1.8379    2.6599   26.6286 
1522.20    2.7648    1.8659    2.7139   26.6141 
1522.40    2.8458    1.8940    2.7515   26.2538 
1522.60    2.8637    1.8800    2.7984   26.7794 
1522.80    3.2918    1.9001    2.6522   28.2057 
1523.00    3.0604    1.8700    2.5099   29.1940 
1523.20    3.1495    1.8939    2.6139   29.0141 
1523.40    3.1576    1.9119    2.5485   29.4585 
1523.60    3.0875    1.9221    2.5479   28.2831 
1523.80    2.7728    1.8581    2.6578   27.0851 
1524.00    2.8452    1.7921    2.5060   27.8166 
1524.20    2.6809    1.8179    2.4980   27.7139 
1524.40    2.7793    1.8660    2.7418   25.7998 
1524.60    2.9222    1.8600    2.7460   25.2822 
1524.80    2.9497    1.8500    2.7821   25.2297 
1525.00    3.1401    1.8579    2.7821   25.3136 
1525.20    3.1990    1.8960    2.8118   25.1412 
1525.40    3.2999    1.9019    2.9415   24.4998 
1525.60    3.2800    1.9060    2.9039   24.8130 
1525.80    3.0784    1.8561    2.7581   26.2118 
1526.00    3.2024    1.7940    2.5540   27.8932 
1526.20    3.1866    1.8439    2.5341   28.5179 
1526.40    3.2794    1.8740    2.6258   27.5253 
1526.60    2.9401    1.8540    2.6161   27.6336 
1526.80    2.9114    1.8300    2.5400   28.2575 
1527.00    3.1719    1.7940    2.4982   28.8738 
1527.20    3.1583    1.8420    2.5239   28.9909 
1527.40    3.3306    1.8800    2.6019   28.0768 
1527.60    3.0016    1.8940    2.6022   28.1570 
1527.80    2.9021    1.8540    2.4901   28.7915 
1528.00    3.0233    1.8221    2.4718   28.6316 
1528.20    3.1040    1.8479    2.5880   27.7202 
1528.40    3.3103    1.8800    2.6658   26.9871 
1528.60    3.1024    1.8740    2.7137   26.6412 
1528.80    2.9824    1.8700    2.6043   27.0129 
1529.00    3.1876    1.8419    2.6339   27.0343 
1529.20    3.2279    1.8579    2.7099   26.9733 
1529.40    3.1703    1.8940    2.7297   26.9364 
1529.60    3.1746    1.8860    2.6422   27.3301 
1529.80    3.2836    1.8781    2.6200   26.0147 
1530.00    3.0501    1.8879    2.8457   24.2631 
1530.20    2.8100    2.0398    3.4306   20.6232 
1530.40    2.6721    2.3475    4.7097   15.2630 
1530.60    2.3801    2.6637    6.4460   10.8989 
1530.80    2.4518    2.7100    7.0621    9.4327 
1531.00    2.3760    2.6700    7.1122    9.3099 
1531.20    2.5418    2.6800    7.0998    9.2165 
1531.40    2.6933    2.7281    7.5275    8.5527 
1531.60    2.9340    2.7560    7.6658    8.3761 
1531.80    2.9578    2.7521    7.7581    8.5172 
1532.00    2.6780    2.6861    7.2413    9.5742 
1532.20    2.3502    2.5741    6.4995   11.4449 
1532.40    2.7915    2.3864    5.3044   14.7519 
1532.60    2.7088    2.0085    3.6779   20.5526 
1532.80    3.0948    1.8361    2.6667   26.0500 
1533.00    3.6500    1.8119    2.5736   28.2188 
1533.20    3.5677    1.8479    2.4717   28.9530 
1533.40    3.7478    1.8740    2.5778   27.3782 
1533.60    3.9772    1.8660    2.7296   26.0655 
1533.80    4.0419    1.8581    2.7537   26.0614 
1534.00    3.9939    1.8999    2.8022   26.7541 
1534.20    3.9230    1.9780    2.8259   26.1598 
1534.40    4.0312    1.9140    2.8439   25.8299 
1534.60    4.0737    1.9000    2.7201   26.9341 
1534.80    4.2172    1.8282    2.4803   28.0082 
1535.00    4.7397    1.6861    2.2701   29.4781 
1535.20    4.5350    1.6700    2.2139   29.8684 
1535.40    4.3300    1.7119    2.3539   29.1901 
1535.60    4.0686    1.7600    2.4001   29.2466 
1535.80    3.7451    1.7660    2.3799   29.8757 
1536.00    3.7230    1.7960    2.3318   29.6359 
1536.20    3.5202    1.7560    2.3684   29.8418 
1536.40    3.2161    1.7879    2.3396   30.3480 
1536.60    3.3807    1.8319    2.4516   29.3028 
1536.80    3.2406    1.8300    2.4281   28.9546 
1537.00    3.1979    1.7940    2.4400   28.1848 
1537.20    3.0976    1.7401    2.3821   28.0761 
1537.40    3.3521    1.7219    2.4279   27.8263 
1537.60    3.7014    1.7001    2.3482   28.4400 
1537.80    4.2634    1.6281    2.1024   29.8105 
1538.00    4.7130    1.5421    2.0381   30.6106 
1538.20    4.6554    1.5360    1.9521   31.8966 
1538.40    4.6530    1.5440    1.9121   32.2879 
1538.60    4.6758    1.5519    1.8801   32.0218 
1538.80    4.5200    1.5479    2.0936   30.2521 
1539.00    4.0451    1.6218    2.2157   30.4733 
1539.20    3.9756    1.7978    2.3895   28.9540 
1539.40    3.9696    1.8440    2.6539   26.1749 
1539.60    4.0942    1.8219    2.6206   26.2926 
1539.80    4.1981    1.8061    2.5721   26.4528 
1540.00    4.8479    1.7860    2.5839   25.9831 
1540.20    5.1310    1.7321    2.6140   26.0063 
1540.40    5.0719    1.7481    2.4542   26.7855 
1540.60    5.0437    1.6781    2.4179   27.6320 
1540.80    4.6285    1.6560    2.2660   30.0229 
1541.00    4.2152    1.7918    2.3757   29.8767 
1541.20    4.2439    1.9139    2.6696   26.9073 
1541.40    4.1484    1.9121    2.8140   25.2331 
