~Version information
VERS.                            2.00: CWLS LAS  -  VERSION 2.00
WRAP.                              NO: One line per depth step
~Well information
#MNEM.UNIT                  DATA TYPE  INFORMATION
#===.================================:==================
STRT.M                       1140.000: First depth in file
STOP.M                       3790.800: Last depth in file
STEP.M                          0.100: Depth increment
NULL.                       -9999.00 : Null values
DATE.                        : LOG DATE
TIME.                           17:38: LOG TIME
WELL.                             F2: Well name
GRP.                                 : Group name
FLD.                    F: Field name
ISS.                     окон.каротаж: Well surveys
SRVC.                                : Service Company
~Curve information
#MNEM.UNIT                   API CODE   CURVE DESCRIPTION
#===.================================:==================
DEPT.M                               : Depth curve
RO05.Ohmm                            : : Apparent resistivity
RO07.Ohmm                            : : Apparent resistivity
RO10.Ohmm                            : : Apparent resistivity
RO14.Ohmm                            : : Apparent resistivity
RO20.Ohmm                            : : Apparent resistivity
DF05.                                : 
DF07.                                : 
DF10.                                : 
DF14.                                : 
DF20.                                : 
ГК ок.                               : 
НКТ-Б ок.                            : 
#
~Other information
#------------------ REMARKS AREA -----------------------
#=======================================================
# The file is generated by the program GeoTech-EditLog v2000.12
#Number of Curves = 12
~A Log Data Section
# ...
2141.70    3.0591    3.4625    4.2562    5.0110    5.5213   22.9223   20.8053   18.4602   16.7626   15.8162    9.9981    2.6107 
2141.80    3.2676    3.5026    4.4970    5.1518    5.4628   21.6525   20.6676   17.8940   16.4965   15.9551   10.0439    2.8130 
2141.90    3.5016    3.8319    4.7920    5.3269    5.4307   20.2829   19.6722   17.2176   16.1617   15.9960   10.0793    2.8819 
2142.00    3.6428    4.1259    4.8640    5.4484    5.4545   20.2605   18.7963   17.0638   15.9470   15.9836   10.0737    2.9480 
2142.10    3.8474    4.1637    4.8799    5.5725    5.5431   20.0863   18.6964   17.0308   15.7306   15.8317   10.0612    3.0986 
2142.20    4.1990    4.2219    5.0031    5.6172    5.6574   18.6174   18.5460   16.7837   15.6550   15.5454   10.0450    3.0609 
2142.30    4.6097    4.4732    5.1218    5.6212    5.7633   17.4523   17.9431   16.5479   15.6482   15.4046    9.9763    3.0446 
2142.40    4.8419    4.6864    5.1944    5.6892    5.8387   16.9752   17.4415   16.4099   15.5364   15.3068    9.9113    3.0167 
2142.50    4.8662    4.7303    5.2174    5.7695    5.8877   16.9326   17.3453   16.3660   15.4047   15.1804    9.8469    3.0117 
2142.60    4.7818    4.6955    5.1593    5.7542    5.9110   17.2945   17.4218   16.4762   15.4295   15.1726    9.7305    3.1094 
2142.70    4.7395    4.6663    5.1159    5.6873    5.8902   17.5031   17.4855   16.5590   15.5386   15.1960    9.5770    3.1235 
2142.80    4.8132    4.6873    5.1548    5.6287    5.8494   17.2015   17.4393   16.4851   15.6357   15.2787    9.4424    3.2196 
2142.90    4.9269    4.8505    5.2595    5.6132    5.8156   16.8346   17.0960   16.2886   15.6616   15.3652    9.3715    3.3641 
2143.00    5.0257    5.0308    5.3120    5.6292    5.8032   16.7829   16.7234   16.1911   15.6348   15.3563    9.2778    3.5573 
2143.10    5.1711    5.1103    5.3554    5.6545    5.8134   16.5927   16.5678   16.1130   15.5927   15.3370    9.1835    3.6748 
2143.20    5.3590    5.1882    5.5140    5.6956    5.8261   16.0252   16.4193   15.8362   15.5250   15.3165    9.0940    3.8433 
2143.30    5.4836    5.2184    5.5852    5.7242    5.8350   15.7441   16.3617   15.7113   15.4781   15.2958    9.0306    3.9001 
2143.40    5.4263    5.1235    5.5336    5.6896    5.8228   15.9047   16.5437   15.7993   15.5350   15.2946    9.0354    3.9654 
2143.50    5.4236    5.0622    5.4561    5.5838    5.7728   16.3335   16.6610   15.9342   15.7123   15.3754    9.0416    4.0770 
2143.60    5.6064    5.0999    5.4887    5.5241    5.7077   15.8005   16.5876   15.8779   15.8131   15.5383    9.0025    4.0945 
2143.70    6.4630    5.9873    5.5721    5.5410    5.6475   15.0159   15.1920   15.7335   15.7842   15.6115    9.0666    4.1071 
2143.80    7.2808    7.0797    5.9836    5.7686    5.6051   13.0674   13.6108   15.0983   15.4150   15.6720    9.0905    4.1279 
2143.90    7.5114    7.5063    6.3754    5.9671    5.5703   12.7198   13.1142   14.5015   15.0942   15.7506    9.0771    3.9304 
2144.00    7.0219    6.6520    6.2316    5.9717    5.5363   14.0546   14.2424   14.7094   15.0870   15.7879    9.2043    3.8370 
2144.10    6.3379    5.7235    5.9637    5.7214    5.4539   14.5558   15.4813   15.1034   15.4932   15.8457    9.3479    3.7945 
2144.20    5.9944    5.6291    5.6771    5.2780    5.3079   15.1128   15.6351   15.5640   16.2625   16.1909    9.4118    3.7042 
2144.30    5.7479    5.4337    5.4376    5.0567    5.1518   15.5512   15.9775   15.9669   16.6717   16.5873    9.4390    3.5650 
2144.40    5.5846    5.1762    5.3499    5.0065    5.0430   15.6835   16.4432   16.1225   16.7715   16.7092    9.3927    3.4481 
2144.50    5.4962    5.0921    5.1956    4.8663    4.9934   15.9136   16.6027   16.4109   17.0596   16.8109    9.2441    3.3888 
2144.60    5.4658    5.0432    4.9878    4.7476    4.9710   16.0025   16.6987   16.8132   17.3081   16.8808    9.1666    3.5349 
2144.70    5.6577    5.1501    4.9099    4.7232    4.9766   15.8395   16.4965   16.9690   17.3605   16.8428    9.1087    3.6954 
2144.80    6.3650    5.2873    4.9405    4.7527    5.0513   15.0180   16.2341   16.9068   17.2973   16.7770    8.9142    3.8666 
2144.90    7.3772    5.3943    5.0831    4.8919    5.1989   13.1928   16.0422   16.6261   17.0068   16.4492    8.7194    4.0810 
2145.00    8.0669    5.6143    5.1847    4.9908    5.3740   12.0860   15.6636   16.4275   16.8025   16.0067    8.6156    4.1849 
2145.10    7.8920    5.6104    5.2087    5.1691    5.6095   12.5198   15.6691   16.3825   16.4618   15.8061    8.5890    4.2764 
2145.20    7.1952    5.4238    5.1817    5.4690    5.9281   13.7200   15.9892   16.4335   15.9139   15.2485    8.6329    4.4276 
2145.30    6.5609    5.2712    5.1593    5.6059    6.2717   14.3824   16.2647   16.4760   15.6740   14.5110    8.7426    4.6020 
2145.40    6.1414    5.2023    5.2094    5.7487    6.5934   14.7439   16.3920   16.3812   15.4415   14.2514    8.8355    4.7707 
2145.50    5.9275    5.1960    5.5322    6.1863    7.0147   15.4466   16.4039   15.8187   14.7829   13.8872    8.9030    4.9250 
2145.60    5.9658    5.7792    6.0666    6.5715    7.5340   15.3369   15.4513   14.9586   14.2346   13.0021    8.9498    5.0943 
2145.70    7.0124    7.0285    6.4262    6.8580    8.1569   14.5842   13.7224   14.4333   13.8702   12.4920    8.9640    5.3772 
2145.80    9.1101    7.7118    8.2159    7.9776    8.9625   12.1558   12.8945   12.6216   12.7009   11.9624    8.9413    5.6046 
2145.90   11.3266    8.9937   10.7317    9.1335    9.8728    9.7106   11.8017   10.5021   11.5997   10.9409    8.9104    5.6243 
2146.00   11.9896    9.9339   11.6775    9.7103   10.6420    9.2284   10.9885    9.8973   11.1530   10.3808    8.8516    5.5642 
2146.10   10.9005    9.7699   11.6427   10.7520   11.0257   10.5159   11.1058    9.9166   10.4664   10.2756    8.7469    5.4550 
2146.20    9.3964    9.4564   11.2629   11.5342   11.1627   11.8397   11.3425   10.1367    9.9763   10.1711    8.6487    5.2828 
2146.30    8.3596    8.7748   10.9755   11.6165   11.2372   12.1596   11.9030   10.3050    9.9297   10.1325    8.5611    5.0991 
2146.40    8.1103    8.4392   10.8932   11.8446   11.3208   12.8741   12.1871   10.3557    9.8059   10.1424    8.4941    4.9027 
2146.50    8.2567    9.1361   12.3107   12.7546   11.5483   12.5714   11.6153    9.6220    9.3511   10.0259    8.4220    4.7795 
2146.60    8.7367   10.8069   13.8595   13.5114   11.8728   11.7776   10.4548    8.8403    8.9889    9.7536    8.3355    4.7494 
2146.70    9.0115   11.5656   14.5620   14.3021   12.3387   11.5429    9.9590    8.5553    8.6625    9.6071    8.2109    4.8562 
2146.80    8.9619   11.1945   14.5511   14.9126   12.9633   11.7819   10.1734    8.5579    8.4142    9.3038    8.0160    5.1268 
2146.90    9.2744   11.3482   14.4045   14.9084   13.6464   11.9079   10.0860    8.6143    8.4157    8.8607    7.7147    5.4992 
2147.00   11.4863   13.5135   14.7594   15.3618   14.3501   10.9061    9.0657    8.4746    8.2511    8.6663    7.4207    6.0272 
2147.10   15.1017   15.4519   17.1242   17.5063   15.2126    8.4982    8.2166    7.7205    7.5792    8.4038    7.1628    6.2362 
2147.20   18.3792   17.1591   19.4005   19.3108   16.2242    6.9814    7.6748    7.0310    7.0522    7.9024    6.9531    6.2405 
2147.30   18.8755   17.4079   19.6298   19.9082   17.1208    6.8853    7.5842    6.9722    6.9040    7.6043    6.7332    6.4991 
2147.40   16.9067   16.4714   18.5202   19.7826   17.6807    7.7945    7.8664    7.2692    6.9348    7.5062    6.4920    6.7350 
2147.50   14.5814   14.7388   16.8744   19.0542   18.0400    8.9303    8.5262    7.7462    7.1182    7.3798    6.2387    6.9106 
2147.60   13.1300   12.3481   16.2021   18.6558   18.3150    9.2135    9.5670    7.9562    7.2217    7.2950    6.0464    6.9662 
2147.70   12.7314   11.4131   15.8199   18.1976   18.4008    9.3698   10.0449    8.0879    7.3482    7.2730    5.9398    6.9693 
2147.80   12.5447   11.3639   14.5629   17.5107   18.4066    9.4765   10.0731    8.5654    7.5450    7.3076    5.8477    6.9072 
2147.90   12.4570   10.6231   13.7837   17.1561   18.4449    9.4847   10.5460    8.8711    7.6505    7.2906    5.7492    6.8898 
