~Version information
VERS.                            2.00: CWLS LAS  -  VERSION 2.00
WRAP.                              NO: One line per depth step
~Well information
#MNEM.UNIT                  DATA TYPE  INFORMATION
#===.================================:==================
STRT.M                       1140.000: First depth in file
STOP.M                       3790.800: Last depth in file
STEP.M                          0.100: Depth increment
NULL.                       -9999.00 : Null values
DATE.                        : LOG DATE
TIME.                           17:38: LOG TIME
WELL.                             F2: Well name
GRP.                                 : Group name
FLD.                    F: Field name
ISS.                     окон.каротаж: Well surveys
SRVC.                                : Service Company
~Curve information
#MNEM.UNIT                   API CODE   CURVE DESCRIPTION
#===.================================:==================
DEPT.M                               : Depth curve
RO05.Ohmm                            : : Apparent resistivity
RO07.Ohmm                            : : Apparent resistivity
RO10.Ohmm                            : : Apparent resistivity
RO14.Ohmm                            : : Apparent resistivity
RO20.Ohmm                            : : Apparent resistivity
DF05.                                : 
DF07.                                : 
DF10.                                : 
DF14.                                : 
DF20.                                : 
ГК ок.                               : 
НКТ-Б ок.                            : 
#
~Other information
#------------------ REMARKS AREA -----------------------
#=======================================================
# The file is generated by the program GeoTech-EditLog v2000.12
#Number of Curves = 12
~A Log Data Section
# ...
2904.00    3.5336    3.5881    4.3428    4.3557    4.1948   20.3952   20.4085   18.2437   18.2156   18.5759    9.0424    3.5180 
2904.10    3.4477    3.4123    4.1071    4.2225    4.1935   20.9854   20.9799   18.8686   18.5436   18.6431    9.2441    3.4285 
2904.20    3.4101    3.4112    3.9945    4.2122    4.1897   21.2436   20.9836   19.1599   18.5700   18.6449    9.3547    3.4409 
2904.30    3.4480    3.5904    4.0507    4.2196    4.2142   20.7774   20.3957   19.0016   18.5510   18.6058    9.3385    3.4654 
2904.40    3.5148    3.7866    4.0539    4.3039    4.2492   20.5747   19.7587   18.9929   18.3398   18.4546    9.2846    3.5524 
2904.50    3.5185    3.8156    4.1005    4.3457    4.2789   20.5409   19.6706   18.8675   18.2341   18.3766    9.2864    3.4568 
2904.60    3.4709    3.8146    4.0299    4.3160    4.2855   20.7383   19.6738   19.0635   18.3072   18.3776    9.2360    3.6173 
2904.70    3.4025    3.7606    3.9460    4.2962    4.2577   21.0687   19.8379   19.2935   18.3567   18.4047    9.1611    3.8031 
2904.80    3.3501    3.5849    3.9482    4.1817    4.2093   21.2586   20.4011   19.2874   18.6528   18.5905    9.1119    3.8001 
2904.90    3.3102    3.4312    3.8799    4.0339    4.1550   21.2905   20.9147   19.4858   19.0464   18.7512    9.0171    3.7642 
2905.00    3.2377    3.3864    3.6844    3.9837    4.1250   21.5105   21.0716   20.0866   19.1841   18.8273    8.8665    3.8307 
2905.10    3.1440    3.2915    3.4979    3.9848    4.1054   22.1006   21.4230   20.6892   19.1811   18.8255    8.6521    3.7609 
2905.20    3.0646    3.1845    3.4345    3.9263    4.0784   22.3897   21.8263   20.9049   19.3480   18.9088    8.4419    3.6607 
2905.30    3.0223    3.1542    3.4463    3.8367    4.0505   22.4566   21.9451   20.8642   19.6083   19.0470    8.1821    3.4172 
2905.40    2.9934    3.1489    3.4927    3.8208    4.0352   22.6209   21.9661   20.7045   19.6554   19.0516    8.0211    3.3124 
2905.50    2.9658    3.1509    3.5232    3.8382    4.0454   22.7595   21.9579   20.6007   19.6035   19.0337    7.9125    3.2418 
2905.60    2.9529    3.1976    3.5176    3.8518    4.0612   22.8121   21.7761   20.6196   19.5633   18.9634    7.8112    3.2283 
2905.70    2.9536    3.2322    3.5417    3.8295    4.0611   22.7891   21.6411   20.5395   19.6294   18.9225    7.8207    3.2405 
2905.80    3.0227    3.2340    3.5037    3.8018    4.0403   22.7498   21.6345   20.6688   19.7121   19.0351    7.9382    3.3595 
2905.90    3.1354    3.2351    3.4528    3.8049    4.0122   21.9757   21.6300   20.8410   19.7027   19.1344    7.9995    3.4421 
2906.00    3.2399    3.2550    3.4532    3.7691    3.9992   21.4245   21.5549   20.8397   19.8118   19.1543    8.1062    3.5320 
2906.10    3.2823    3.2540    3.4558    3.7419    3.9986   21.4817   21.5586   20.8307   19.8941   19.1428    8.3247    3.6569 
2906.20    3.2767    3.2300    3.5239    3.7535    4.0027   21.4595   21.6496   20.6015   19.8585   19.1392    8.3506    3.6897 
2906.30    3.2555    3.2297    3.5224    3.7573    4.0126   21.4865   21.6507   20.6050   19.8469   19.1205    8.4082    3.6310 
2906.40    3.2038    3.2334    3.4752    3.7516    4.0236   21.7267   21.6365   20.7640   19.8645   19.0601    8.6081    3.6257 
2906.50    3.1315    3.2703    3.4697    3.7187    4.0285   22.0611   21.4977   20.7829   19.9663   19.0485    8.6449    3.6948 
2906.60    3.0682    3.2551    3.4703    3.6856    4.0279   22.3457   21.5558   20.7806   20.0694   19.0790    8.6515    3.6161 
2906.70    3.0316    3.1514    3.4641    3.6777    4.0274   22.4906   21.9586   20.8022   20.0942   19.0657    8.7693    3.4453 
2906.80    3.0056    3.0814    3.4249    3.6686    4.0262   22.5137   22.2390   20.9388   20.1229   19.0520    8.8843    3.4119 
2906.90    2.9622    3.0696    3.4372    3.6723    4.0317   22.6758   22.2873   20.8964   20.1114   19.0894    9.0825    3.3913 
2907.00    2.8679    3.0678    3.4831    3.6859    4.0417   23.0610   22.2946   20.7369   20.0684   19.0209    9.3621    3.2987 
2907.10    2.7548    3.0874    3.5005    3.7829    4.0566   23.8205   22.2144   20.6776   19.7734   18.9698    9.6537    3.2695 
2907.20    2.6724    3.1307    3.5043    3.8943    4.0642   24.2741   22.0395   20.6647   19.4397   18.9670    9.9299    3.4097 
2907.30    2.6418    3.1663    3.5108    3.9255    4.0696   24.2506   21.8976   20.6427   19.3493   18.9581   10.0660    3.5020 
2907.40    2.9058    3.1749    3.9157    3.9418    4.1306   24.2686   21.8632   19.4551   19.3026   18.9255   10.0031    3.6140 
2907.50    3.3895    3.1678    4.2510    3.9565    4.2445   21.3543   21.8910   18.4735   19.2608   18.4947    9.9394    3.8736 
2907.60    3.8758    3.6706    4.2633    4.2178    4.3691   18.8754   20.2597   18.4422   18.5816   18.0836    9.9114    4.2492 
2907.70    4.0975    4.0960    4.2663    4.4266    4.4469   18.8728   18.8761   18.4347   18.0373   17.9792    9.8461    4.4407 
2907.80    4.0987    4.0934    4.2677    4.4171    4.4685   18.8762   18.8830   18.4312   18.0602   17.9136    9.8269    4.8257 
2907.90    4.2826    4.0972    4.3241    4.4163    4.4667   18.8662   18.8727   18.2908   18.0620   17.9288    9.8270    5.0354 
2908.00    4.5053    4.1001    4.3788    4.4163    4.4457   17.6166   18.8651   18.1555   18.0620   17.9920    9.7487    5.0057 
2908.10    4.6299    4.2581    4.3783    4.4134    4.4172   17.3054   18.4621   18.1568   18.0690   18.0632    9.6479    5.1654 
2908.20    4.5737    4.0610    4.3761    4.3151    4.3957   17.9272   19.0148   18.1621   18.3122   18.1331    9.6427    5.1663 
2908.30    4.4706    3.7684    4.2602    4.2355    4.3852   17.9111   19.8130   18.4552   18.5101   18.1477    9.5904    5.2102 
2908.40    4.2487    3.7478    3.9504    4.2420    4.3616   17.9686   19.8762   19.3000   18.4935   18.1390    9.4323    5.0339 
2908.50    3.9097    3.7566    3.7754    4.2430    4.2848   19.8817   19.8493   19.7947   18.4911   18.3081    9.2856    5.0309 
2908.60    3.6287    3.5627    3.7672    4.1301    4.1801   20.8268   20.4914   19.8197   18.7898   18.7368    9.1431    4.7559 
2908.70    3.5639    3.5251    3.7573    4.0809    4.0974   20.2989   20.6044   19.8498   18.9179   18.9440    8.9498    4.5517 
2908.80    3.6166    3.6365    3.8318    4.1243    4.0691   20.2992   20.2253   19.6288   18.8003   18.9523    8.8608    4.3207 
2908.90    3.5938    3.6227    3.9017    4.1363    4.0792   20.2798   20.2698   19.4205   18.7686   18.9586    8.9746    4.4327 
2909.00    3.5490    3.5678    3.8823    4.1442    4.1044   20.5259   20.4505   19.4770   18.7476   18.8630    9.2274    4.4386 
2909.10    3.5019    3.5393    3.8690    4.1373    4.1364   20.7475   20.5437   19.5156   18.7657   18.7491    9.3831    4.4661 
2909.20    3.5094    3.5729    3.8721    4.1101    4.1578   20.7496   20.4326   19.5065   18.8384   18.7022    9.4792    4.5754 
2909.30    3.4845    3.5921    3.8357    4.0731    4.1656   20.4527   20.3690   19.6141   18.9380   18.6925    9.7011    4.5735 
2909.40    3.3783    3.5892    3.7779    4.0629    4.1684   21.0469   20.3787   19.7876   18.9656   18.6875    9.9682    4.3574 
2909.50    3.2337    3.3912    3.7494    4.0180    4.1505   21.9233   21.0797   19.8740   19.0899   18.6799   10.2032    4.1920 
2909.60    3.1289    3.0910    3.7167    3.8870    4.1143   22.0250   22.2143   19.9754   19.4640   18.8365   10.3887    4.0576 
2909.70    3.1029    2.9817    3.5439    3.7947    4.0770   22.2034   22.6582   20.5431   19.7334   18.9777   10.6331    3.8702 
2909.80    3.1580    2.9838    3.5055    3.7882    4.0662   22.2379   22.6489   20.6658   19.7531   18.9789   10.6534    3.7689 
2909.90    3.2804    3.1171    3.5780    3.7865    4.0875   21.4142   22.1082   20.4184   19.7581   18.9222   10.4998    3.6861 
2910.00    3.4011    3.2075    3.5837    3.8520    4.1229   20.8217   21.7368   20.3998   19.5654   18.8058   10.3778    3.4969 
2910.10    3.2965    3.1301    3.6275    3.8868    4.1521   20.8679   22.0436   20.2582   19.4611   18.6950   10.4431    3.3465 
2910.20    2.9702    3.0738    3.4291    3.8587    4.1599   22.8164   22.2698   20.9560   19.5431   18.6887   10.4853    3.3187 
