~Version information
VERS.                            2.00: CWLS LAS  -  VERSION 2.00
WRAP.                              NO: One line per depth step
~Well information
#MNEM.UNIT                  DATA TYPE  INFORMATION
#===.================================:==================
STRT.M                       1140.000: First depth in file
STOP.M                       3790.800: Last depth in file
STEP.M                          0.100: Depth increment
NULL.                       -9999.00 : Null values
DATE.                        : LOG DATE
TIME.                           17:38: LOG TIME
WELL.                             F2: Well name
GRP.                                 : Group name
FLD.                    F: Field name
ISS.                     окон.каротаж: Well surveys
SRVC.                                : Service Company
~Curve information
#MNEM.UNIT                   API CODE   CURVE DESCRIPTION
#===.================================:==================
DEPT.M                               : Depth curve
RO05.Ohmm                            : : Apparent resistivity
RO07.Ohmm                            : : Apparent resistivity
RO10.Ohmm                            : : Apparent resistivity
RO14.Ohmm                            : : Apparent resistivity
RO20.Ohmm                            : : Apparent resistivity
DF05.                                : 
DF07.                                : 
DF10.                                : 
DF14.                                : 
DF20.                                : 
ГК ок.                               : 
НКТ-Б ок.                            : 
#
~Other information
#------------------ REMARKS AREA -----------------------
#=======================================================
# The file is generated by the program GeoTech-EditLog v2000.12
#Number of Curves = 12
~A Log Data Section
# ...
2645.70    3.8779    3.8966    4.1592    3.9364    3.7406   19.4869   19.4324   18.7114   19.3180   19.9146    8.8584    3.9224 
2645.80    3.7582    3.9247    4.1925    3.9823    3.7767   19.9289   19.3523   18.6237   19.1893   19.8112    9.0754    3.7964 
2645.90    3.6917    3.9864    4.2019    4.0849    3.8151   20.1454   19.1771   18.5994   18.9078   19.6504    9.2524    3.6328 
2646.00    3.6757    4.0388    4.2203    4.1743    3.8439   20.0933   19.0318   18.5520   18.6688   19.5663    9.3460    3.6094 
2646.10    3.6901    4.0601    4.2677    4.2031    3.8610   20.0720   18.9731   18.4315   18.5937   19.5533    9.4369    3.5217 
2646.20    3.6821    4.0535    4.2642    4.2026    3.8800   20.0098   18.9912   18.4402   18.5949   19.4979    9.6530    3.3330 
2646.30    3.6158    4.0392    4.2360    4.1679    3.9034   20.1719   19.0303   18.5118   18.6855   19.4011    9.9370    3.1539 
2646.40    3.5072    3.9130    4.2293    4.0124    3.9157   20.7297   19.3917   18.5289   19.1115   19.3493   10.1857    3.0093 
2646.50    3.4085    3.6039    4.1596    3.8425    3.9096   21.1013   20.3552   18.7114   19.5924   19.3908   10.3121    2.8991 
2646.60    3.3128    3.3819    3.8221    3.7776    3.8710   21.1726   21.0889   19.6934   19.7851   19.4533   10.4665    2.8279 
2646.70    3.0180    3.3375    3.2844    3.7620    3.7665   21.7826   21.2481   21.5078   19.8325   19.6898   10.6312    2.6753 
2646.80    2.5300    3.2331    2.9568    3.6367    3.6151   25.5361   21.6442   22.7741   20.2320   20.3655   10.7857    2.4865 
2646.90    2.0661    2.7040    2.8913    3.2774    3.4799   29.1911   24.1766   23.0603   21.5177   20.8970   10.8604    2.4757 
2647.00    1.8349    2.2914    2.8165    3.0717    3.4146   29.9604   26.2706   23.4104   22.2788   21.0115   10.8835    2.4962 
2647.10    1.8027    2.2674    2.7221    3.0987    3.4092   29.9932   26.4230   23.8603   22.1682   21.0165   10.8554    2.5419 
2647.20    1.7739    2.2688    2.8618    3.1103    3.4957   30.0077   26.4141   23.2252   22.1209   20.9537   10.7852    2.6350 
2647.30    1.9352    2.2658    3.1116    3.1593    3.7198   30.7983   26.4334   22.1294   21.9272   20.1709   10.6812    2.6863 
2647.40    2.3107    2.3254    3.2008    3.4839    4.0074   27.1020   26.0608   21.7655   20.7813   18.9587   10.5853    2.7666 
2647.50    2.7458    2.9005    3.2095    4.1022    4.2217   22.8994   23.2944   21.7320   18.9193   18.3866   10.5624    2.9339 
2647.60    2.9910    3.4467    3.4007    4.5007    4.3235   22.4860   20.8659   21.0461   17.8641   18.3364   10.5097    2.9528 
2647.70    3.0429    3.5362    3.9169    4.5665    4.4599   22.4964   20.5541   19.4413   17.7100   18.1568   10.4540    2.9713 
2647.80    3.1828    3.5392    4.2859    4.5561    4.6992   22.2288   20.5440   18.3870   17.7338   17.4433   10.4171    3.0121 
2647.90    3.4009    3.5491    4.3421    4.6766    4.9434   20.9390   20.5111   18.2452   17.4678   16.7460   10.3653    2.9068 
2648.00    3.5863    3.7464    4.3465    4.8494    5.0815   20.1021   19.8989   18.2344   17.0928   16.5634   10.3331    2.8504 
2648.10    3.6487    4.0278    4.3544    4.8100    5.1069   20.2145   19.0679   18.2151   17.1769   16.5735   10.3203    2.8592 
2648.20    3.6268    4.1288    4.3579    4.7320    5.0927   20.2522   18.7882   18.2065   17.3415   16.5924   10.2530    2.9509 
2648.30    3.6150    4.1323    4.3598    4.7287    5.0276   20.3126   18.7791   18.2017   17.3486   16.6463   10.2015    2.8894 
2648.40    3.5652    4.1296    4.3268    4.7134    4.8769   20.3290   18.7862   18.2836   17.3820   16.9658   10.2103    2.7129 
2648.50    3.4513    4.0506    4.2899    4.5879    4.6949   20.7619   19.0015   18.3750   17.6654   17.5416   10.2887    2.5941 
2648.60    3.3142    3.7798    4.2876    4.3409    4.5639   21.5110   19.8001   18.3810   18.2536   17.8063   10.3562    2.5591 
2648.70    3.2215    3.4922    4.1948    4.1730    4.5148   21.7889   20.7093   18.6207   18.6723   17.8173   10.3849    2.5591 
2648.80    3.1761    3.3914    3.9179    4.1501    4.4561   21.7663   21.0536   19.3903   18.7320   17.8720   10.3653    2.5591 
2648.90    2.9847    3.3842    3.6518    4.1507    4.3200   22.0356   21.0795   20.1850   18.7304   18.2320   10.3307    2.5549 
2649.00    2.7551    3.3738    3.5486    4.0663    4.1538   24.6413   21.1168   20.5159   18.9589   18.8424   10.2545    2.6409 
2649.10    2.6772    3.1087    3.5384    3.9383    4.0323   25.0630   22.1815   20.5498   19.3143   19.1427   10.0684    2.9054 
2649.20    2.8149    3.5627    3.5404    3.9961    3.9905   23.0467   20.7497   20.5430   19.1560   19.1815    9.7538    3.2457 
2649.30    2.9910    4.7254    3.6426    4.1054    4.0067   22.4463   17.4627   20.2156   18.8511   19.1806    9.4246    3.5340 
2649.40    3.2403    5.2223    4.5887    4.1197    4.1058   22.4102   16.3545   17.9053   18.8126   19.0103    9.1200    3.7791 
2649.50    3.9011    5.2228    5.3700    4.1499    4.2678   20.3990   16.3535   16.0866   18.7329   18.4036    8.8053    4.0658 
2649.60    5.6120    5.2385    5.4255    4.5848    4.4162   16.9454   16.3242   15.9875   17.7220   17.9339    8.5347    4.3406 
2649.70    7.7722    5.5056    5.4345    4.9690    4.4853   12.9398   15.8593   15.9715   16.8467   17.8823    8.3613    4.5583 
2649.80    9.4621    5.9945    5.4692    4.9521    4.4926   10.8474   15.0651   15.9111   16.8807   17.8865    8.2975    4.5531 
2649.90   10.0735    6.3297    5.5184    4.9000    4.4721   10.8884   14.5642   15.8254   16.9867   17.8821    8.2617    4.5750 
2650.00    9.9590    6.4195    5.1937    4.8986    4.3561   10.9403   14.4381   16.4371   16.9897   18.0298    8.2320    4.6161 
2650.10    9.2518    6.4303    4.7915    4.8337    4.1506   11.0903   14.4233   17.2200   17.1261   18.7752    8.2011    4.6613 
2650.20    7.9036    6.4940    4.6833    4.4928    3.9482   12.8776   14.3372   17.4504   17.9046   19.4921    8.2478    4.6995 
2650.30    6.4661    5.4500    4.6807    3.9636    3.8415   15.1616   16.1802   17.4562   19.2769   19.6509    8.3470    4.7163 
2650.40    5.6415    4.1024    4.4821    3.6296    3.8153   15.8797   18.9335   17.9223   20.2518   19.6489    8.4114    4.6893 
2650.50    5.2793    3.7400    3.8049    3.5517    3.7653   15.8908   19.8998   19.8308   20.5023   19.7249    8.3460    4.6946 
2650.60    4.9673    3.7377    3.4857    3.5567    3.6691   17.1539   19.9072   20.7352   20.4856   20.1174    8.3254    4.6683 
2650.70    4.7838    3.7441    3.5820    3.4187    3.5696   17.7608   19.8875   20.4053   20.9696   20.5602    8.4648    4.5984 
2650.80    4.8582    3.9804    3.5860    3.3425    3.5102   16.9405   19.2183   20.3921   21.2318   20.6801    8.6850    4.5930 
2650.90    5.0367    4.1685    3.5933    3.4269    3.4957   16.6036   18.6836   20.3682   20.9296   20.6942    8.8546    4.4932 
2651.00    5.0909    4.0995    3.7113    3.4534    3.4946   16.6122   18.8684   19.9985   20.8361   20.7070    8.9851    4.3280 
2651.10    4.9432    4.0501    3.7132    3.4552    3.4889   16.6068   19.0004   19.9906   20.8298   20.6911    9.1194    4.3056 
2651.20    4.6905    4.0563    3.6344    3.4790    3.4907   17.5781   18.9837   20.2350   20.7481   20.7528    9.3217    4.2954 
2651.30    4.4464    3.9383    3.6329    3.5092    3.5022   18.2774   19.3183   20.2399   20.6453   20.6896    9.4938    4.2614 
2651.40    4.3451    3.8384    3.6299    3.5719    3.5208   18.2025   19.6028   20.2494   20.4368   20.5751    9.6106    4.1170 
2651.50    4.3235    3.8230    3.6537    3.6114    3.5364   18.2347   19.6486   20.1735   20.3062   20.5629    9.6554    3.8938 
2651.60    4.2487    3.8090    3.7047    3.6095    3.5611   18.4417   19.6905   20.0130   20.3123   20.5317    9.7284    3.6988 
2651.70    4.1091    3.7991    3.7349    3.6062    3.6078   18.7746   19.7201   19.9188   20.3230   20.3324    9.9250    3.6069 
2651.80    3.9461    3.8655    3.7473    3.6303    3.6578   19.3584   19.5262   19.8807   20.2458   20.1073   10.2192    3.3712 
2651.90    3.8206    3.7996    3.7526    3.6124    3.6881   19.7929   19.7270   19.8643   20.3038   20.0463   10.4896    3.1361 
