~Version information
VERS.                            2.00: CWLS LAS  -  VERSION 2.00
WRAP.                              NO: One line per depth step
~Well information
#MNEM.UNIT                  DATA TYPE  INFORMATION
#===.================================:==================
STRT.M                       1140.000: First depth in file
STOP.M                       3790.800: Last depth in file
STEP.M                          0.100: Depth increment
NULL.                       -9999.00 : Null values
DATE.                        : LOG DATE
TIME.                           17:38: LOG TIME
WELL.                             F2: Well name
GRP.                                 : Group name
FLD.                    F: Field name
ISS.                     окон.каротаж: Well surveys
SRVC.                                : Service Company
~Curve information
#MNEM.UNIT                   API CODE   CURVE DESCRIPTION
#===.================================:==================
DEPT.M                               : Depth curve
RO05.Ohmm                            : : Apparent resistivity
RO07.Ohmm                            : : Apparent resistivity
RO10.Ohmm                            : : Apparent resistivity
RO14.Ohmm                            : : Apparent resistivity
RO20.Ohmm                            : : Apparent resistivity
DF05.                                : 
DF07.                                : 
DF10.                                : 
DF14.                                : 
DF20.                                : 
ГК ок.                               : 
НКТ-Б ок.                            : 
#
~Other information
#------------------ REMARKS AREA -----------------------
#=======================================================
# The file is generated by the program GeoTech-EditLog v2000.12
#Number of Curves = 12
~A Log Data Section
# ...
2771.70    4.3113    3.7895    3.6467    3.6708    3.5503   18.3500   19.7490   20.1968   20.1158   20.5077    8.5467    3.4967 
2771.80    4.4226    3.7801    3.5336    3.6666    3.5380   18.2640   19.7774   20.5679   20.1294   20.5043    8.4563    3.3540 
2771.90    4.5799    3.7695    3.4654    3.6337    3.5016   17.5876   19.8098   20.7977   20.2351   20.6429    8.3607    3.2906 
2772.00    4.7003    3.6854    3.4532    3.5089    3.4562   17.2581   20.0726   20.8397   20.6514   20.8808    8.3296    3.3401 
2772.10    4.7180    3.5713    3.4613    3.4100    3.4245   17.4240   20.4391   20.8117   20.9879   20.9694    8.4613    3.3521 
2772.20    4.6909    3.5306    3.3965    3.3897    3.4116   17.4450   20.5727   21.0419   21.0598   20.9697    8.7014    3.4337 
2772.30    4.6831    3.5311    3.4464    3.3909    3.3963   17.4322   20.5711   20.8722   21.0555   21.0173    8.8755    3.4409 
2772.40    4.5931    3.5286    3.5481    3.3872    3.3730   17.4761   20.5796   20.5175   21.0686   21.1322    8.9154    3.5760 
2772.50    4.4356    3.6011    3.5489    3.3903    3.3482   18.0850   20.3427   20.5146   21.0578   21.2211    8.7803    3.7031 
2772.60    4.2818    3.6008    3.5542    3.3053    3.3323   18.5536   20.3430   20.4972   21.3725   21.2840    8.6721    3.7559 
2772.70    4.1708    3.5254    3.5577    3.2160    3.3259   18.5760   20.5905   20.4855   21.7033   21.3062    8.4202    3.7601 
2772.80    4.2125    3.5009    3.4161    3.2214    3.2832   18.9236   20.6728   20.9806   21.6830   21.2911    8.2163    3.7696 
2772.90    4.4538    3.5060    3.3433    3.2292    3.1802   18.2909   20.6557   21.2314   21.6526   21.7771    8.1314    3.7551 
2773.00    4.8173    3.7731    3.3726    3.1359    3.0509   16.9351   19.8332   21.1243   22.0243   22.5342    8.0743    3.6295 
2773.10    5.1036    4.0450    3.3880    2.9826    2.9622   16.4541   19.0157   21.0693   22.6597   22.8470    8.0263    3.6492 
2773.20    5.2383    4.0850    3.3801    2.9106    2.9387   16.3936   18.9057   21.0975   22.9703   22.8663    8.1075    3.6878 
2773.30    5.2896    4.0869    3.2836    2.9037    2.9363   16.1404   18.9005   21.4534   23.0013   22.8337    8.1693    3.8111 
2773.40    5.2989    3.9693    3.2280    2.8954    2.9361   16.1707   19.2313   21.6607   23.0384   22.8792    8.1997    4.0623 
2773.50    5.2613    3.7811    3.2383    2.8838    2.9410   16.3406   19.7780   21.6212   23.0908   22.8687    8.2180    4.2677 
2773.60    5.2790    3.7317    3.1939    2.8982    2.9522   16.3452   19.9258   21.7939   23.0260   22.7696    8.2939    4.2653 
2773.70    5.4218    3.7392    3.2417    2.9134    2.9665   16.0790   19.9025   21.6150   22.9578   22.7327    8.3970    4.2158 
2773.80    5.6168    3.7750    3.3603    2.9128    2.9993   15.5907   19.7942   21.1698   22.9605   22.6809    8.4742    4.3242 
2773.90    5.7645    3.9984    3.3922    3.0336    3.0717   15.3376   19.1585   21.0542   22.4501   22.3554    8.6031    4.3703 
2774.00    5.8450    4.2978    3.4495    3.3256    3.1628   15.3241   18.3600   20.8550   21.3164   21.8386    8.7870    4.4841 
2774.10    6.2372    4.4193    3.8346    3.5100    3.2292   15.1995   18.0548   19.6718   20.6423   21.5751    8.9356    4.7005 
2774.20    7.0616    4.4601    4.3461    3.5344    3.2802   13.8292   17.9582   18.2559   20.5600   21.5609    9.0708    4.9415 
2774.30    7.9973    5.1888    4.5424    3.6199    3.3649   12.3345   16.5347   17.7678   20.2832   21.2619    9.2350    5.0579 
2774.40    8.6454    6.0985    4.5599    3.8726    3.4755   11.9529   14.9123   17.7277   19.5184   20.6713    9.4413    4.8898 
2774.50    8.2289    6.3646    4.8079    4.0199    3.5618   11.7589   14.5139   17.1968   19.0835   20.3894    9.6422    4.8898 
2774.60    6.8644    6.3558    4.4711    4.0228    3.5895   14.1164   14.5262   18.0292   19.0757   20.3647    9.8043    4.7375 
2774.70    5.2332    5.4412    4.0060    4.0309    3.5477   17.7332   16.1246   19.1248   19.0532   20.3881    9.9275    4.5565 
2774.80    4.2293    4.3439    3.9990    3.7616    3.4598   19.0386   18.2730   19.1444   19.8687   20.8189    9.8841    4.3983 
2774.90    4.0353    4.1408    3.9955    3.7041    3.3669   19.0437   18.7584   19.1542   20.0269   21.2753    9.7273    4.2539 
2775.00    4.0521    4.1976    4.4305    3.8390    3.3139   19.0496   18.6078   18.0981   19.6013   21.3601    9.4921    4.1811 
2775.10    4.2488    4.1964    4.8517    3.8304    3.3538   18.9029   18.6110   17.0900   19.6265   21.3792    9.2020    4.1773 
2775.20    4.5225    4.2410    4.8964    4.0683    3.4878   17.6580   18.4973   16.9968   18.9765   20.8657    8.8860    4.0869 
2775.30    4.7275    4.4475    4.8938    4.3240    3.6588   17.0907   17.9980   17.0020   18.2886   20.0038    8.6514    3.8279 
2775.40    4.7520    4.3579    4.8911    4.3841    3.7798   17.4093   18.2231   17.0075   18.1399   19.6757    8.5673    3.7310 
2775.50    4.7003    4.0862    4.6393    4.3799    3.8332   17.4178   18.9047   17.5677   18.1501   19.6764    8.6104    3.6613 
2775.60    4.7022    4.0241    4.2185    4.3622    3.8956   17.4124   19.0720   18.5726   18.1931   19.5141    8.7638    3.6398 
2775.70    4.7069    4.0241    4.0058    4.3616    3.9909   17.3973   19.0720   19.1260   18.1946   19.1400    8.8745    3.6988 
2775.80    4.7105    4.0237    3.9816    4.2915    4.0715   17.3869   19.0731   19.1930   18.3699   18.8660    8.9122    3.7640 
2775.90    4.7077    4.0208    3.9833    4.2971    4.1044   17.3886   19.0810   19.1883   18.3559   18.8376    8.9405    3.8445 
2776.00    4.5441    4.0216    3.9819    4.3918    4.1085   17.4155   19.0789   19.1921   18.1217   18.8652    8.9853    3.8847 
2776.10    4.3227    4.0235    3.9799    4.4206    4.1304   18.6362   19.0736   19.1977   18.0516   18.8328    9.0004    3.8292 
2776.20    4.1704    3.8209    3.9723    4.4099    4.2017   19.0329   19.6733   19.2191   18.0774   18.6661    8.9808    3.7807 
2776.30    4.1798    3.8788    3.9745    4.4102    4.2965   18.4973   19.5107   19.2130   18.0767   18.3156    9.0078    3.7760 
2776.40    4.2665    4.1564    4.0149    4.4163    4.3677   18.4778   18.7182   19.1007   18.0620   18.1105    9.0999    3.7606 
2776.50    4.2695    4.2232    4.2358    4.4163    4.3902   18.3295   18.5418   18.5261   18.0620   18.1255    9.1461    3.7402 
2776.60    4.2078    4.2192    4.3499    4.4258    4.3872   18.4792   18.5521   18.2269   18.0393   18.1473    9.1602    3.8138 
2776.70    4.1011    4.1036    4.3056    4.4947    4.3845   18.9672   18.8602   18.3358   17.8777   18.1321    9.1958    3.8346 
2776.80    4.0194    4.0324    4.2974    4.4726    4.3830   19.1751   19.0495   18.3563   17.9294   18.1452    9.2805    3.8749 
2776.90    4.0894    4.0598    4.3108    4.4344    4.3808   19.1261   18.9741   18.3229   18.0188   18.1587    9.3986    3.8209 
2777.00    4.2144    4.0617    4.3750    4.4578    4.3837   18.4377   18.9689   18.1655   17.9631   18.1479    9.5109    3.8647 
2777.10    4.2909    4.1633    4.4222    4.4588    4.3772   18.2025   18.7016   18.0505   17.9607   18.1237    9.5886    3.9098 
2777.20    4.2734    4.0762    4.4316    4.4164    4.3437   18.5146   18.9410   18.0281   18.0622   18.2064    9.6405    3.9360 
2777.30    4.1726    3.8804    4.3816    4.3140    4.2993   18.5450   19.4802   18.1493   18.3134   18.3977    9.6225    3.9683 
2777.40    4.0874    3.8438    4.2173    4.2531    4.2696   18.9859   19.5868   18.5650   18.4652   18.4537    9.5408    3.8748 
2777.50    4.0364    3.8435    4.1324    4.2569    4.2533   19.2025   19.5877   18.7818   18.4556   18.4287    9.4657    3.9983 
2777.60    4.0525    3.8671    4.1411    4.2132    4.2392   18.9490   19.5186   18.7585   18.5683   18.5214    9.3832    3.9683 
2777.70    4.0970    3.9148    4.1288    4.2123    4.2286   18.8457   19.3802   18.7910   18.5708   18.5619    9.2189    3.9287 
2777.80    4.0978    3.9330    4.1669    4.2544    4.2349   18.8350   19.3277   18.6917   18.4622   18.5099    9.0462    3.8798 
2777.90    4.2761    3.9241    4.2958    4.2718    4.2650   18.9422   19.3532   18.3635   18.4179   18.4726    8.9340    3.8504 
