~Version information
VERS.                            2.00: CWLS LAS  -  VERSION 2.00
WRAP.                              NO: One line per depth step
~Well information
#MNEM.UNIT                  DATA TYPE  INFORMATION
#===.================================:==================
STRT.M                       1140.000: First depth in file
STOP.M                       3790.800: Last depth in file
STEP.M                          0.100: Depth increment
NULL.                       -9999.00 : Null values
DATE.                        : LOG DATE
TIME.                           17:38: LOG TIME
WELL.                             F2: Well name
GRP.                                 : Group name
FLD.                    F: Field name
ISS.                     окон.каротаж: Well surveys
SRVC.                                : Service Company
~Curve information
#MNEM.UNIT                   API CODE   CURVE DESCRIPTION
#===.================================:==================
DEPT.M                               : Depth curve
RO05.Ohmm                            : : Apparent resistivity
RO07.Ohmm                            : : Apparent resistivity
RO10.Ohmm                            : : Apparent resistivity
RO14.Ohmm                            : : Apparent resistivity
RO20.Ohmm                            : : Apparent resistivity
DF05.                                : 
DF07.                                : 
DF10.                                : 
DF14.                                : 
DF20.                                : 
ГК ок.                               : 
НКТ-Б ок.                            : 
#
~Other information
#------------------ REMARKS AREA -----------------------
#=======================================================
# The file is generated by the program GeoTech-EditLog v2000.12
#Number of Curves = 12
~A Log Data Section
# ...
3786.00    4.6832    5.9718    7.9594   10.1254   12.8814   17.8136   15.0987   12.6444   10.8540    9.4130  -9999.00  -9999.00 
3786.10    4.4272    5.4937    7.9271   10.1167   11.5730   18.1724   15.8778   12.6766   10.8600   10.1544  -9999.00  -9999.00 
3786.20    4.3833    5.4401    8.0046   10.0837   10.8620   18.1457   15.9650   12.6008   10.8828   10.4265  -9999.00  -9999.00 
3786.30    4.3927    5.6567    7.6468   10.0962   10.6333   18.1159   15.5907   12.9807   10.8742   10.5569  -9999.00  -9999.00 
3786.40    4.3984    5.7500    7.6013   10.1246   10.5587   18.1036   15.4362   13.0224   10.8545   10.5750  -9999.00  -9999.00 
3786.50    4.4001    5.7625    7.9410    9.5873   10.5596   18.1044   15.4158   12.6630   11.2549   10.5676  -9999.00  -9999.00 
3786.60    4.4153    5.7699    8.0032    9.3877   10.5714   18.1036   15.4039   12.6012   11.3957   10.5552  -9999.00  -9999.00 
3786.70    4.7248    5.7693    8.0246    8.8768   10.5882   17.9950   15.4049   12.5801   11.8350   10.5521  -9999.00  -9999.00 
3786.80    5.1213    5.7741    8.0129    8.1209   10.6295   16.3217   15.3972   12.5916   12.4858   10.5351  -9999.00  -9999.00 
3786.90    5.3216    6.1567    8.0052    7.9445   10.3555   15.7472   14.8312   12.5992   12.6576   10.4763  -9999.00  -9999.00 
3787.00    5.1721    5.9458    8.0266    7.9166    9.6543   16.6992   15.1719   12.5781   12.6852   11.1623  -9999.00  -9999.00 
3787.10    4.9215    5.1823    7.7320    7.9179    8.7940   17.0300   16.4528   12.8831   12.6840   12.1438  -9999.00  -9999.00 
3787.20    4.8580    4.7920    6.6633    7.9197    8.2491   17.1192   17.2161   14.1936   12.6822   12.4855  -9999.00  -9999.00 
3787.30    4.8704    4.6689    5.7431    7.9251    8.1203   17.0806   17.4798   15.4583   12.6767   12.4842  -9999.00  -9999.00 
3787.40    4.9114    4.6528    5.6308    7.4332    8.1077   16.9530   17.5154   15.6358   13.2146   12.4916  -9999.00  -9999.00 
3787.50    4.9453    4.6445    5.7220    6.8814    8.0958   16.8665   17.5340   15.4840   13.8386   12.5222  -9999.00  -9999.00 
3787.60    4.9569    4.6393    5.7205    7.4957    8.0875   16.8712   17.5456   15.4864   13.1753   12.5186  -9999.00  -9999.00 
3787.70    4.9566    4.6425    5.7125    8.5691    8.1124   16.8819   17.5383   15.4995   12.0849   12.5156  -9999.00  -9999.00 
3787.80    4.9560    4.6450    5.7258    8.9550    8.5251   16.8680   17.5328   15.4777   11.7388   12.4505  -9999.00  -9999.00 
3787.90    4.9544    4.6560    5.7385    8.9599    9.5093   16.8750   17.5083   15.4571   11.7348   11.5098  -9999.00  -9999.00 
3788.00    4.9514    4.6492    5.7463    8.9961   10.7092   16.8919   17.5235   15.4443   11.7049   10.2866  -9999.00  -9999.00 
3788.10    4.9512    4.6422    5.7315    9.0067   11.5352   16.8862   17.5390   15.4685   11.6962    9.8505  -9999.00  -9999.00 
3788.20    4.9540    4.6481    5.7323    9.0160   11.7880   16.8759   17.5258   15.4673   11.6885    9.8300  -9999.00  -9999.00 
3788.30    4.9533    4.6373    5.7374    9.0492   11.7916   16.8750   17.5499   15.4589   11.6613    9.8290  -9999.00  -9999.00 
3788.40    4.9479    4.6274    5.7315    9.0580   11.7768   16.8907   17.5720   15.4685   11.6541    9.8447  -9999.00  -9999.00 
3788.50    4.9429    4.6313    5.7241    9.0344   11.7474   16.9083   17.5634   15.4804   11.6734    9.8544  -9999.00  -9999.00 
3788.60    4.9427    4.6356    5.7313    9.0425   11.7437   16.9055   17.5538   15.4688   11.6668    9.8773  -9999.00  -9999.00 
3788.70    4.9465    4.6407    5.7508    9.0668   11.7511   16.8919   17.5423   15.4371   11.6469    9.8513  -9999.00  -9999.00 
3788.80    4.9506    4.6415    5.7357    9.0394   11.7622   16.8855   17.5405   15.4617   11.6692    9.8421  -9999.00  -9999.00 
3788.90    4.9533    4.6486    5.7200    9.0154   11.7452   16.8800   17.5249   15.4871   11.6890    9.8590  -9999.00  -9999.00 
3789.00   64.5928    4.6532    5.7292    9.0298   11.7261   16.8755   17.5146   15.4722   11.6771    9.8788  -9999.00  -9999.00 
3789.10  175.0876    4.6493    5.7212    9.0184   11.7360  -9999.00   17.5232   15.4852   11.6865    9.8736  -9999.00  -9999.00 
3789.20  285.3344  183.6982    5.7230    8.9866   11.7486  -9999.00  -9999.00   15.4824   11.7127    9.8427  -9999.00  -9999.00 
3789.30  336.0670  336.0120    5.7412    9.0042   11.7619  -9999.00  -9999.00   15.4527   11.6983    9.8579  -9999.00  -9999.00 
3789.40  336.0670  336.0120  184.6033    8.9967   11.7615  -9999.00  -9999.00  -9999.00   11.7044    9.8518  -9999.00  -9999.00 
3789.50  336.0670  336.0120  336.0670    8.9967   11.7595  -9999.00  -9999.00  -9999.00   11.7044    9.8433  -9999.00  -9999.00 
3789.60  336.0670  336.0120  336.0670    9.0164   11.7572  -9999.00  -9999.00  -9999.00   11.6882    9.8612  -9999.00  -9999.00 
3789.70  336.0670  336.0120  336.0670  185.7049   11.7614  -9999.00  -9999.00  -9999.00  -9999.00    9.8555  -9999.00  -9999.00 
3789.80  336.0670  336.0120  336.0670  336.0120   11.7676  -9999.00  -9999.00  -9999.00  -9999.00    9.8364  -9999.00  -9999.00 
3789.90  336.0670  336.0120  336.0670  336.0120   11.7398  -9999.00  -9999.00  -9999.00  -9999.00    9.8511  -9999.00  -9999.00 
3790.00  336.0670  336.0120  336.0670  336.0120   70.1214  -9999.00  -9999.00  -9999.00  -9999.00    9.9014  -9999.00  -9999.00 
3790.10  336.0670  336.0120  336.0670  336.0120  178.3445  -9999.00  -9999.00  -9999.00  -9999.00  -9999.00  -9999.00  -9999.00 
3790.20  336.0670  336.0120  336.0670  336.0120  286.3555  -9999.00  -9999.00  -9999.00  -9999.00  -9999.00  -9999.00  -9999.00 
3790.30  336.0670  336.0120  336.0670  336.0120  336.0670  -9999.00  -9999.00  -9999.00  -9999.00  -9999.00  -9999.00  -9999.00 
3790.40  336.0670  336.0120  336.0670  336.0120  336.0670  -9999.00  -9999.00  -9999.00  -9999.00  -9999.00  -9999.00  -9999.00 
3790.50  336.0670  336.0120  336.0670  336.0120  336.0670  -9999.00  -9999.00  -9999.00  -9999.00  -9999.00  -9999.00  -9999.00 
3790.60  336.0670  336.0120  336.0670  336.0120  336.0670  -9999.00  -9999.00  -9999.00  -9999.00  -9999.00  -9999.00  -9999.00 
3790.70  336.0670  336.0120  336.0670  336.0120  336.0670  -9999.00  -9999.00  -9999.00  -9999.00  -9999.00  -9999.00  -9999.00 
3790.80  336.0670  336.0120  336.0670  336.0120  336.0670  -9999.00  -9999.00  -9999.00  -9999.00  -9999.00  -9999.00  -9999.00 
