~Version information
VERS.                            2.00: CWLS LAS  -  VERSION 2.00
WRAP.                              NO: One line per depth step
~Well information
#MNEM.UNIT                  DATA TYPE  INFORMATION
#===.================================:==================
STRT.M                       1140.000: First depth in file
STOP.M                       3790.800: Last depth in file
STEP.M                          0.100: Depth increment
NULL.                       -9999.00 : Null values
DATE.                        : LOG DATE
TIME.                           17:38: LOG TIME
WELL.                             F2: Well name
GRP.                                 : Group name
FLD.                    F: Field name
ISS.                     окон.каротаж: Well surveys
SRVC.                                : Service Company
~Curve information
#MNEM.UNIT                   API CODE   CURVE DESCRIPTION
#===.================================:==================
DEPT.M                               : Depth curve
RO05.Ohmm                            : : Apparent resistivity
RO07.Ohmm                            : : Apparent resistivity
RO10.Ohmm                            : : Apparent resistivity
RO14.Ohmm                            : : Apparent resistivity
RO20.Ohmm                            : : Apparent resistivity
DF05.                                : 
DF07.                                : 
DF10.                                : 
DF14.                                : 
DF20.                                : 
ГК ок.                               : 
НКТ-Б ок.                            : 
#
~Other information
#------------------ REMARKS AREA -----------------------
#=======================================================
# The file is generated by the program GeoTech-EditLog v2000.12
#Number of Curves = 12
~A Log Data Section
# ...
3408.00    7.6718    8.3217    7.6933    8.8508    6.9930   13.1391   12.2948   12.9262   11.8262   13.7312    8.4544    4.9668 
3408.10    8.0779    8.3408    7.4207    8.2064    6.9812   12.5980   12.2770   13.2084   12.4313   13.7110    8.4991    4.6575 
3408.20    8.3705    8.3216    7.4316    6.9753    6.9845   11.9444   12.2949   13.1963   13.7743   13.7067    8.4312    4.5076 
3408.30    8.4571    7.7312    7.4135    6.2948    6.9841   12.2794   12.9015   13.2163   14.6125   13.7192    8.3944    4.4418 
3408.40    8.4231    6.9274    7.4179    6.2311    6.9061   12.3373   13.7907   13.2115   14.7025   13.7124    8.4140    4.2607 
3408.50    8.5095    6.7513    6.7760    6.2429    6.7317   12.0293   14.0005   14.0208   14.6857   14.0030    8.4125    4.2956 
3408.60    8.6312    6.8413    6.1093    6.2572    6.5192   12.0254   13.8861   14.8841   14.6652   14.3933    8.4177    4.3293 
3408.70    8.6468    6.8404    6.0014    6.2497    6.3819   11.9969   13.8872   15.0439   14.6759   14.5397    8.4581    4.2680 
3408.80    8.6412    6.8320    5.9938    6.1460    6.3471   11.9883   13.8978   15.0556   14.8270   14.5461    8.5518    4.1475 
3408.90    8.6101    6.8446    5.9840    5.8202    6.3464   12.0403   13.8820   15.0705   15.3341   14.5359    8.6755    4.0630 
3409.00    8.6300    6.8353    5.9736    5.6017    6.3489   12.0792   13.8937   15.0865   15.6810   14.5428    8.7248    4.0649 
3409.10    8.7246    6.9850    5.9760    5.5946    6.3230   11.9381   13.7127   15.0828   15.6930   14.5351    8.6834    4.0709 
3409.20    8.8295    7.2859    5.9941    5.5962    6.2601   11.7960   13.3603   15.0552   15.6903   14.6458    8.6360    4.0647 
3409.30    8.8728    7.4990    6.1118    5.5985    6.1483   11.8066   13.1213   14.8805   15.6864   14.8132    8.6004    3.9066 
3409.40    8.8582    7.5444    6.3279    5.6064    6.0355   11.8256   13.0716   14.5697   15.6731   15.0236    8.6225    4.0752 
3409.50    8.8481    7.5478    6.5128    5.6069    5.9577   11.8329   13.0679   14.3143   15.6722   15.1471    8.6754    4.1310 
3409.60    8.8592    7.5644    6.5982    5.5518    5.9273   11.8322   13.0500   14.1999   15.7661   15.1647    8.6759    4.1219 
3409.70    8.9668    7.5589    6.5951    5.5438    5.9242   11.7977   13.0559   14.2040   15.7797   15.1614    8.7384    4.2003 
3409.80    9.0482    7.5582    6.5904    5.5868    5.9231   11.5707   13.0567   14.2102   15.7063   15.1614    8.8191    4.3823 
3409.90    9.0105    7.6829    6.5892    5.6072    5.8689   11.6353   12.9258   14.2117   15.6718   15.1700    9.0002    4.4905 
3410.00    8.8669    7.6590    6.5919    5.6264    5.6862   11.8937   12.9509   14.2083   15.6395   15.4223    9.0331    4.4839 
3410.10    8.7519    7.5243    6.6719    5.6189    5.4024   11.9253   13.0932   14.1041   15.6522   16.0887    9.0423    4.5512 
3410.20    8.7342    7.5335    6.5685    5.6144    5.1407   11.9179   13.0835   14.2420   15.6598   16.6519    8.9759    4.5512 
3410.30    8.7281    7.5627    6.4023    5.6109    5.0081   11.9392   13.0518   14.4639   15.6655   16.8332    8.8076    4.3387 
3410.40    8.7273    7.5634    6.3632    5.5329    4.9793   11.9411   13.0511   14.5181   15.7989   16.8292    8.5917    4.4516 
3410.50    8.9547    7.5833    6.3457    5.3366    4.9793   11.9202   13.0298   14.5425   16.1483   16.8214    8.3841    4.5461 
3410.60    9.8315    7.5847    6.3452    5.1457    4.9776   11.4036   13.0283   14.5431   16.5006   16.8336    8.2793    4.6191 
3410.70   10.8054    7.5999    6.3455    5.0561    4.9375   10.1536   13.0123   14.5428   16.6730   16.8393    8.2340    4.7631 
3410.80   11.3179    7.6991    6.3482    5.0377    4.8104    9.9248   12.9082   14.5390   16.7092   17.0705    8.1979    4.8928 
3410.90   11.1819    7.1910    6.3251    5.0306    4.6044   10.3270   13.4993   14.5714   16.7233   17.6560    8.0885    4.9256 
3411.00   10.9409    6.6750    6.0048    5.0321    4.4000   10.3270   14.0976   15.0530   16.7203   18.2144    7.8464    4.9354 
3411.10   10.9389    6.6664    5.4178    5.0553    4.2750   10.3243   14.1086   16.0241   16.6745   18.4812    7.5021    4.9556 
3411.20   10.9421    6.6794    5.1223    5.0001    4.2295   10.3306   14.0918   16.5467   16.7846   18.5499    7.2154    4.9766 
3411.30   10.9433    6.6685    5.1205    4.6219    4.2198   10.3212   14.1058   16.5502   17.6145   18.5550    6.9509    5.1102 
3411.40   10.9211    6.6707    5.1175    4.2681    4.2204   10.3222   14.1031   16.5560   18.4298   18.5550    6.7272    5.2728 
3411.50   10.5874    6.6805    5.1151    4.1916    4.2084   10.3717   14.0903   16.5606   18.6235   18.5453    6.6167    5.3538 
3411.60   10.3079    6.6698    5.1245    4.1802    4.1487   11.0154   14.1042   16.5424   18.6530   18.6491    6.6268    5.6621 
3411.70   10.3474    6.5167    5.1192    4.1766    4.0450   10.9050   14.3083   16.5527   18.6624   19.0345    6.6010    5.8889 
3411.80   10.7229    6.5740    5.1126    4.1819    3.9460   10.2995   14.2343   16.5654   18.6486   19.3927    6.6040    5.9838 
3411.90   11.0447    6.8230    5.0836    4.1775    3.8976   10.2463   13.9101   16.6219   18.6602   19.4643    6.7307    5.9603 
3412.00   11.0768    6.8968    5.0750    4.1752    3.8928   10.2441   13.8173   16.6386   18.6660   19.4411    6.8065    5.9496 
3412.10   11.0750    6.8819    5.1115    4.1776    3.8937   10.2406   13.8357   16.5677   18.6599   19.4332    6.7919    5.8142 
3412.20   11.0693    6.8777    5.1565    4.1380    3.8922   10.2495   13.8408   16.4814   18.7643   19.4570    6.7281    5.7008 
3412.30   11.0667    6.8705    5.1753    4.1636    3.8920   10.2544   13.8498   16.4455   18.6982   19.4541    6.7038    5.7261 
3412.40   11.0713    6.8613    5.1695    4.3310    3.8942   10.2454   13.8612   16.4564   18.2750   19.4352    6.6787    5.7865 
3412.50   11.0386    6.8677    5.1665    4.4449    3.9084   10.2412   13.8533   16.4621   17.9936   19.4375    6.7126    5.8740 
3412.60   10.2670    6.8831    5.1795    4.4597    4.0370   10.3145   13.8342   16.4376   17.9584   19.3320    7.0938    5.9328 
3412.70    8.5581    6.8827    5.1686    4.4601    4.3112   12.1775   13.8347   16.4580   17.9574   18.4361    7.9559    5.9357 
3412.80    6.5645    6.6514    5.1597    4.4591    4.6340   15.2973   14.1337   16.4751   17.9598   17.3796    8.8592    5.8486 
3412.90    5.2824    5.8526    5.1673    4.4569    4.8455   16.8149   15.3351   16.4606   17.9650   16.9895    9.6723    5.3783 
3413.00    4.9186    5.3351    5.2817    4.4613    4.9104   16.9630   16.1468   16.2496   17.9548   16.9549   10.4849    5.2706 
3413.10    4.8618    5.3324    5.7102    4.4673    4.9152   17.0816   16.1516   15.5232   17.9405   16.9598   11.1576    5.0875 
3413.20    4.8312    5.3391    6.2282    4.4739    4.9105   17.1631   16.1395   14.7182   17.9249   16.9593   11.3122    4.7631 
3413.30    4.8217    5.3587    6.4274    4.8702    4.9079   17.1540   16.1042   14.4293   17.0918   16.9836   11.2015    4.6693 
3413.40    4.8110    5.3663    6.4542    6.0246    4.9073   17.1400   16.0905   14.3929   15.1178   16.9758   11.2614    4.7970 
3413.50    4.8840    5.3668    6.4931    6.8355    4.9156   17.2316   16.0895   14.3401   13.8949   16.9630   11.3771    4.7520 
3413.60    5.0888    5.3699    6.5078    6.9570    5.1320   16.7289   16.0840   14.3202   13.7437   16.9327   11.4094    4.6572 
3413.70    5.3411    5.6559    6.5154    6.9857    5.6690   15.9647   15.6070   14.3100   13.7088   15.8419   11.3857    4.6528 
3413.80    5.4995    5.9627    6.5268    6.9975    6.3568   15.7841   15.1017   14.2948   13.6945   14.3237   11.3368    4.6614 
3413.90    5.5216    6.0004    6.7846    7.0120    6.8555   15.8319   15.0434   13.9670   13.6771   13.7079   11.2646    4.7139 
3414.00    5.5085    5.9985    7.1352    7.0276    7.0360   15.8436   15.0462   13.5350   13.6584   13.6316   11.2343    4.9139 
3414.10    5.5054    5.9858    7.3710    7.0547    7.0639   15.8515   15.0657   13.2648   13.6261   13.6126   11.1466    4.9832 
3414.20    5.4991    5.9796    7.4671    7.3499    7.0741   15.8478   15.0751   13.1574   13.2934   13.6072   11.0641    4.9942 
