~Version information
VERS.                            2.00: CWLS LAS  -  VERSION 2.00
WRAP.                              NO: One line per depth step
~Well information
#MNEM.UNIT                  DATA TYPE  INFORMATION
#===.================================:==================
STRT.M                       1140.000: First depth in file
STOP.M                       3790.800: Last depth in file
STEP.M                          0.100: Depth increment
NULL.                       -9999.00 : Null values
DATE.                        : LOG DATE
TIME.                           17:38: LOG TIME
WELL.                             F2: Well name
GRP.                                 : Group name
FLD.                    F: Field name
ISS.                     окон.каротаж: Well surveys
SRVC.                                : Service Company
~Curve information
#MNEM.UNIT                   API CODE   CURVE DESCRIPTION
#===.================================:==================
DEPT.M                               : Depth curve
RO05.Ohmm                            : : Apparent resistivity
RO07.Ohmm                            : : Apparent resistivity
RO10.Ohmm                            : : Apparent resistivity
RO14.Ohmm                            : : Apparent resistivity
RO20.Ohmm                            : : Apparent resistivity
DF05.                                : 
DF07.                                : 
DF10.                                : 
DF14.                                : 
DF20.                                : 
ГК ок.                               : 
НКТ-Б ок.                            : 
#
~Other information
#------------------ REMARKS AREA -----------------------
#=======================================================
# The file is generated by the program GeoTech-EditLog v2000.12
#Number of Curves = 12
~A Log Data Section
# ...
3534.00    4.4317    4.6444    5.8824    6.3340    6.9371   18.0317   17.5340   15.2275   14.5634   13.7726   10.1988    4.9975 
3534.10    4.4314    4.6483    5.8793    6.6854    6.9400   18.0254   17.5253   15.2323   14.1201   13.7730   10.1038    5.2158 
3534.20    4.4245    4.6531    5.8825    7.1779    6.9425   18.0286   17.5148   15.2274   13.4814   13.7534   10.0077    5.5261 
3534.30    4.6812    4.6468    5.8782    7.1876    6.9988   18.0814   17.5287   15.2340   13.4699   13.7637    9.8902    5.7993 
3534.40    4.9908    4.6373    5.8886    7.1694    7.0838   16.5480   17.5500   15.2178   13.4910   13.5735    9.7098    6.0039 
3534.50    5.1685    5.2407    5.8894    7.1537    7.1451   16.1601   16.4051   15.2167   13.5094   13.4511    9.7397    6.1088 
3534.60    5.0890    5.4876    5.8801    7.1579    7.1406   16.9016   15.8906   15.2311   13.5044   13.5435    9.9387    6.0924 
3534.70    4.9549    5.2683    6.1934    7.1766    7.0943   16.8595   16.2689   14.7748   13.4827   13.5863   10.1051    6.0597 
3534.80    4.9575    5.2818    6.2430    7.1947    7.0821   16.8704   16.2441   14.6938   13.4617   13.6138   10.1944    5.8977 
3534.90    4.9690    5.2905    6.0578    7.2187    7.0891   16.8858   16.2280   14.9589   13.4340   13.5864   10.5223    5.4882 
3535.00    4.9599    5.2888    6.0554    6.8479    7.1012   16.7913   16.2311   14.9625   13.8947   13.5617   10.8217    5.4882 
3535.10    5.0785    5.3014    6.0655    6.5356    7.0977   16.9293   16.2082   14.9474   14.2808   13.5707   10.8701    5.2924 
3535.20    5.3279    5.2364    6.0716    6.5198    7.0793   16.2537   16.3291   14.9382   14.3020   13.5988   10.7820    5.2109 
3535.30    5.6095    5.3471    6.0658    6.5042    7.0239   15.4439   16.1325   14.9469   14.3229   13.6271   10.7832    5.1665 
3535.40    5.7619    5.3296    6.1890    6.5005    6.8422   15.3979   16.1628   14.7679   14.3279   13.7715   10.8062    5.0745 
3535.50    5.7669    5.1871    5.9275    6.4894    6.5788   15.4161   16.4205   15.1799   14.3429   14.2961   10.7023    4.9621 
3535.60    5.7723    5.1826    5.4797    6.5028    6.3541   15.4192   16.4291   15.8958   14.3248   14.6574   10.7825    5.1463 
3535.70    5.5189    5.1750    5.3756    6.2795    6.2734   15.3723   16.4435   16.0763   14.6407   14.6579   11.0714    5.1735 
3535.80    5.0524    5.1756    5.3711    5.9852    6.2779   16.9452   16.4424   16.0842   15.0675   14.6180   11.2596    5.2204 
3535.90    4.5885    4.8765    5.3773    5.9364    6.2790   18.1926   17.0598   16.0732   15.1415   14.6383   11.4251    5.1998 
3536.00    4.3830    4.6333    5.3841    5.9564    6.2863   18.1052   17.5588   16.0610   15.1106   14.6534   11.6191    5.2930 
3536.10    4.3900    4.8125    5.3521    5.9564    6.3355   18.1390   17.1772   16.1186   15.1105   14.5868   11.6451    5.3150 
3536.20    4.3857    4.9606    5.5313    5.9425    6.4219   18.1404   16.8631   15.8119   15.1320   14.4339   11.5208    5.4986 
3536.30    4.3862    4.9597    5.7924    5.9451    6.5016   18.1367   16.8649   15.3717   15.1280   14.2953   11.3996    5.4702 
3536.40    4.3964    4.9596    5.8787    6.0053    6.5431   18.1353   16.8653   15.2333   15.0362   14.2595   11.2486    5.5805 
3536.50    4.5545    4.9594    5.8734    6.1163    6.5471   18.0670   16.8656   15.2416   14.8705   14.2643   11.0991    5.6871 
3536.60    4.8377    4.9651    5.8483    6.1453    6.5408   17.1183   16.8540   15.2811   14.8272   14.2788   11.0874    5.5750 
3536.70    5.0539    5.0935    5.8617    6.1277    6.5540   16.3316   16.6041   15.2602   14.8529   14.2848   11.1424    5.3753 
3536.80    5.0584    5.1161    5.8700    6.1236    6.5581   16.6662   16.5575   15.2470   14.8589   14.2123   11.2181    5.3672 
3536.90    4.9213    4.8797    5.7938    6.1485    6.5423   17.0420   17.0362   15.3685   14.8225   14.2635   11.1511    5.3845 
3537.00    4.8336    4.7411    5.6281    6.1424    6.5084   17.1462   17.3218   15.6413   14.8315   14.3484   11.1201    5.0927 
3537.10    4.8058    4.7626    5.7229    6.1253    6.4858   17.1949   17.2756   15.4888   14.8564   14.3480   11.0143    4.9353 
3537.20    4.7989    4.7763    5.8907    6.1170    6.4863   17.2169   17.2462   15.2146   14.8686   14.3535   10.8818    4.9565 
3537.30    4.8016    4.7795    5.9184    6.2366    6.4859   17.1903   17.2393   15.1716   14.6979   14.3460   10.7280    4.8349 
3537.40    4.8508    4.7829    5.9302    6.3966    6.4861   17.1774   17.2321   15.1532   14.4698   14.3497   10.6408    4.9065 
3537.50    5.0478    4.7784    5.9206    6.4357    6.5033   16.9153   17.2416   15.1680   14.4158   14.3526   10.4829    5.1224 
3537.60    5.3532    4.8002    5.9237    6.4454    6.5962   16.0650   17.1954   15.1632   14.4026   14.2771   10.2524    5.4632 
3537.70    5.6288    5.1312    5.9349    6.4616    6.7564   15.4792   16.5517   15.1459   14.3806   13.9895   10.0875    5.5546 
3537.80    5.7557    5.4754    5.9471    6.4798    6.9059   15.4122   15.8990   15.1271   14.3560   13.7366    9.9323    5.6530 
3537.90    5.7679    5.5310    6.0809    6.4694    6.9809   15.3970   15.8012   14.9269   14.3700   13.7076    9.8800    5.6907 
3538.00    5.7474    5.5132    6.2066    6.4619    6.9922   15.4190   15.8319   14.7401   14.3801   13.7061    9.9386    5.7495 
3538.10    5.6948    5.5142    6.2208    6.5011    7.0019   15.5129   15.8301   14.7196   14.3272   13.6954   10.0473    5.7910 
3538.20    5.6347    5.5119    6.2277    6.6064    7.0084   15.6560   15.8340   14.7097   14.1880   13.6725   10.1059    5.6784 
3538.30    5.5953    5.5063    6.2348    6.6489    7.0107   15.7178   15.8438   14.6995   14.1313   13.6825   10.1522    5.6804 
3538.40    5.5871    5.4983    6.2336    6.6326    7.0109   15.7089   15.8577   14.7012   14.1526   13.6872   10.0515    5.5822 
3538.50    5.5892    5.4579    6.2006    6.6399    7.0401   15.6972   15.9283   14.7489   14.1431   13.6719    9.9373    5.3253 
3538.60    5.5880    5.4190    6.1795    6.6248    7.0993   15.7075   15.9965   14.7793   14.1628   13.5785    9.7957    5.2913 
3538.70    5.5774    5.4216    6.1524    6.6230    7.1584   15.7148   15.9920   14.8189   14.1652   13.4777    9.6874    5.3057 
3538.80    5.4854    5.4250    6.0940    6.5471    7.1895   15.7513   15.9859   14.9049   14.2662   13.4625    9.5852    5.3946 
3538.90    5.2919    5.4193    6.0845    6.4354    7.1965   16.2032   15.9960   14.9191   14.4164   13.4690    9.5096    5.4648 
3539.00    5.1355    5.2809    6.0990    6.4980    7.2452   16.7842   16.2500   14.8975   14.3325   13.4535    9.5037    5.5672 
3539.10    5.1159    5.8071    6.0993    6.5726    7.3968   16.6140   15.4183   14.8970   14.2316   13.2974    9.5274    5.5619 
3539.20    5.1990    6.2961    5.8149    6.5796    7.6441   16.2997   14.6102   15.3471   14.2224   12.9709    9.4954    5.5591 
3539.30    5.2519    6.2494    5.9341    6.5786    7.9076   16.3009   14.6764   15.1700   14.2236   12.6591    9.4431    5.4349 
3539.40    5.2511    6.2500    6.1500    6.5865    8.0911   16.3045   14.6755   14.8236   14.2133   12.4767    9.4345    5.6580 
3539.50    5.2525    6.2327    6.0814    6.8603    8.1786   16.3040   14.7003   14.9237   13.8703   12.4153    9.3996    5.7449 
3539.60    5.2661    6.2474    6.0785    7.3396    8.2053   16.2932   14.6793   14.9281   13.3032   12.4022    9.3585    5.8337 
3539.70    5.4028    6.2675    6.0701    7.6282    8.2059   16.2296   14.6505   14.9405   12.9827   12.4000    9.4419    6.0172 
3539.80    5.5846    6.2595    6.0778    7.6707    8.3114   15.6070   14.6619   14.9291   12.9373   12.4136    9.4633    6.2491 
3539.90    5.6990    5.7913    6.0926    7.6618    8.5483   15.3601   15.4072   14.9071   12.9466   12.1184    9.5694    6.0432 
3540.00    5.6757    5.4352    6.0834    7.6713    8.8105   15.6287   15.9681   14.9208   12.9366   11.7690    9.6916    6.1575 
3540.10    5.6026    5.3839    6.3350    7.6819    8.9537   15.7010   16.0604   14.5674   12.9255   11.7161    9.7442    6.1488 
3540.20    5.5883    5.3153    6.4742    7.6882    8.9659   15.7165   16.1828   14.3664   12.9189   11.7412    9.7122    5.9376 
