~Version information
VERS.                            2.00: CWLS LAS  -  VERSION 2.00
WRAP.                              NO: One line per depth step
~Well information
#MNEM.UNIT                  DATA TYPE  INFORMATION
#===.================================:==================
STRT.M                       1140.000: First depth in file
STOP.M                       3790.800: Last depth in file
STEP.M                          0.100: Depth increment
NULL.                       -9999.00 : Null values
DATE.                        : LOG DATE
TIME.                           17:38: LOG TIME
WELL.                             F2: Well name
GRP.                                 : Group name
FLD.                    F: Field name
ISS.                     окон.каротаж: Well surveys
SRVC.                                : Service Company
~Curve information
#MNEM.UNIT                   API CODE   CURVE DESCRIPTION
#===.================================:==================
DEPT.M                               : Depth curve
RO05.Ohmm                            : : Apparent resistivity
RO07.Ohmm                            : : Apparent resistivity
RO10.Ohmm                            : : Apparent resistivity
RO14.Ohmm                            : : Apparent resistivity
RO20.Ohmm                            : : Apparent resistivity
DF05.                                : 
DF07.                                : 
DF10.                                : 
DF14.                                : 
DF20.                                : 
ГК ок.                               : 
НКТ-Б ок.                            : 
#
~Other information
#------------------ REMARKS AREA -----------------------
#=======================================================
# The file is generated by the program GeoTech-EditLog v2000.12
#Number of Curves = 12
~A Log Data Section
# ...
3282.00    3.2269    2.5717    3.3979    3.3671    4.0371   21.7528   24.6299   21.1900   21.1409   19.0280   10.4787    2.8707 
3282.10    3.1984    2.5725    2.9509    3.3643    3.9588   21.7540   24.6252   22.7964   21.1509   19.0507   10.4486    2.7825 
3282.20    3.0011    2.5737    2.9233    3.3482    3.8500   21.8174   24.6188   22.9170   21.2089   19.7346   10.4680    2.8402 
3282.30    2.5565    2.5718    2.9141    3.3611    3.7742   24.8240   24.6290   22.9581   21.1628   19.9885   10.5251    2.9180 
3282.40    2.0464    2.5587    2.9064    3.4204    3.7768   29.5767   24.7001   22.9925   20.9525   19.7031   10.6778    2.8883 
3282.50    1.7315    2.4738    2.9060    3.4561    3.8372   31.3986   25.1790   22.9942   20.8265   19.6896   10.7322    2.8504 
3282.60    1.6631    2.6123    2.8674    3.4596    4.0122   31.3067   24.4666   23.1704   20.8147   19.4408   10.8080    2.8951 
3282.70    1.6727    2.8181    3.4033    3.4732    4.3371   31.2986   23.3954   21.2406   20.7677   18.3261   10.9087    3.0349 
3282.80    1.8476    2.8510    4.4894    3.4735    4.6829   31.1083   23.2406   18.0175   20.7665   17.2347   10.8641    3.1181 
3282.90    2.4385    2.8570    5.0674    3.7121    4.8935   27.4294   23.2131   16.6543   20.0185   16.9235   10.7120    3.3059 
3283.00    3.2598    3.7566    5.1236    4.8951    4.9570   21.3732   20.2927   16.5442   17.2646   16.8624   10.4502    3.6825 
3283.10    3.9178    4.4795    5.1348    5.5720    4.9759   18.7289   17.9123   16.5227   15.7358   16.8336   10.1127    3.9009 
3283.20    3.9503    4.1259    5.2088    5.4166    5.0686   18.7035   18.8355   16.3833   16.0008   16.8091    9.8921    4.0561 
3283.30    4.8437    3.8567    5.2000    5.3878    5.3211   20.7929   19.5490   16.3993   16.0519   16.3365    9.6569    4.4880 
3283.40    8.0327    3.7182    5.5797    5.3913    5.7251   16.2487   19.9778   15.7571   16.0458   15.4801    9.3757    4.9682 
3283.50   12.4763    6.4807    5.9388    5.9122    6.1175    9.1952   15.7055   15.1399   15.2236   14.7566    9.2385    5.2266 
3283.60   15.8247   10.2470    6.2100    6.9555    6.3457    7.7365   10.8467   14.7466   13.7872   14.4406    9.1876    5.4501 
3283.70   16.8667   10.8939    7.6580    7.4881    6.4174    7.7421   10.3607   13.0903   13.1325   14.4436    9.0934    5.7519 
3283.80   16.7420   10.5069    7.4083    7.4833    6.3745    7.7448   10.5985   13.3752   13.1377   14.4454    8.9519    5.6383 
3283.90   14.4584   10.4988    6.0899    7.3876    6.1620    7.8577   10.6038   14.9195   13.2436   14.6230    8.8915    5.2465 
3284.00   10.3789   10.2944    5.8955    6.2600    5.8119   12.9615   10.7405   15.2071   14.8246   15.4159    8.7856    5.0076 
3284.10    6.3486    7.1822    5.8974    5.2328    5.4759   17.6419   14.4216   15.2041   16.3382   16.0982    8.6788    4.9858 
3284.20    4.4876    4.6776    5.8594    5.1318    5.2860   18.0303   17.4605   15.2638   16.5259   16.2426    8.4871    4.5723 
3284.30    4.4318    4.6948    5.4978    5.1323    5.1979   18.0337   17.4228   15.8814   16.5249   16.3814    8.4610    4.3594 
3284.40    4.4334    4.7171    5.7274    5.1356    5.1469   18.0190   17.3740   15.5226   16.5186   16.5903    8.2112    4.4408 
3284.50    4.6460    4.7168    6.1346    5.1582    5.1477   18.0185   17.3745   14.8451   16.4755   16.5317    7.7133    4.5707 
3284.60    5.1712    4.7143    6.1219    5.4966    5.1937   16.7521   17.3800   14.8636   15.8817   16.3760    7.8419    4.6661 
3284.70    5.7051    4.9186    6.1127    5.8533    5.2343   15.0607   16.9606   14.8772   15.2726   16.3275    8.1024    4.8927 
3284.80    5.9402    5.3795    6.1151    5.9237    5.2604   15.0022   16.0854   14.8738   15.1610   16.3003    8.0620    5.1081 
3284.90    5.8584    5.4659    6.0733    5.9237    5.3147   15.4030   15.9189   14.9363   15.1610   16.2308    8.1079    5.3043 
3285.00    5.7787    5.3202    5.8846    5.9237    5.3954   15.4149   16.1738   15.2275   15.1610   16.0326    8.2739    5.4856 
3285.10    6.0323    5.3225    5.8701    5.9083    5.4739   15.3584   16.1696   15.2487   15.1848   15.8658    8.6279    5.6691 
3285.20    6.3798    5.3392    5.9591    5.8954    5.5137   14.3560   16.1393   15.1086   15.2050   15.8128    8.8902    5.7483 
3285.30    6.6855    5.6421    5.9631    5.9131    5.5205   13.9409   15.6312   15.1024   15.1774   15.8218    9.2099    5.7491 
3285.40    6.7944    5.7380    5.9610    5.7559    5.5168   14.0502   15.4599   15.1057   15.4318   15.8306    9.6461    5.7480 
3285.50    6.8118    5.5318    5.8274    5.6010    5.5221   13.8660   15.8009   15.3172   15.6821   15.8318   10.1920    5.6313 
3285.60    6.8865    5.4672    5.4373    5.5950    5.4605   13.8644   15.9118   15.9827   15.6923   15.7944   10.8443    5.5250 
3285.70    6.5033    5.4576    4.9763    5.5919    5.2643   13.7674   15.9285   16.8458   15.6975   16.1668   11.5659    5.2352 
3285.80    5.4659    5.4541    4.7865    5.3870    5.0055   15.8108   15.9346   17.2270   16.0612   16.9486   12.2393    4.7717 
3285.90    4.1579    4.8470    4.7807    4.7971    4.8181   20.2508   17.1976   17.2395   17.2508   17.2821   13.0752    4.7717 
3286.00    3.2612    3.6048    4.7815    4.2554    4.7625   22.5149   20.6285   17.2376   18.4727   17.2658   13.7860    4.6531 
3286.10    3.0159    2.9876    4.2104    4.1040    4.7188   22.5193   22.6329   18.7052   18.8545   17.2869   14.2929    4.3795 
3286.20    2.9642    2.9829    3.9500    4.1160    4.6682   22.5119   22.6530   19.3075   18.8224   17.5730   14.4594    4.6080 
3286.30    3.1969    2.9809    4.1830    4.1164    4.6920   23.2217   22.6618   18.6493   18.8214   17.6026   14.5437    4.5192 
3286.40    3.8785    3.0629    4.2225    4.3006    4.8011   20.5379   22.3205   18.5463   18.3588   17.1400   14.7132    4.5898 
3286.50    4.7613    4.0119    4.2233    4.8325    4.9176   16.7338   19.4660   18.5443   17.1659   16.8732   14.7556    5.2267 
3286.60    5.3623    4.8747    4.2598    5.1655    4.9618   15.8356   17.0425   18.4517   16.4617   16.8546   14.7975    5.2742 
3286.70    5.5129    4.9797    4.8402    5.1790    5.0744   15.8344   16.8247   17.2002   16.4360   16.8619   14.6429    4.7244 
3286.80    5.3810    4.9783    5.1820    5.1855    5.3249   15.8342   16.8274   16.4358   16.4236   16.2478   14.3170    4.7229 
3286.90    5.1758    4.9674    5.0778    5.3477    5.6190   16.5965   16.8495   16.6330   16.1293   15.4958   13.8585    4.7145 
3287.00    5.0225    4.8124    5.0778    5.5258    5.8054   16.9990   17.1760   16.6330   15.8107   15.2866   13.4051    4.6874 
3287.10    5.0137    4.7528    5.0778    5.6523    5.8517   16.6824   17.2979   16.6330   15.5978   15.2710   12.9498    4.8483 
3287.20    5.0773    5.0032    5.1062    5.7283    5.8826   16.6077   16.7878   16.5780   15.4713   15.2699   12.4899    4.9004 
3287.30    5.0920    5.1664    5.3278    5.7381    5.9847   16.6122   16.4599   16.1717   15.4555   15.1426   12.0832    5.0055 
3287.40    5.1212    5.1611    5.6439    5.7371    6.1443   16.5960   16.4698   15.6169   15.4570   14.8103   11.7122    5.2087 
3287.50    5.2553    5.1560    5.7714    5.7517    6.2827   16.4413   16.4795   15.4038   15.4334   14.5589   11.2973    5.3549 
3287.60    5.3792    5.1561    5.7678    5.9548    6.3415   15.8842   16.4795   15.4096   15.1186   14.5314   10.9027    5.3071 
3287.70    5.4147    5.3264    5.7682    6.1121    6.3446   15.9224   16.1696   15.4090   14.8759   14.5552   10.4850    5.3067 
3287.80    5.3462    5.2747    5.7759    6.1127    6.3478   16.2408   16.2649   15.3965   14.8750   14.5456   10.0104    5.2657 
3287.90    5.2788    5.1157    5.8048    6.1167    6.3636   16.2387   16.5569   15.3504   14.8690   14.5177    9.6994    5.1736 
3288.00    5.3018    5.1405    5.8260    6.1103    6.3728   16.2764   16.5093   15.3165   14.8786   14.4895    9.5947    4.8812 
3288.10    5.2983    5.1453    5.7992    6.1291    6.3704   16.1171   16.5001   15.3592   14.8509   14.5072    9.5442    4.7306 
3288.20    5.2611    5.1718    5.7914    6.1496    6.3631   16.2628   16.4501   15.3718   14.8208   14.5277    9.4750    4.7365 
