~Version information
VERS.                            2.00: CWLS LAS  -  VERSION 2.00
WRAP.                              NO: One line per depth step
~Well information
#MNEM.UNIT                  DATA TYPE  INFORMATION
#===.================================:==================
STRT.M                       1140.000: First depth in file
STOP.M                       3790.800: Last depth in file
STEP.M                          0.100: Depth increment
NULL.                       -9999.00 : Null values
DATE.                        : LOG DATE
TIME.                           17:38: LOG TIME
WELL.                             F2: Well name
GRP.                                 : Group name
FLD.                    F: Field name
ISS.                     окон.каротаж: Well surveys
SRVC.                                : Service Company
~Curve information
#MNEM.UNIT                   API CODE   CURVE DESCRIPTION
#===.================================:==================
DEPT.M                               : Depth curve
RO05.Ohmm                            : : Apparent resistivity
RO07.Ohmm                            : : Apparent resistivity
RO10.Ohmm                            : : Apparent resistivity
RO14.Ohmm                            : : Apparent resistivity
RO20.Ohmm                            : : Apparent resistivity
DF05.                                : 
DF07.                                : 
DF10.                                : 
DF14.                                : 
DF20.                                : 
ГК ок.                               : 
НКТ-Б ок.                            : 
#
~Other information
#------------------ REMARKS AREA -----------------------
#=======================================================
# The file is generated by the program GeoTech-EditLog v2000.12
#Number of Curves = 12
~A Log Data Section
# ...
2267.70    6.2760    5.2362    4.6233    4.0388    3.4456   14.6437   16.3354   17.5839   19.0315   20.7995    6.1258    4.0366 
2267.80    6.3090    4.8638    4.6051    3.8993    3.3965   14.5724   17.0731   17.6248   19.4303   21.0396    6.3570    3.9140 
2267.90    6.2840    4.6199    4.4228    3.7464    3.3459   14.5665   17.5901   18.0590   19.8818   21.2867    6.5183    3.8314 
2268.00    6.1515    4.5571    4.0774    3.7005    3.3168   14.7536   17.7316   18.9456   20.0226   21.3419    6.6982    3.7988 
2268.10    5.9755    4.3568    3.8527    3.6873    3.3091   15.1630   18.2194   19.5649   20.0641   21.3524    6.8759    3.9493 
2268.20    5.8419    4.0416    3.8009    3.6375    3.3122   15.3564   19.0326   19.7176   20.2225   21.3721    7.0376    4.0764 
2268.30    5.7672    3.8727    3.6728    3.5707    3.3197   15.3619   19.5026   20.1200   20.4398   21.3083    7.1520    4.1743 
2268.40    5.6908    3.8394    3.4368    3.5316    3.3281   15.5156   19.6000   20.9081   20.5696   21.2689    7.1655    4.1316 
2268.50    5.6036    3.8055    3.2827    3.5183    3.3281   15.7354   19.7016   21.4546   20.6140   21.2797    7.0756    4.1737 
2268.60    5.5571    3.8396    3.2517    3.4373    3.3055   15.7946   19.6012   21.5702   20.8956   21.3079    6.9895    4.2332 
2268.70    5.6552    4.0274    3.2366    3.2511    3.2630   15.7475   19.0716   21.6277   21.5789   21.5222    6.9515    4.2178 
2268.80    5.9752    4.1444    3.2425    3.1211    3.2142   15.2685   18.7470   21.6058   22.0777   21.7607    6.9658    4.2126 
2268.90    6.3622    4.2203    3.2731    3.0907    3.1659   14.3585   18.5513   21.4897   22.2006   21.8628    6.9926    4.1929 
2269.00    6.6272    4.3630    3.2938    3.0524    3.1043   14.0327   18.1934   21.4121   22.3595   22.0883    7.0334    4.1046 
2269.10    6.5974    4.3420    3.2813    2.9298    3.0241   14.1201   18.2458   21.4591   22.8937   22.5126    7.1164    4.0863 
2269.20    6.2806    4.2530    3.2016    2.7991    2.9569   14.4674   18.4655   21.7647   23.4850   22.8632    7.2773    4.0931 
2269.30    5.8268    4.2185    3.1250    2.7540    2.9152   15.4247   18.5539   22.0653   23.6995   22.9429    7.4398    4.0878 
2269.40    5.4200    4.1153    3.1052    2.7270    2.8634   16.2172   18.8272   22.1448   23.8317   23.0553    7.5675    4.0787 
2269.50    5.2042    3.9799    3.0976    2.6462    2.7830   16.4318   19.1969   22.1760   24.2425   23.5871    7.6187    4.0709 
2269.60    5.0759    3.9086    3.0964    2.5654    2.6991   16.5314   19.3977   22.1806   24.6648   24.0871    7.6165    4.0709 
2269.70    4.9260    3.8932    3.0968    2.5510    2.6449   16.9654   19.4422   22.1789   24.7417   24.2684    7.5471    4.0460 
2269.80    4.7802    3.8598    3.0912    2.5474    2.6047   17.3439   19.5401   22.2020   24.7612   24.3940    7.4030    4.0528 
2269.90    4.6964    3.7545    3.0831    2.5483    2.5582   17.4276   19.8587   22.2350   24.7563   24.7186    7.2392    4.1459 
2270.00    4.6695    3.6826    3.0902    2.6024    2.5195   17.4957   20.0788   22.2061   24.4687   25.0212    7.0740    4.2172 
2270.10    4.6933    3.6722    3.1593    2.6519    2.5050   17.5201   20.1114   21.9308   24.2087   25.0194    6.9376    4.2776 
2270.20    4.7722    3.6937    3.2580    2.6652    2.5179   17.2770   20.0445   21.5485   24.1409   24.9553    6.7714    4.3293 
2270.30    4.8886    3.9162    3.3082    2.7894    2.5518   16.9901   19.3958   21.3587   23.5466   24.8087    6.6459    4.3924 
2270.40    5.2121    4.1911    3.4297    3.0207    2.5947   16.7864   18.6291   20.9303   22.5065   24.4693    6.6458    4.4432 
2270.50    5.7950    4.2914    3.6766    3.1517    2.6314   15.5448   18.3686   20.1127   21.9552   24.2645    6.6689    4.4771 
2270.60    6.4575    4.4192    3.8201    3.1830    2.6555   14.1490   18.0600   19.6602   21.8316   24.2258    6.6903    4.4664 
2270.70    6.9316    4.7062    3.8368    3.1996    2.6705   13.7112   17.4090   19.6105   21.7670   24.0927    6.6611    4.3972 
2270.80    7.4310    5.0073    3.8689    3.2020    2.6825   13.5031   16.7752   19.5165   21.7576   24.0355    6.5843    4.2245 
2270.90    8.1123    5.1377    3.9593    3.1925    2.6824   12.5268   16.5147   19.2577   21.7946   24.0425    6.5085    4.2478 
2271.00    8.7829    5.2621    3.9829    3.1851    2.6719   11.6759   16.2834   19.1897   21.8232   24.0941    6.4738    4.2709 
2271.10    9.1312    5.3493    3.9609    3.1281    2.6478   11.5644   16.1211   19.2514   22.0518   24.1959    6.3894    4.2608 
2271.20    9.0801    5.2843    3.9091    2.9606    2.6122   11.5515   16.2398   19.4002   22.7615   24.4134    6.2542    4.2549 
2271.30    8.6462    5.2407    3.7069    2.8236    2.5768   11.8075   16.3201   20.0173   23.3687   24.6531    6.0743    4.2446 
2271.40    7.9245    5.1543    3.4909    2.7849    2.5489   12.7760   16.4848   20.7145   23.5506   24.7560    5.9359    4.2293 
2271.50    7.2120    4.6977    3.4182    2.7088    2.5279   13.6788   17.4589   20.9620   23.9269   24.8623    5.8613    4.2080 
2271.60    6.7093    4.1709    3.3570    2.5682    2.5104   14.0074   18.6936   21.1829   24.6573   24.9995    5.8878    4.1513 
2271.70    6.2073    3.9938    3.1063    2.4759    2.5021   14.5284   19.1560   22.1710   25.1593   25.0449    5.9969    4.0501 
2271.80    5.5781    3.8741    2.9150    2.4668    2.5150   15.9094   19.5036   22.9543   25.2106   25.0012    6.1820    4.0052 
2271.90    5.0349    3.6286    2.8979    2.4722    2.5857   17.0725   20.2628   23.0305   25.1799   24.7880    6.4833    3.9077 
2272.00    4.8634    3.6667    2.9422    2.6249    2.7205   17.3460   20.1439   22.8354   24.3790   23.9439    6.9312    3.7471 
2272.10    5.0397    3.8133    3.2056    2.8765    2.8675   16.8106   19.6774   21.7865   23.1382   22.9889    7.4348    3.5857 
2272.20    5.2902    3.8673    3.5346    2.9952    2.9920   16.0565   19.5193   20.5748   22.6005   22.6509    7.8998    3.4883 
2272.30    5.4188    4.0701    3.6646    3.1066    3.1379   15.8858   18.9581   20.1388   22.1443   22.2419    8.2461    3.4488 
2272.40    5.1454    3.9123    3.7013    3.2780    3.3178   16.0647   19.4277   20.0233   21.4736   21.2459    8.4868    3.4488 
2272.50    4.6882    3.6491    3.6550    3.3596    3.4704   17.8923   20.1851   20.1716   21.1677   20.5942    8.6056    3.4345 
2272.60    4.4961    3.6068    3.8037    3.3721    3.5464   18.8447   20.3217   19.7307   21.1227   20.5436    8.6744    3.4039 
2272.70    4.7300    4.1102    4.0068    3.3822    3.6193   17.2672   18.9609   19.1233   21.0868   20.4338    8.6898    3.3294 
2272.80    5.1575    4.8085    4.1768    3.7840    3.7511   16.2691   17.1959   18.6740   19.8503   19.9008    8.6751    3.3143 
2272.90    5.3780    5.0046    4.5480    4.2956    3.8988   16.0443   16.7748   17.7749   18.3694   19.3271    8.6954    3.3331 
2273.00    5.4340    4.9846    4.8717    4.4489    4.0017   15.9104   16.8149   17.0511   17.9841   19.0920    8.7450    3.2796 
2273.10    5.4437    5.0552    4.9847    4.4833    4.0812   15.9662   16.6761   16.8173   17.9031   18.9983    8.8524    3.2565 
2273.20    5.4192    5.1182    4.9998    4.6028    4.1850   15.9893   16.5520   16.7870   17.6306   18.6783    9.0350    3.2506 
2273.30    5.3560    5.1068    5.0415    4.7429    4.2970   16.0406   16.5742   16.7049   17.3193   18.2784    9.1893    3.2398 
2273.40    5.1845    5.1094    5.1144    4.8080    4.3783   16.3112   16.5691   16.5622   17.1788   18.1340    9.3056    3.2968 
2273.50    4.9548    5.0127    5.1233    4.8258    4.4245   16.9862   16.7616   16.5448   17.1411   18.0605    9.4134    3.3569 
2273.60    4.6760    4.6811    5.0937    4.8219    4.4854   17.3973   17.4702   16.6020   17.1494   17.9424    9.5488    3.2950 
2273.70    4.5632    4.4944    5.0405    4.8812    4.5639   18.1007   17.8769   16.7064   17.0270   17.7072    9.6505    3.3165 
2273.80    4.6054    4.6071    5.2230    4.9383    4.6388   17.7593   17.6212   16.3676   16.9085   17.5154    9.7021    3.3572 
2273.90    4.7211    4.9065    5.4044    4.9808    4.7247   17.1276   16.9860   16.0247   16.8228   17.4316    9.6787    3.3361 
