~Version information
VERS.                            2.00: CWLS LAS  -  VERSION 2.00
WRAP.                              NO: One line per depth step
~Well information
#MNEM.UNIT                  DATA TYPE  INFORMATION
#===.================================:==================
STRT.M                       1140.000: First depth in file
STOP.M                       3790.800: Last depth in file
STEP.M                          0.100: Depth increment
NULL.                       -9999.00 : Null values
DATE.                        : LOG DATE
TIME.                           17:38: LOG TIME
WELL.                             F2: Well name
GRP.                                 : Group name
FLD.                    F: Field name
ISS.                     окон.каротаж: Well surveys
SRVC.                                : Service Company
~Curve information
#MNEM.UNIT                   API CODE   CURVE DESCRIPTION
#===.================================:==================
DEPT.M                               : Depth curve
RO05.Ohmm                            : : Apparent resistivity
RO07.Ohmm                            : : Apparent resistivity
RO10.Ohmm                            : : Apparent resistivity
RO14.Ohmm                            : : Apparent resistivity
RO20.Ohmm                            : : Apparent resistivity
DF05.                                : 
DF07.                                : 
DF10.                                : 
DF14.                                : 
DF20.                                : 
ГК ок.                               : 
НКТ-Б ок.                            : 
#
~Other information
#------------------ REMARKS AREA -----------------------
#=======================================================
# The file is generated by the program GeoTech-EditLog v2000.12
#Number of Curves = 12
~A Log Data Section
# ...
2393.70    5.2138    3.0671    2.8679    3.5116    5.5407   16.4603   22.2976   23.1862   20.6379   15.6939    6.1911    3.9808 
2393.80    5.0588    3.1081    3.0567    3.5514    5.6868   16.8256   22.1313   22.3496   20.5033   15.5710    6.1856    3.8793 
2393.90    5.0063    3.2898    3.1118    3.7092    5.7348   16.7485   21.4403   22.1180   20.0081   15.3673    6.1513    3.7786 
2394.00    5.0309    3.4485    3.1801    3.8852    5.7106   16.7485   20.8535   21.8508   19.4663   15.4577    6.1474    3.7000 
2394.10    5.1233    3.4634    3.2413    3.8855    5.6254   16.6786   20.8016   21.6099   19.4654   15.6922    6.2315    3.6814 
2394.20    5.2905    3.4597    3.1525    3.8470    5.4869   16.2321   20.8144   21.9601   19.5774   15.7881    6.3192    3.7474 
2394.30    5.4664    3.3981    3.0817    3.7456    5.3063   15.8208   21.0323   22.2407   19.8869   16.1774    6.3833    3.7365 
2394.40    5.5532    3.2802    2.9991    3.5062    5.1146   15.7172   21.4624   22.5931   20.6702   16.6789    6.4280    3.7323 
2394.50    5.5214    3.2224    2.7560    3.3563    4.9955   15.7602   21.6788   23.7255   21.1800   16.8593    6.5020    3.7549 
2394.60    5.4452    3.1555    2.5639    3.3484    4.9966   15.9891   21.9432   24.6783   21.2082   16.8522    6.6041    3.8389 
2394.70    5.3741    3.1138    2.5239    3.3737    5.2640   16.1161   22.1070   24.8936   21.1175   16.6727    6.6503    3.7343 
2394.80    5.3899    3.1780    2.5175    3.5858    5.8282   16.1346   21.8536   24.9290   20.4128   15.4858    6.5370    3.6259 
2394.90    5.4141    3.2302    2.5270    3.8680    6.4756   15.9089   21.6487   24.8766   19.5224   14.1386    6.4523    3.5459 
2395.00    5.3758    3.2460    2.5502    3.9717    7.1001   15.9922   21.5886   24.7497   19.2179   13.6873    6.4088    3.5862 
2395.10    5.2824    3.2198    2.5637    4.1109    7.9734   16.3463   21.6898   24.6766   18.8439   13.0049    6.3832    3.5833 
2395.20    5.2400    3.2386    2.5891    4.4480    9.2227   16.4121   21.6191   24.5412   18.0042   11.5570    6.3313    3.5840 
2395.30    5.2441    3.2852    2.7464    4.7124   10.4281   16.2178   21.4410   23.7627   17.3861   10.4506    6.2456    3.6487 
2395.40    5.1933    3.3184    2.9191    4.7690   11.2675   16.3257   21.3184   22.9387   17.2617   10.1413    6.1081    3.7980 
2395.50    5.0840    3.2850    2.9701    4.8304   12.2837   16.7086   21.4441   22.7117   17.1328    9.8383    5.9336    4.0013 
2395.60    4.8926    3.1675    2.9989    5.0765   14.0892   16.8449   21.8960   22.5882   16.6417    8.9132    5.7226    4.2687 
2395.70    4.5754    3.1138    3.2354    5.5144   16.1348   17.5113   22.1068   21.6691   15.8466    7.8379    5.4389    4.5039 
2395.80    4.1927    3.1039    3.7417    5.7694   18.3698   18.9444   22.1470   19.9548   15.4048    7.4196    5.2075    4.8687 
2395.90    3.9142    3.4300    4.0270    6.3324   24.7298   19.6478   20.9926   19.0667   14.6022    6.8168    5.0306    5.3501 
2396.00    3.9757    4.1975    4.3250    9.2581   37.0270   19.6312   18.7000   18.3181   11.8540    4.8838    4.8567    5.9848 
2396.10    5.0173    4.6103    6.6644   12.7264   50.9224   18.4911   17.6105   14.7184    9.4003    3.3000    4.7473    7.1261 
2396.20    6.9902    4.9957    9.6415   14.0146   60.6048   14.4325   16.8319   11.2780    8.7723    2.9542    4.6781    8.1251 
2396.30    9.2206    7.7596   10.6971   15.2561   62.3690   11.1554   13.4138   10.4780    8.3075    2.8563    4.6783    8.8672 
2396.40   12.4134   12.8403   11.1610   17.8142   58.3068   10.3252    9.5352   10.2001    7.4833    3.0535    4.7379    9.5063 
2396.50   16.7220   15.5225   13.5620   19.4418   51.9818    8.2316    8.1897    9.0579    7.0185    3.5233    4.7628    9.8206 
2396.60   20.1394   18.7468   16.2697   19.6579   46.4894    6.3194    7.2938    7.9468    6.9642    3.7412    4.9081    9.8392 
2396.70   20.8623   19.4546   17.1289   19.9894   43.0918    6.6638    7.0460    7.6599    6.8846    3.8956    5.2310    9.5630 
2396.80   18.6316   16.8406   17.3295   22.6834   40.3982    7.2050    7.7588    7.5995    6.3336    4.1853    5.5378    7.7299 
2396.90   14.8540   16.0537   20.8532   26.8723   38.5210    8.1332    8.0049    6.7697    5.5968    4.3336    5.6029    6.8268 
2397.00   10.4667   15.9133   20.4447   28.6248   37.7467   11.7784    8.0531    6.8593    5.3289    4.3221    5.8338    6.5817 
2397.10    6.6974   10.5101   16.8148   28.0997   35.3759   15.9302   11.8188    7.7659    5.4018    4.3742    6.0906    5.6400 
2397.20    4.9287    5.8021   14.4631   21.9118   30.8707   17.4448   15.3620    8.6377    6.6689    5.1521    6.3069    5.1395 
2397.30    4.7444    5.6671   10.5833   16.9220   26.1716   17.8174   15.5731   10.7895    7.7227    5.9771    6.4297    4.7294 
2397.40    5.0630    5.7379   11.1715   16.9591   23.6960   16.8433   15.4558   10.4551    7.7112    6.1771    6.4506    4.5293 
2397.50    5.4657    6.6973   13.4947   18.3082   24.1263   15.6142   14.1842    8.9971    7.3328    6.1787    6.4161    4.6614 
2397.60    5.6984    7.8569   13.5199   24.0290   25.8559   15.4703   12.7553    8.9859    6.1589    5.7769    6.3183    4.6614 
2397.70    5.5334    8.1131   13.7116   26.8059   27.7715   15.4863   12.4922    8.9031    5.5934    5.3487    6.1966    4.7870 
2397.80    5.1300    8.0530   14.8175   25.7947   29.0378   16.5682   12.5505    8.4677    5.7459    5.2711    6.1028    4.9691 
2397.90    4.6844    7.5302   15.4776   25.7130   30.1241   17.8224   13.1099    8.2071    5.7591    5.2085    6.0020    5.1339 
2398.00    4.3964    6.3762   15.2811   26.0216   30.2397   18.1511   14.5708    8.2781    5.7103    4.9458    5.9514    5.1339 
2398.10    4.2418    5.5746   13.8361   22.6392   29.0161   18.3856   15.7333    8.8868    6.3859    5.2722    5.9397    5.1231 
2398.20    4.0766    5.3806   10.5508   18.1738   26.9783   18.9904   16.0650   10.7468    7.3710    5.7327    5.9275    5.1046 
2398.30    3.9316    4.7166    8.3638   16.9093   24.3792   19.4712   17.4878   12.2674    7.7267    5.7704    5.8728    5.0810 
2398.40    3.8550    3.7589    7.9533   14.5381   20.6352   19.5641   19.9341   12.6510    8.6517    6.6213    5.7588    5.0550 
2398.50    3.8134    3.3501    6.7404   10.7844   15.7483   19.6374   21.2037   14.1728   10.5448    8.7548    5.6778    5.0489 
2398.60    3.7361    3.3000    4.9662    8.9846   12.0170   19.8437   21.3859   17.0195   11.7183   10.2989    5.6922    5.0785 
2398.70    3.6373    3.0884    4.1817    8.6093   10.2778   20.2827   22.2422   18.6556   12.0359   10.6508    5.7424    5.0873 
2398.80    3.5365    2.7727    4.0820    7.2829    9.1497   20.5743   23.6300   18.9167   13.4990   11.4342    5.7212    5.0646 
2398.90    3.3982    2.6303    3.6783    5.4456    7.8757   20.8262   24.3210   20.1796   16.0902   13.0661    5.7214    5.1261 
2399.00    3.2436    2.6098    3.0141    4.6454    6.8529   21.7779   24.4274   22.6175   17.5345   14.2051    5.7513    5.1390 
2399.10    3.1209    2.6172    2.7002    4.4983    6.0876   22.2980   24.3887   23.9691   17.8691   14.5591    5.8243    5.0541 
2399.20    3.0851    2.7432    2.6536    3.8559    5.2333   22.2060   23.7692   24.2035   19.7117   16.3369    5.8597    4.9370 
2399.30    3.1150    2.8632    2.5737    3.0656    4.3028   22.1774   23.1853   24.6278   22.3736   19.1618    5.8446    4.9370 
2399.40    3.1787    2.8903    2.5145    2.7724    3.6818   21.9378   23.0616   24.9458   23.6128   20.5245    5.8563    4.8533 
2399.50    3.2661    2.9523    2.5206    2.7139    3.3797   21.4619   22.7887   24.9118   23.8963   20.8007    5.8671    4.7761 
2399.60    3.3767    3.0291    2.5208    2.5026    3.0801   21.1726   22.4573   24.9106   25.0608   22.1314    5.8504    4.7397 
2399.70    3.6571    3.0647    2.5575    2.2527    2.7341   20.7270   22.3079   24.7127   26.5306   24.2836    5.8369    4.7678 
2399.80    4.1634    3.0828    2.6466    2.1795    2.4862   18.9249   22.2332   24.2433   27.0089   25.4554    5.8278    4.8710 
2399.90    4.7193    3.2148    2.7065    2.1758    2.3785   17.0645   21.7195   23.9365   27.0340   25.6954    5.8286    4.8745 
