~Version information
VERS.                            2.00: CWLS LAS  -  VERSION 2.00
WRAP.                              NO: One line per depth step
~Well information
#MNEM.UNIT                  DATA TYPE  INFORMATION
#===.================================:==================
STRT.M                       1140.000: First depth in file
STOP.M                       3790.800: Last depth in file
STEP.M                          0.100: Depth increment
NULL.                       -9999.00 : Null values
DATE.                        : LOG DATE
TIME.                           17:38: LOG TIME
WELL.                             F2: Well name
GRP.                                 : Group name
FLD.                    F: Field name
ISS.                     окон.каротаж: Well surveys
SRVC.                                : Service Company
~Curve information
#MNEM.UNIT                   API CODE   CURVE DESCRIPTION
#===.================================:==================
DEPT.M                               : Depth curve
RO05.Ohmm                            : : Apparent resistivity
RO07.Ohmm                            : : Apparent resistivity
RO10.Ohmm                            : : Apparent resistivity
RO14.Ohmm                            : : Apparent resistivity
RO20.Ohmm                            : : Apparent resistivity
DF05.                                : 
DF07.                                : 
DF10.                                : 
DF14.                                : 
DF20.                                : 
ГК ок.                               : 
НКТ-Б ок.                            : 
#
~Other information
#------------------ REMARKS AREA -----------------------
#=======================================================
# The file is generated by the program GeoTech-EditLog v2000.12
#Number of Curves = 12
~A Log Data Section
# ...
2519.70    4.9291    4.3913    5.0502    4.8815    4.7663   16.5764   18.2396   16.6875   17.0252   17.3056    6.5345    4.6130 
2519.80    5.4705    5.4540    5.1013    5.0975    4.7765   15.6445   16.0078   16.5874   16.6024   17.2373    6.4847    4.5290 
2519.90    5.6889    5.9350    5.3544    5.2350    4.7907   15.6182   15.1435   16.1262   16.3310   17.2028    6.4847    4.2761 
2520.00    5.4339    5.9296    5.1804    5.1792    4.7822   15.3601   15.1518   16.4682   16.4358   17.2143    6.5931    4.0632 
2520.10    4.8139    5.8267    4.7989    5.1427    4.6838   17.3964   15.3151   17.2017   16.5050   17.2921    6.7607    3.8733 
2520.20    4.0986    4.7244    4.7529    4.7106    4.4765   19.7834   17.6517   17.2989   17.4383   17.8738    6.9473    3.6431 
2520.30    3.6983    3.5515    4.5833    4.0781    4.2334   20.1743   20.5581   17.6832   18.9536   18.6910    7.1144    3.3993 
2520.40    3.6254    3.2594    4.0096    3.8497    4.0699   20.1567   21.5384   19.1939   19.5695   19.0640    7.2045    3.1159 
2520.50    3.4753    3.2280    3.5875    3.8459    3.9820   20.4713   21.6573   20.3894   19.5807   19.1104    7.3047    2.8546 
2520.60    3.1997    3.2121    3.5389    3.7883    3.8955   21.8168   21.7187   20.5481   19.7542   19.4112    7.5122    2.6402 
2520.70    2.8956    3.2267    3.5451    3.6937    3.7982   23.3436   21.6628   20.5273   20.0448   19.8156    7.6659    2.5402 
2520.80    2.6842    3.0523    3.5444    3.5553    3.7341   24.2260   22.3892   20.5298   20.4952   19.9681    7.7548    2.4231 
2520.90    2.5265    2.7808    3.4366    3.4702    3.7094   24.6455   23.5827   20.9046   20.7779   19.9811    7.7618    2.2800 
2521.00    2.3497    2.6890    3.2040    3.4606    3.6745   25.9121   24.0204   21.7690   20.8112   20.0451    7.7865    1.9735 
2521.10    2.1587    2.6736    3.0692    3.4567    3.6239   27.4368   24.0981   22.2924   20.8246   20.3023    7.8491    1.7717 
2521.20    2.0202    2.5939    3.0628    3.4322    3.5776   28.3559   24.5159   22.3188   20.9100   20.4672    7.9420    1.7717 
2521.30    1.9582    2.4309    3.0489    3.3871    3.5566   28.7830   25.4336   22.3769   21.0691   20.4937    7.9599    1.7478 
2521.40    1.9190    2.3057    2.9599    3.3586    3.5548   28.8453   26.1800   22.7614   21.1713   20.5066    7.9193    1.7174 
2521.50    1.8359    2.2738    2.8290    3.3554    3.5521   29.3194   26.3814   23.3509   21.1828   20.4852    7.9802    1.7431 
2521.60    1.7348    2.2352    2.7544    3.3345    3.5464   31.1051   26.6362   23.7015   21.2594   20.5209    8.0608    1.7606 
2521.70    1.6685    2.1355    2.7371    3.2991    3.5381   31.6742   27.3238   23.7854   21.3894   20.5628    8.1205    1.7698 
2521.80    1.6718    2.1563    2.7349    3.2662    3.5338   31.1639   27.1833   23.7960   21.5123   20.5687    8.1397    1.8433 
2521.90    1.7424    2.2382    2.7568    3.2288    3.5314   30.9338   26.6143   23.6898   21.6545   20.5640    8.1238    1.9285 
2522.00    1.8173    2.2549    2.6971    3.2190    3.5150   29.6567   26.5041   23.9902   21.6919   20.5866    8.0877    2.0053 
2522.10    1.8799    2.2326    2.6078    3.1990    3.4759   29.1055   26.6519   24.4421   21.7698   20.7366    8.0772    2.0864 
2522.20    1.9017    2.1338    2.5828    3.0932    3.4270   29.2164   27.3389   24.5737   22.1956   20.9670    8.0549    2.1645 
2522.30    1.9006    2.0475    2.5456    3.0080    3.3910   29.0501   27.9585   24.7756   22.5454   21.0957    7.9854    2.2524 
2522.40    1.8894    2.0307    2.4913    3.0008    3.3802   29.1296   28.0851   25.0765   22.5761   21.1134    7.9091    2.3083 
2522.50    1.8480    2.0329    2.4559    2.9965    3.3866   29.5078   28.0680   25.2773   22.5947   21.0823    7.8243    2.3395 
2522.60    1.7951    2.0525    2.4318    2.9748    3.3917   30.1427   27.9206   25.4171   22.6884   21.0272    7.7404    2.3912 
2522.70    1.7545    2.0233    2.4202    2.9067    3.3890   30.5516   28.1451   25.4845   22.9900   21.0586    7.6830    2.4173 
2522.80    1.7312    1.9730    2.3966    2.8367    3.3763   30.6224   28.5349   25.6244   23.3074   21.1113    7.6277    2.4173 
2522.90    1.7183    1.9582    2.3621    2.8119    3.3619   30.7998   28.6524   25.8325   23.4229   21.1630    7.5363    2.4026 
2523.00    1.7104    1.9552    2.3252    2.8152    3.3519   30.9300   28.6772   26.0608   23.4072   21.2143    7.4349    2.3807 
2523.10    1.7119    1.9248    2.2955    2.8141    3.3546   30.8523   28.9274   26.2469   23.4124   21.2198    7.3569    2.3497 
2523.20    1.7204    1.8799    2.2899    2.8244    3.3737   30.7548   29.3026   26.2826   23.3648   21.1340    7.3460    2.4241 
2523.30    1.7120    1.8474    2.2877    2.8887    3.3972   30.6813   29.5843   26.2963   23.0717   21.0084    7.3013    2.5011 
2523.40    1.6777    1.8327    2.3125    2.9336    3.4260   31.1066   29.7129   26.1407   22.8681   20.9685    7.2002    2.5428 
2523.50    1.6554    1.8134    2.3666    2.9496    3.5011   31.8097   29.8866   25.8063   22.7980   20.8292    7.0605    2.7470 
2523.60    1.6665    1.8806    2.3934    3.0889    3.6538   31.3647   29.3158   25.6435   22.2218   20.2582    6.9562    3.0482 
2523.70    1.7225    2.2184    2.4777    3.4659    3.8296   30.7714   26.8891   25.1637   20.8413   19.5098    6.8725    3.4860 
2523.80    1.8996    2.5074    2.9191    3.7923    3.9636   30.1530   24.9873   23.0743   19.7460   19.1843    6.7159    3.9012 
2523.90    2.3775    2.5829    3.6328    3.8719    4.1183   27.1773   24.5705   20.3322   19.5042   19.0547    6.5429    4.3017 
2524.00    3.1113    2.9318    4.0679    4.0494    4.3814   22.3126   22.9813   18.9586   19.0165   18.2794    6.3864    4.5983 
2524.10    3.7863    3.8121    4.1614    4.5367    4.7015   19.2125   19.8660   18.7051   17.8148   17.2662    6.2774    4.8902 
2524.20    4.3211    4.8854    4.3868    4.9830    4.9297   18.5648   17.1075   18.1534   16.8257   16.8052    6.2261    5.1420 
2524.30    4.9337    5.3909    4.9053    5.1219    5.0247   17.3627   16.0467   17.0103   16.5450   16.7375    6.2100    5.2154 
2524.40    5.2107    5.4518    5.0344    5.1211    5.0370   15.3911   15.9389   16.7243   16.5466   16.6718    6.1117    5.2772 
2524.50    4.8790    5.3087    4.8712    5.0983    4.9922   17.1014   16.2016   17.0491   16.5907   16.7315    6.0000    5.3299 
2524.60    4.1400    4.5518    4.8065    4.7987    4.9072   19.8362   17.8600   17.1849   17.2204   17.0116    5.9205    5.3144 
2524.70    3.7955    4.4431    4.5182    4.5990    4.8346   20.3250   18.0569   17.8435   17.6368   17.1911    5.7839    5.2991 
2524.80    4.0771    4.8030    4.7133    4.6637    4.8061   19.1822   17.1895   17.4371   17.4917   17.1766    5.6372    5.2836 
2524.90    4.6480    4.8880    5.0022    4.6812    4.8221   17.6322   17.0128   16.7831   17.4526   17.1883    5.5279    5.5231 
2525.00    5.3388    4.7865    4.9343    4.8042    4.8600   16.2243   17.2318   16.9190   17.1916   17.0908    5.4345    5.7281 
2525.10    5.9231    5.0368    4.9138    5.0484    4.9054   14.9407   16.7490   16.9610   16.6925   16.9403    5.3590    5.8935 
2525.20    6.2972    5.2428    5.0832    5.2255    4.9340   14.5185   16.3190   16.6308   16.3497   16.9061    5.3144    5.8535 
2525.30    6.2558    5.1242    5.1434    5.2760    4.9447   14.4030   16.5405   16.5076   16.2546   16.9128    5.2867    5.8309 
2525.40    5.9084    5.0849    5.0256    5.2855    4.9349   15.1603   16.6169   16.7362   16.2372   16.8751    5.2765    5.8620 
2525.50    5.4734    4.8614    4.9775    5.2216    4.9010   16.1856   17.0774   16.8317   16.3570   16.9674    5.2754    5.7869 
2525.60    5.1842    4.4436    4.9556    5.1025    4.8568   16.5051   18.0175   16.8759   16.5831   17.1228    5.2817    5.6837 
2525.70    5.0283    4.1167    4.8642    5.0269    4.8265   16.6080   18.8255   17.0646   16.7307   17.1488    5.2713    5.5608 
2525.80    4.8439    4.0131    4.6797    5.0042    4.8058   17.1066   19.1023   17.4620   16.7757   17.1557    5.2159    5.2741 
2525.90    4.6400    3.9984    4.5950    5.0020    4.7736   17.6562   19.1433   17.6478   16.7801   17.2542    5.2060    5.0315 
