~Version information
VERS.                            2.00: CWLS LAS  -  VERSION 2.00
WRAP.                              NO: One line per depth step
~Well information
#MNEM.UNIT                  DATA TYPE  INFORMATION
#===.================================:==================
STRT.M                       1140.000: First depth in file
STOP.M                       3790.800: Last depth in file
STEP.M                          0.100: Depth increment
NULL.                       -9999.00 : Null values
DATE.                        : LOG DATE
TIME.                           17:38: LOG TIME
WELL.                             F2: Well name
GRP.                                 : Group name
FLD.                    F: Field name
ISS.                     окон.каротаж: Well surveys
SRVC.                                : Service Company
~Curve information
#MNEM.UNIT                   API CODE   CURVE DESCRIPTION
#===.================================:==================
DEPT.M                               : Depth curve
RO05.Ohmm                            : : Apparent resistivity
RO07.Ohmm                            : : Apparent resistivity
RO10.Ohmm                            : : Apparent resistivity
RO14.Ohmm                            : : Apparent resistivity
RO20.Ohmm                            : : Apparent resistivity
DF05.                                : 
DF07.                                : 
DF10.                                : 
DF14.                                : 
DF20.                                : 
ГК ок.                               : 
НКТ-Б ок.                            : 
#
~Other information
#------------------ REMARKS AREA -----------------------
#=======================================================
# The file is generated by the program GeoTech-EditLog v2000.12
#Number of Curves = 12
~A Log Data Section
# ...
1889.70  -9999.00  -9999.00  -9999.00  -9999.00  -9999.00  -9999.00  -9999.00  -9999.00  -9999.00  -9999.00    9.3415    2.6115 
1889.80  -9999.00  -9999.00  -9999.00  -9999.00  -9999.00  -9999.00  -9999.00  -9999.00  -9999.00  -9999.00    9.4215    2.5819 
1889.90  -9999.00  -9999.00  -9999.00  -9999.00  -9999.00  -9999.00  -9999.00  -9999.00  -9999.00  -9999.00    9.4652    2.5722 
1890.00  -9999.00  -9999.00  -9999.00  -9999.00  -9999.00  -9999.00  -9999.00  -9999.00  -9999.00  -9999.00    9.4214    2.5821 
1890.10  -9999.00  -9999.00  -9999.00  -9999.00  -9999.00  -9999.00  -9999.00  -9999.00  -9999.00  -9999.00    9.3988    2.6260 
1890.20  -9999.00  -9999.00  -9999.00  -9999.00  -9999.00  -9999.00  -9999.00  -9999.00  -9999.00  -9999.00    9.3928    2.6617 
1890.30  -9999.00  -9999.00  -9999.00  -9999.00  -9999.00  -9999.00  -9999.00  -9999.00  -9999.00  -9999.00    9.4020    2.6814 
1890.40  -9999.00  -9999.00  -9999.00  -9999.00  -9999.00  -9999.00  -9999.00  -9999.00  -9999.00  -9999.00    9.4351    2.6731 
1890.50  -9999.00  -9999.00  -9999.00  -9999.00  -9999.00  -9999.00  -9999.00  -9999.00  -9999.00  -9999.00    9.4459    2.6614 
1890.60  -9999.00  -9999.00  -9999.00  -9999.00  -9999.00  -9999.00  -9999.00  -9999.00  -9999.00  -9999.00    9.3761    2.6614 
1890.70  -9999.00  -9999.00  -9999.00  -9999.00  -9999.00  -9999.00  -9999.00  -9999.00  -9999.00  -9999.00    9.3932    2.6580 
1890.80  -9999.00  -9999.00  -9999.00  -9999.00  -9999.00  -9999.00  -9999.00  -9999.00  -9999.00  -9999.00    9.4891    2.6575 
1890.90  -9999.00  -9999.00  -9999.00  -9999.00  -9999.00  -9999.00  -9999.00  -9999.00  -9999.00  -9999.00    9.5113    2.6874 
1891.00  -9999.00  -9999.00  -9999.00  -9999.00  -9999.00  -9999.00  -9999.00  -9999.00  -9999.00  -9999.00    9.4920    2.7093 
1891.10  -9999.00  -9999.00  -9999.00  -9999.00  -9999.00  -9999.00  -9999.00  -9999.00  -9999.00  -9999.00    9.4404    2.7239 
1891.20  -9999.00  -9999.00  -9999.00  -9999.00  -9999.00  -9999.00  -9999.00  -9999.00  -9999.00  -9999.00    9.4061    2.7094 
1891.30  -9999.00  -9999.00  -9999.00  -9999.00  -9999.00  -9999.00  -9999.00  -9999.00  -9999.00  -9999.00    9.4508    2.6608 
1891.40  -9999.00  -9999.00  -9999.00  -9999.00  -9999.00  -9999.00  -9999.00  -9999.00  -9999.00  -9999.00    9.6029    2.5720 
1891.50  -9999.00  -9999.00  -9999.00  -9999.00  -9999.00  -9999.00  -9999.00  -9999.00  -9999.00  -9999.00    9.6605    2.5591 
1891.60  -9999.00  -9999.00  -9999.00  -9999.00  -9999.00  -9999.00  -9999.00  -9999.00  -9999.00  -9999.00    9.6562    2.5332 
1891.70  -9999.00  -9999.00  -9999.00  -9999.00  -9999.00  -9999.00  -9999.00  -9999.00  -9999.00  -9999.00    9.6728    2.4409 
1891.80  -9999.00  -9999.00  -9999.00  -9999.00  -9999.00  -9999.00  -9999.00  -9999.00  -9999.00  -9999.00    9.7202    2.4102 
1891.90    2.2112    2.4705    3.2069    3.6869    3.7971   27.2051   25.1904   21.7574   20.0722   19.8467    9.7848    2.3885 
1892.00    2.4504    2.8174    3.3807    3.7921    3.9212   25.4408   23.5135   21.0976   19.7414   19.2347    9.8064    2.3155 
1892.10    2.9340    3.3304    3.4820    3.9051    4.0539   23.7806   21.3146   20.7427   19.4131   19.0524    9.7905    2.2774 
1892.20    3.3795    3.5777    3.7108    4.0695    4.1572   20.5292   20.4175   20.0110   18.9501   18.7087    9.7546    2.2671 
1892.30    3.5795    3.5406    3.7482    4.1283    4.2437   19.9042   20.5426   19.8848   18.7899   18.4069    9.7733    2.2366 
1892.40    3.2960    3.0104    3.6078    4.0620    4.2636   21.1954   22.7251   20.3217   18.9692   18.3707    9.8203    2.2472 
1892.50    2.8470    2.5819    3.3066    3.8004    4.1962   23.9235   24.5759   21.4125   19.7367   18.5495    9.8684    2.3085 
1892.60    2.5749    2.5414    3.1667    3.5950    4.0974   25.5080   24.7940   21.9053   20.3600   18.9379    9.8676    2.2966 
1892.70    2.5711    2.8650    3.2859    3.5834    4.0230   24.8249   23.2918   21.4430   20.3978   19.1553    9.8235    2.3157 
1892.80    2.8440    3.3079    3.4578    3.7480    4.0194   23.7201   21.3741   20.8350   19.8878   19.1462    9.7539    2.4190 
1892.90    3.1601    3.5057    3.8868    4.0499    4.0676   21.7060   20.6594   19.5128   19.0141   18.9651    9.7083    2.4372 
1893.00    3.3776    3.7518    4.2057    4.1982    4.1265   20.7300   19.8840   18.5909   18.6063   18.7630    9.6729    2.4458 
1893.10    3.4007    3.6601    4.2439    4.2424    4.1765   20.9888   20.1847   18.4914   18.4933   18.6694    9.6267    2.5041 
1893.20    3.3455    3.4340    4.0829    4.1977    4.2020   21.3698   20.9034   18.9246   18.6102   18.5665    9.5567    2.5276 
1893.30    3.3340    3.4034    3.9310    4.1145    4.2097   21.3193   21.0116   19.3364   18.8266   18.5625    9.5084    2.5302 
1893.40    3.3398    3.3903    3.9111    4.1032    4.1993   21.1097   21.0578   19.3935   18.8567   18.6096    9.5059    2.5598 
1893.50    3.2926    3.3934    3.8730    4.0949    4.1699   21.3051   21.0466   19.5043   18.8789   18.6466    9.5248    2.5067 
1893.60    3.2022    3.3482    3.7635    4.0613    4.1366   21.8616   21.2100   19.8340   18.9701   18.7936    9.5778    2.3743 
1893.70    3.1766    3.3938    3.7044    4.0354    4.1061   22.1444   21.0499   20.0133   19.0409   18.8736    9.6413    2.3701 
1893.80    3.1790    3.5012    3.7540    4.0229    4.0974   21.6017   20.6730   19.8609   19.0753   18.8895    9.6483    2.3234 
1893.90    3.1169    3.5247    3.7633    3.9866    4.1035   21.8505   20.5925   19.8319   19.1765   18.8630    9.6489    2.1890 
1894.00    2.9726    3.3274    3.6604    3.9615    4.1123   22.9472   21.3085   20.1548   19.2466   18.8240    9.6309    2.1235 
1894.10    2.9032    3.1985    3.5815    3.9293    4.1235   23.4170   21.7721   20.4070   19.3387   18.8187    9.5769    2.0779 
1894.20    2.9332    3.2293    3.5870    3.9075    4.1370   22.7114   21.6522   20.3890   19.4009   18.7734    9.6002    2.0422 
1894.30    2.9610    3.2432    3.5839    3.9387    4.1539   22.5536   21.5992   20.3993   19.3117   18.7165    9.6918    2.0812 
1894.40    2.8667    3.0936    3.5700    3.9469    4.1687   23.0351   22.2092   20.4447   19.2881   18.6848    9.7488    2.1515 
1894.50    2.7450    2.9343    3.4900    3.8778    4.1803   24.0393   22.8652   20.7163   19.4881   18.6565    9.7897    2.2320 
1894.60    2.6954    2.9169    3.4325    3.8209    4.1929   24.2670   22.9420   20.9120   19.6549   18.6255    9.8557    2.2492 
1894.70    2.7109    2.9736    3.4663    3.8138    4.2070   23.7316   22.6957   20.7950   19.6759   18.5865    9.9962    2.2632 
1894.80    2.7249    3.0032    3.5027    3.8624    4.2458   23.7693   22.5664   20.6702   19.5333   18.5468   10.0913    2.3906 
1894.90    2.6931    2.9868    3.5306    3.9403    4.3155   24.0399   22.6362   20.5761   19.3077   18.3320   10.1334    2.4924 
1895.00    2.6546    3.0482    3.5767    3.9786    4.3910   24.2073   22.3801   20.4235   19.1986   18.0660   10.1146    2.5591 
1895.10    2.6498    3.1038    3.6094    4.0035    4.4473   24.3534   22.1474   20.3159   19.1291   17.9872   10.0278    2.5591 
1895.20    2.7032    3.1125    3.6565    4.1061    4.4885   24.1173   22.1119   20.1654   18.8519   17.9205    9.9148    2.5745 
1895.30    2.7904    3.1862    3.8150    4.2232    4.5323   23.4267   21.8225   19.6829   18.5426   17.7744    9.8159    2.6254 
1895.40    2.8951    3.3426    3.9294    4.2616    4.5773   23.0846   21.2366   19.3411   18.4437   17.6816    9.6491    2.7603 
1895.50    3.0196    3.4461    3.9761    4.3321    4.6211   22.6524   20.8615   19.2093   18.2695   17.6099    9.4896    2.7874 
1895.60    3.1641    3.4874    4.0947    4.4703    4.6817   21.8323   20.7193   18.8858   17.9357   17.4778    9.3761    2.8159 
1895.70    3.3042    3.5859    4.1861    4.5368    4.7526   21.3167   20.3928   18.6407   17.7782   17.2803    9.1835    2.9056 
1895.80    3.6052    3.8554    4.2239    4.5952    4.8201   21.0051   19.5729   18.5430   17.6458   17.1465    8.9596    3.0406 
1895.90    4.0754    4.0650    4.4933    4.7530    4.8772   19.0717   18.9605   17.9036   17.2998   17.0440    8.7794    3.1339 
