~Version information
VERS.                            2.00: CWLS LAS  -  VERSION 2.00
WRAP.                              NO: One line per depth step
~Well information
#MNEM.UNIT                  DATA TYPE  INFORMATION
#===.================================:==================
STRT.M                       1140.000: First depth in file
STOP.M                       3790.800: Last depth in file
STEP.M                          0.100: Depth increment
NULL.                       -9999.00 : Null values
DATE.                        : LOG DATE
TIME.                           17:38: LOG TIME
WELL.                             F2: Well name
GRP.                                 : Group name
FLD.                    F: Field name
ISS.                     окон.каротаж: Well surveys
SRVC.                                : Service Company
~Curve information
#MNEM.UNIT                   API CODE   CURVE DESCRIPTION
#===.================================:==================
DEPT.M                               : Depth curve
RO05.Ohmm                            : : Apparent resistivity
RO07.Ohmm                            : : Apparent resistivity
RO10.Ohmm                            : : Apparent resistivity
RO14.Ohmm                            : : Apparent resistivity
RO20.Ohmm                            : : Apparent resistivity
DF05.                                : 
DF07.                                : 
DF10.                                : 
DF14.                                : 
DF20.                                : 
ГК ок.                               : 
НКТ-Б ок.                            : 
#
~Other information
#------------------ REMARKS AREA -----------------------
#=======================================================
# The file is generated by the program GeoTech-EditLog v2000.12
#Number of Curves = 12
~A Log Data Section
# ...
3156.00    4.4536    4.4713    3.9649    4.0096    3.7359   18.0559   17.9357   19.2399   19.1121   19.9177    8.8307    4.3948 
3156.10    4.4040    4.5909    4.1344    4.0262    3.7680   18.1122   17.6546   18.7880   19.0661   19.9091    8.9876    4.4567 
3156.20    4.3926    4.6328    4.5412    4.0272    3.8662   18.1149   17.5604   17.7947   19.0633   19.6333    9.0841    4.4200 
3156.30    4.4150    4.6538    4.7881    4.0363    4.0008   18.1387   17.5131   17.2239   19.0385   19.0649    9.1210    4.4217 
3156.40    4.2984    4.6503    4.8021    4.2886    4.1066   17.9546   17.5210   17.1938   18.3970   18.7584    9.2484    4.5453 
3156.50    4.1125    4.7826    4.8044    4.4324    4.1483   19.1172   17.2379   17.1890   18.0246   18.7394    9.4215    4.6690 
3156.60    3.9568    4.5461    4.8177    4.3880    4.1520   19.6580   17.7961   17.1608   18.1304   18.7207    9.5183    4.7236 
3156.70    3.9926    4.4011    4.5959    4.4104    4.1742   19.1499   18.1078   17.6607   18.0765   18.7292    9.5368    4.8890 
3156.80    4.1202    4.5428    4.6405    4.4172    4.2678   18.7357   17.7644   17.5640   18.0599   18.5674    9.5756    4.9830 
3156.90    4.1576    4.5452    4.8511    4.4141    4.4010   18.5820   17.7589   17.0907   18.0673   18.0264    9.6523    5.1017 
3157.00    4.1312    4.5126    4.8555    4.6542    4.5150   18.8437   17.8345   17.0814   17.5294   17.7460    9.6763    4.9913 
3157.10    4.0851    4.4753    4.8572    4.8919    4.5633   18.9368   17.9217   17.0779   17.0038   17.7335    9.6588    4.8674 
3157.20    4.0731    4.4529    4.8715    4.9454    4.5762   18.9451   17.9746   17.0484   16.8941   17.6804    9.7603    4.6839 
3157.30    4.0398    4.4459    4.8695    4.9518    4.5987   18.9400   17.9913   17.0522   16.8810   17.6579    9.9456    4.5710 
3157.40    4.0075    4.4509    4.8823    4.9476    4.6649   19.2172   17.9793   17.0260   16.8894   17.5806   10.0935    4.4714 
3157.50    3.9917    4.4228    4.8823    5.0248    4.7714   19.2164   18.0466   17.0259   16.7360   17.2477   10.1789    4.4069 
3157.60    4.0003    4.4402    4.8718    5.0866    4.8723   19.0701   18.0054   17.0476   16.6133   16.9682   10.2812    4.3735 
3157.70    4.0043    4.4030    4.8945    5.0878    4.9192   19.1397   18.0955   17.0008   16.6110   16.9331   10.2168    4.3008 
3157.80    3.9849    4.3325    4.8538    5.0856    4.9112   19.1795   18.2663   17.0857   16.6153   16.9486   10.0749    4.1947 
3157.90    3.9264    4.3388    4.6744    5.0732    4.8871   19.2328   18.2507   17.4752   16.6396   17.0173    9.9914    4.1166 
3158.00    3.8511    4.2895    4.5706    5.0560    4.8630   19.6520   18.3747   17.7032   16.6732   17.0823   10.0057    4.0300 
3158.10    3.7969    4.1590    4.5669    4.9455    4.8513   19.8423   18.7110   17.7118   16.8965   17.0986   10.0886    4.0914 
3158.20    3.7918    4.1734    4.5606    4.8703    4.8522   19.7046   18.6740   17.7261   17.0481   17.0898   10.1975    3.9796 
3158.30    3.8614    4.2661    4.5802    4.8886    4.8572   19.6902   18.4326   17.6816   17.0103   17.0767   10.3166    3.8543 
3158.40    3.8064    4.2861    4.5097    4.9095    4.8487   19.2404   18.3819   17.8462   16.9672   17.0676   10.4036    3.7972 
3158.50    3.5549    4.2192    4.3733    4.9120    4.8132   20.3315   18.5539   18.1702   16.9620   17.1435   10.4676    3.6970 
3158.60    3.1944    3.6604    4.3084    4.7268    4.7628   22.3853   20.2859   18.3290   17.3618   17.3030   10.5763    3.5194 
3158.70    2.9188    3.2242    4.1466    4.4976    4.7231   23.0732   21.6717   18.7526   17.8709   17.3897   10.6924    3.4544 
3158.80    2.9518    3.2124    4.0345    4.4376    4.7119   23.4262   21.7171   19.0463   18.0112   17.3991   10.8443    3.5700 
3158.90    3.0316    3.2128    4.2287    4.4532    4.7538   22.0811   21.7159   18.5427   17.9738   17.3746   10.9071    3.6719 
3159.00    3.0339    3.5551    4.3760    4.5493    4.8404   22.1589   20.5608   18.1623   17.7518   17.1250   10.9758    3.6270 
3159.10    2.9262    3.8065    4.3684    4.6641    4.9353   23.3893   19.6988   18.1807   17.4907   16.8530   10.9213    3.6847 
3159.20    2.8297    3.8644    4.2778    4.6946    4.9927   23.3377   19.5308   18.4078   17.4230   16.7821   10.8653    3.7671 
3159.30    2.9231    3.9425    4.2904    4.6897    5.0093   23.3023   19.3008   18.3772   17.4339   16.7688   10.7547    3.6966 
3159.40    3.2791    3.9530    4.3874    4.6913    5.0393   22.2236   19.2709   18.1346   17.4304   16.7529   10.7630    3.7468 
3159.50    3.7540    3.9402    4.4140    4.7538    5.1040   19.5937   19.3074   18.0703   17.2954   16.6066   10.9327    3.9350 
3159.60    4.1070    4.1980    4.4233    4.9418    5.1795   18.4444   18.6368   18.0478   16.9061   16.3932   11.2022    4.0492 
3159.70    4.1955    4.0768    4.4291    5.0570    5.2219   18.7155   18.9779   18.0341   16.6712   16.3179   11.3794    4.0709 
3159.80    4.1560    3.7723    4.4725    5.0602    5.2475   18.6978   19.8012   17.9317   16.6649   16.3625   11.5549    4.2169 
3159.90    4.1674    3.7699    4.5393    5.0524    5.2855   18.7451   19.8085   17.7754   16.6802   16.2513   11.7126    4.2384 
3160.00    4.3204    3.7653    4.5722    5.0268    5.3362   18.6280   19.8226   17.6995   16.7309   16.1091   11.6335    4.1695 
3160.10    4.5317    3.9767    4.5721    4.9844    5.3738   17.6261   19.2248   17.6999   16.8154   16.0833   11.4885    4.1676 
3160.20    4.6717    4.2319    4.5669    5.0693    5.3836   17.2480   18.5220   17.7116   16.6505   16.0464   11.4699    4.1734 
3160.30    4.6647    4.1678    4.6731    5.1556    5.3847   17.6095   18.6910   17.4769   16.4804   16.0560   11.6047    4.0135 
3160.40    4.6081    4.0232    4.6968    5.1478    5.4042   17.6303   19.0750   17.4222   16.4953   16.0774   11.6249    3.9390 
3160.50    4.5579    3.9944    4.6519    5.1529    5.4273   17.6146   19.1543   17.5201   16.4855   15.9440   11.7610    3.9772 
3160.60    4.3746    3.9937    4.6584    5.1607    5.4421   17.9649   19.1563   17.5056   16.4708   15.9340   11.7624    4.1179 
3160.70    4.6114    3.9875    4.6448    5.2663    5.4334   19.0261   19.1736   17.5357   16.2756   15.9987   11.7268    4.2855 
3160.80    5.3294    3.9202    4.6433    5.4828    5.4244   16.7198   19.3658   17.5392   15.8884   15.9889   11.6083    4.5139 
3160.90    6.1827    4.8826    4.6523    5.6705    5.4569   14.1810   17.3155   17.5190   15.5674   15.9805   11.5382    4.6565 
3161.00    6.6122    5.7069    5.1492    5.7481    5.5555   14.1803   15.5065   16.5538   15.4392   15.8296   11.4662    4.9861 
3161.10    6.6126    5.6614    5.6070    5.7422    5.6819   14.1830   15.5813   15.6747   15.4488   15.4895   11.4249    5.2584 
3161.20    6.5017    5.6639    5.6238    5.7360    5.7659   14.1796   15.5773   15.6463   15.4588   15.3446   11.3818    5.4094 
3161.30    6.2229    5.6761    5.6060    5.7958    5.7756   14.6500   15.5570   15.6762   15.3630   15.4075   11.3183    5.4183 
3161.40    5.8865    5.5589    5.6049    5.6539    5.7541   15.4064   15.7563   15.6780   15.6003   15.4392   11.1915    5.6133 
3161.50    5.6695    5.3463    5.5960    5.5172    5.7419   15.6787   16.1292   15.6930   15.8251   15.4486   10.9988    5.7969 
3161.60    5.6209    5.2754    5.5397    5.5510    5.6919   15.6389   16.2559   15.7891   15.7671   15.4668   10.8645    5.8557 
3161.70    5.6325    5.2885    5.4373    5.5400    5.5867   15.6356   16.2316   15.9670   15.7859   15.6891   10.7795    6.0009 
3161.80    5.6066    5.2833    5.2437    5.5340    5.4699   15.6203   16.2412   16.3208   15.7962   15.9843   10.6940    5.9706 
3161.90    5.4386    5.2777    5.1154    5.5284    5.4006   15.7726   16.2515   16.5600   15.8058   16.0640   10.6765    6.0203 
3162.00    5.1385    5.0942    5.0999    5.3566    5.3891   16.5648   16.6061   16.5900   16.1131   16.0475   10.7124    5.6565 
3162.10    4.8394    4.5907    5.0948    5.2118    5.3896   17.3343   17.6934   16.5998   16.3741   16.0448   10.6758    5.6299 
3162.20    4.6807    4.2221    5.0027    5.1977    5.3790   17.5157   18.5460   16.7829   16.4006   16.0609   10.6386    5.4895 
