~Version information
VERS.                            2.00: CWLS LAS  -  VERSION 2.00
WRAP.                              NO: One line per depth step
~Well information
#MNEM.UNIT                  DATA TYPE  INFORMATION
#===.================================:==================
STRT.M                       1140.000: First depth in file
STOP.M                       3790.800: Last depth in file
STEP.M                          0.100: Depth increment
NULL.                       -9999.00 : Null values
DATE.                        : LOG DATE
TIME.                           17:38: LOG TIME
WELL.                             F2: Well name
GRP.                                 : Group name
FLD.                    F: Field name
ISS.                     окон.каротаж: Well surveys
SRVC.                                : Service Company
~Curve information
#MNEM.UNIT                   API CODE   CURVE DESCRIPTION
#===.================================:==================
DEPT.M                               : Depth curve
RO05.Ohmm                            : : Apparent resistivity
RO07.Ohmm                            : : Apparent resistivity
RO10.Ohmm                            : : Apparent resistivity
RO14.Ohmm                            : : Apparent resistivity
RO20.Ohmm                            : : Apparent resistivity
DF05.                                : 
DF07.                                : 
DF10.                                : 
DF14.                                : 
DF20.                                : 
ГК ок.                               : 
НКТ-Б ок.                            : 
#
~Other information
#------------------ REMARKS AREA -----------------------
#=======================================================
# The file is generated by the program GeoTech-EditLog v2000.12
#Number of Curves = 12
~A Log Data Section
# ...
2015.70    8.1386    4.4751    3.9706    4.2007    3.8124   12.3082   17.9243   19.2268   18.6002   19.7259    6.4310    4.4971 
2015.80    8.3646    4.5807    3.9021    4.1068    3.7876   12.1493   17.6779   19.4194   18.8490   19.7422    6.5345    4.4680 
2015.90    8.2565    4.6148    3.8300    3.9301    3.7705   12.3207   17.6004   19.6330   19.3420   19.8059    6.5489    4.5112 
2016.00    8.0333    4.6377    3.7061    3.7911    3.7556   12.6168   17.5493   20.0097   19.7446   19.8815    6.6084    4.4967 
2016.10    7.8055    4.6278    3.6489    3.7519    3.7474   12.7918   17.5714   20.1885   19.8634   19.8784    6.6675    4.3839 
2016.20    7.4954    4.5657    3.6234    3.6448    3.7351   13.0018   17.7123   20.2709   20.2045   19.8811    6.7276    4.1646 
2016.30    7.0893    4.5401    3.5614    3.4324    3.7032   13.6406   17.7706   20.4743   20.9192   19.9962    6.8237    4.1184 
2016.40    6.7096    4.4928    3.5058    3.3213    3.6590   14.2060   17.8814   20.6597   21.3071   20.1781    6.8264    4.1413 
2016.50    6.4854    4.4109    3.4955    3.2656    3.5993   14.3644   18.0753   20.6946   21.5159   20.2984    6.7815    4.2440 
2016.60    6.3590    4.3715    3.5085    3.1503    3.5081   14.4863   18.1706   20.6505   21.9642   20.5781    6.7919    4.0283 
2016.70    6.2344    4.3599    3.5001    3.0765    3.4051   14.7295   18.1987   20.6789   22.2592   21.1077    6.7676    3.9553 
2016.80    6.1184    4.2863    3.4772    3.0513    3.3201   14.8937   18.3833   20.7571   22.3633   21.3671    6.7224    4.0097 
2016.90    6.1449    4.2192    3.4547    3.0011    3.2522   14.9882   18.5519   20.8346   22.5762   21.4802    6.6431    4.0746 
2017.00    6.3099    4.2149    3.4449    2.9703    3.1826   14.6277   18.5631   20.8684   22.7074   21.8705    6.5058    4.0774 
2017.10    6.5041    4.2537    3.4341    2.9710    3.1174   14.2025   18.4646   20.9063   22.7043   22.1777    6.3640    4.0318 
2017.20    6.5317    4.1973    3.4224    2.9651    3.0774   14.1693   18.6117   20.9472   22.7302   22.2477    6.2275    4.0375 
2017.30    6.3922    4.1217    3.3356    2.9362    3.0478   14.5059   18.8072   21.2632   22.8572   22.3519    6.1358    4.1065 
2017.40    6.2565    4.0563    3.2152    2.8970    3.0149   14.7816   18.9851   21.7111   23.0317   22.5479    6.1487    4.1762 
2017.50    6.2322    3.9660    3.1728    2.8798    2.9900   14.7292   19.2343   21.8746   23.1090   22.6630    6.1989    4.1874 
2017.60    6.2875    3.9279    3.1502    2.8511    2.9804   14.6013   19.3422   21.9646   23.2407   22.6674    6.2391    4.1940 
2017.70    6.3185    3.9171    3.0878    2.8180    2.9802   14.5447   19.3734   22.2173   23.3940   22.6707    6.2701    4.2407 
2017.80    6.3106    3.8606    3.0292    2.8058    2.9804   14.5968   19.5388   22.4596   23.4514   22.6655    6.3250    4.3304 
2017.90    6.2661    3.7741    3.0074    2.7899    2.9833   14.6340   19.7963   22.5513   23.5270   22.6659    6.3841    4.3246 
2018.00    6.1635    3.7409    2.9946    2.7696    2.9939   14.7349   19.8971   22.6059   23.6239   22.6328    6.4182    4.3191 
2018.10    6.0272    3.7141    2.9960    2.7672    3.0072   15.0504   19.9805   22.6001   23.6355   22.5296    6.4403    4.3180 
2018.20    5.9015    3.6702    3.0022    2.7696    3.0235   15.2444   20.1182   22.5736   23.6239   22.4957    6.4479    4.3292 
2018.30    5.7873    3.6487    3.0101    2.7673    3.0388   15.3047   20.1861   22.5400   23.6351   22.4252    6.4577    4.2967 
2018.40    5.6717    3.6351    3.0245    2.7754    3.0487   15.5952   20.2298   22.4790   23.5960   22.3366    6.5044    4.2861 
2018.50    5.5672    3.6359    3.0392    2.7783    3.0499   15.8142   20.2274   22.4171   23.5820   22.3708    6.5709    4.3083 
2018.60    5.5680    3.6790    3.0590    2.7738    3.0396   15.8221   20.0907   22.3349   23.6039   22.4106    6.6353    4.3252 
2018.70    5.6826    3.7170    3.1077    2.7829    3.0201   15.5909   19.9712   22.1361   23.5604   22.4650    6.6555    4.3573 
2018.80    5.8286    3.7898    3.1733    2.7825    2.9971   15.2508   19.7503   21.8737   23.5622   22.6193    6.6093    4.3983 
2018.90    5.9926    3.9243    3.2104    2.7843    2.9712   15.1099   19.3558   21.7283   23.5537   22.7044    6.5934    4.4454 
2019.00    6.1626    3.9892    3.2369    2.7940    2.9381   14.8266   19.1688   21.6268   23.5074   22.7995    6.5969    4.4880 
2019.10    6.3263    4.0011    3.2693    2.7906    2.9001   14.4978   19.1358   21.5039   23.5237   23.0555    6.5339    4.5172 
2019.20    6.4529    4.0425    3.2873    2.7877    2.8622   14.3989   19.0217   21.4364   23.5375   23.2135    6.4787    4.5235 
2019.30    6.5232    4.0811    3.2972    2.7904    2.8287   14.2903   18.9164   21.3997   23.5244   23.3132    6.4272    4.4901 
2019.40    6.5709    4.0988    3.2967    2.7826    2.7909   14.2117   18.8686   21.4011   23.5618   23.5198    6.4011    4.3765 
2019.50    6.5896    4.1082    3.2817    2.7823    2.7546   14.2070   18.8433   21.4572   23.5634   23.7502    6.4247    4.2806 
2019.60    6.5747    4.0771    3.2691    2.7759    2.7251   14.2150   18.9273   21.5047   23.5940   23.8337    6.3928    4.3202 
2019.70    6.5093    4.0453    3.2473    2.7590    2.6984   14.2714   19.0136   21.5872   23.6752   23.9521    6.3334    4.3228 
2019.80    6.4055    3.9935    3.2076    2.7577    2.6723   14.4734   19.1579   21.7396   23.6816   24.1478    6.3466    4.2639 
2019.90    6.2793    3.8487    3.1762    2.7501    2.6491   14.6416   19.5770   21.8617   23.7184   24.2277    6.3547    4.1497 
2020.00    6.0303    3.7119    3.1391    2.7302    2.6255   14.8004   19.9878   22.0086   23.8153   24.3056    6.3526    4.0307 
2020.10    5.6765    3.6618    3.0652    2.6958    2.5988   15.6366   20.1444   22.3108   23.9868   24.5161    6.3563    4.1199 
2020.20    5.3368    3.5294    3.0021    2.6835    2.5744   16.3748   20.5863   22.5745   24.0479   24.6499    6.4004    4.2001 
2020.30    5.2194    3.4258    2.9866    2.6895    2.5616   16.4990   20.9322   22.6404   24.0177   24.6919    6.4355    4.1082 
2020.40    5.3210    3.4429    2.9961    2.7241    2.5588   16.2232   20.8728   22.6000   23.8472   24.7224    6.4553    4.1235 
2020.50    5.4759    3.5077    3.0375    2.7630    2.5616   15.8277   20.6519   22.4258   23.6561   24.6940    6.4494    4.1633 
2020.60    5.5934    3.5592    3.0606    2.7619    2.5689   15.6663   20.4773   22.3279   23.6613   24.6473    6.3906    4.2047 
2020.70    5.6769    3.5546    3.0480    2.7717    2.5755   15.6020   20.4926   22.3803   23.6139   24.6043    6.3218    4.2047 
2020.80    5.7637    3.5468    2.9957    2.7573    2.5771   15.4106   20.5188   22.6034   23.6845   24.5877    6.2556    4.1959 
2020.90    5.8428    3.4906    2.9173    2.7369    2.5741   15.2434   20.7099   22.9450   23.7826   24.6219    6.1819    4.2692 
2021.00    5.8860    3.4227    2.8841    2.7010    2.5639   15.2190   20.9430   23.0930   23.9614   24.6522    6.1458    4.4757 
2021.10    5.8781    3.4058    2.8455    2.6474    2.5497   15.2033   21.0026   23.2711   24.2322   24.7521    6.1292    4.4246 
2021.20    5.8344    3.4007    2.7906    2.6321    2.5383   15.2814   21.0208   23.5274   24.3107   24.8539    6.1132    4.4886 
2021.30    5.7705    3.3900    2.7739    2.6260    2.5351   15.4277   21.0588   23.6068   24.3426   24.8386    6.1476    4.6219 
2021.40    5.6542    3.3657    2.7763    2.6200    2.5390   15.5098   21.1460   23.5952   24.3738   24.8039    6.2591    4.7009 
2021.50    5.4830    3.3420    2.7688    2.6038    2.5425   15.8646   21.2316   23.6314   24.4590   24.7900    6.3731    4.6594 
2021.60    5.2987    3.2903    2.7428    2.5845    2.5436   16.3195   21.4233   23.7578   24.5610   24.7808    6.3438    4.5877 
2021.70    5.1781    3.2264    2.7374    2.5642    2.5414   16.4878   21.6639   23.7840   24.6705   24.7867    6.2928    4.5048 
2021.80    5.1657    3.2099    2.7456    2.5411    2.5355   16.5161   21.7270   23.7439   24.7954   24.8254    6.2455    4.5928 
2021.90    5.2073    3.2108    2.7492    2.5245    2.5280   16.3890   21.7235   23.7264   24.8865   24.8785    6.2179    4.5307 
