~Version information
VERS.                            2.00: CWLS LAS  -  VERSION 2.00
WRAP.                              NO: One line per depth step
~Well information
#MNEM.UNIT                  DATA TYPE  INFORMATION
#===.================================:==================
STRT.M                       1140.000: First depth in file
STOP.M                       3790.800: Last depth in file
STEP.M                          0.100: Depth increment
NULL.                       -9999.00 : Null values
DATE.                        : LOG DATE
TIME.                           17:38: LOG TIME
WELL.                             F2: Well name
GRP.                                 : Group name
FLD.                    F: Field name
ISS.                     окон.каротаж: Well surveys
SRVC.                                : Service Company
~Curve information
#MNEM.UNIT                   API CODE   CURVE DESCRIPTION
#===.================================:==================
DEPT.M                               : Depth curve
RO05.Ohmm                            : : Apparent resistivity
RO07.Ohmm                            : : Apparent resistivity
RO10.Ohmm                            : : Apparent resistivity
RO14.Ohmm                            : : Apparent resistivity
RO20.Ohmm                            : : Apparent resistivity
DF05.                                : 
DF07.                                : 
DF10.                                : 
DF14.                                : 
DF20.                                : 
ГК ок.                               : 
НКТ-Б ок.                            : 
#
~Other information
#------------------ REMARKS AREA -----------------------
#=======================================================
# The file is generated by the program GeoTech-EditLog v2000.12
#Number of Curves = 12
~A Log Data Section
# ...
3030.00    7.2178    4.7968    3.6977    3.0947    3.0989   13.4351   17.2031   20.0343   22.1872   22.1674    9.9971    4.2088 
3030.10    7.3667    4.7619    3.7823    3.1331    3.1025   13.4315   17.2770   19.7776   22.0294   22.1693    9.8681    4.3223 
3030.20    7.3980    4.7569    3.9512    3.1328    3.1730   12.9718   17.2877   19.2837   22.0305   22.1307    9.6668    4.2603 
3030.30    7.2046    4.7853    4.0378    3.1613    3.3313   13.3775   17.2274   19.0370   21.9172   21.3756    9.4294    4.4008 
3030.40    6.8422    4.6027    4.0328    3.3996    3.5121   14.1417   17.6416   19.0509   21.0572   20.4376    9.3544    4.5869 
3030.50    6.5964    4.3064    4.0208    3.6446    3.6246   14.2359   18.3362   19.0839   20.2013   20.1815    9.4531    4.7450 
3030.60    6.3233    4.1967    3.9993    3.6957    3.6534   14.2304   18.6101   19.1438   20.0374   20.1881    9.6906    4.8575 
3030.70    5.8373    4.1879    4.1103    3.6904    3.7350   15.4160   18.6330   18.8480   20.0542   20.1538    9.8704    4.8355 
3030.80    5.3706    4.1806    4.2362    3.7415    3.9327   16.5689   18.6519   18.5114   19.8973   19.4612   10.0586    5.1030 
3030.90    5.1948    4.5906    4.2532    4.2559    4.1735   16.4458   17.7102   18.4678   18.5417   18.5063   10.5140    5.1648 
3031.00    5.2572    5.1670    4.2803    4.7457    4.3348   16.2198   16.4705   18.3996   17.3146   18.1472   11.1625    5.3372 
3031.10    5.3064    5.3576    4.8996    4.8553    4.4062   16.2155   16.1060   17.0873   17.0794   18.1502   11.7112    5.5885 
3031.20    5.4925    5.3529    5.7644    4.8660    4.5815   16.1695   16.1146   15.4398   17.0570   17.9745   12.2928    5.8624 
3031.30    6.3138    5.3494    6.0778    4.9163    4.8974   15.3145   16.1209   14.9291   16.9546   17.0114   12.7618    6.1034 
3031.40    7.5353    5.7044    6.0984    5.6172    5.2107   13.0408   15.5336   14.8984   15.7365   16.1647   12.9277    6.3302 
3031.50    8.5705    6.7023    6.0956    6.3590    5.3742   11.7128   14.1233   14.9026   14.5269   16.0407   12.7609    6.5712 
3031.60    8.9593    7.1256    6.7561    6.5147    5.4100   11.7330   13.5453   14.0509   14.3088   16.0329   12.4746    6.7008 
3031.70    8.5004    6.9827    7.0968    6.5135    5.4248   11.7653   13.7124   13.5830   14.3105   15.9712   12.1492    6.5399 
3031.80    7.6241    6.9870    6.9670    6.5022    5.4448   13.1482   13.7072   13.7341   14.3256   15.9623   11.6904    6.4872 
3031.90    6.7353    6.8647    7.0320    6.3630    5.4642   14.5577   13.8589   13.6551   14.5184   15.9272   11.4071    6.4333 
3032.00    6.3096    6.9886    7.0405    6.5212    5.4812   14.6664   13.7112   13.6450   14.3094   15.8692   11.5422    6.3024 
3032.10    6.3065    7.3659    7.1178    6.7663    5.4921   14.5621   13.2704   13.5540   13.9806   15.8730   11.5087    6.1096 
3032.20    6.3287    7.5069    7.2241    6.7892    5.5348   14.5655   13.1120   13.4301   13.9515   15.8700   11.5627    5.9615 
3032.30    6.3251    7.5094    6.6775    6.8004    5.5471   14.5711   13.1094   14.1362   13.9374   15.6538   11.6202    5.9214 
3032.40    6.2641    7.5148    6.1626    6.7713    5.4926   14.5774   13.1035   14.8040   13.9743   15.8173   11.6026    5.8019 
3032.50    5.7113    7.4854    6.1512    6.1632    5.3872   14.8318   13.1355   14.8207   14.8512   16.1603   11.4215    5.5256 
3032.60    4.8188    7.2341    6.1397    5.7126    5.3122   18.0402   13.4217   14.8375   15.4972   16.2047   11.1280    5.3261 
3032.70    4.0188    5.2174    6.1266    5.7309    5.2995   20.2064   17.1379   14.8568   15.4670   16.2075   10.9071    5.0987 
3032.80    3.7112    3.5571    6.0331    5.7262    5.2929   19.8919   20.4908   14.9972   15.4748   16.2297   10.5224    4.8712 
3032.90    3.7457    3.4846    5.3044    5.7440    5.2810   19.8910   20.7289   16.2961   15.4458   16.2408   10.2868    4.7041 
3033.00    3.7479    3.4984    4.6269    5.7459    5.2762   19.8736   20.6816   17.5810   15.4427   16.2737   10.1471    4.5700 
3033.10    3.7489    3.4998    4.5122    5.6953    5.2763   19.8711   20.6767   17.8379   15.5257   16.2564   10.0968    4.4289 
3033.20    3.7440    3.5002    4.4991    5.3880    5.2745   19.8818   20.6755   17.8685   16.0655   16.2397   10.0353    4.2713 
3033.30    3.6932    3.4950    4.4953    4.9239    5.2702   19.9196   20.6929   17.8774   16.9512   16.2838    9.8859    4.2709 
3033.40    3.7691    3.4993    4.5007    4.7219    5.2637   20.3621   20.6785   17.8646   17.3634   16.2802    9.7224    4.2234 
3033.50    3.9641    3.5695    4.5092    4.7173    5.2150   19.3222   20.4459   17.8449   17.3734   16.2757    9.6457    4.1609 
3033.60    4.1857    3.8439    4.5140    4.7175    5.0341   18.3014   19.6101   17.8336   17.3731   16.5651    9.6981    4.1619 
3033.70    4.2411    3.8993    4.4918    4.7248    4.7720   18.4450   19.4315   17.8857   17.3571   17.3865    9.6570    4.2165 
3033.80    4.0697    3.7907    4.2448    4.7218    4.5591   18.7649   19.7456   18.5077   17.3638   17.9160    9.7291    4.2015 
3033.90    3.7707    3.7832    3.9933    4.7212    4.4773   19.7283   19.7681   19.1619   17.3650   17.9195    9.9217    4.1749 
3034.00    3.4410    3.7101    3.9397    4.6692    4.4737   21.1885   19.9947   19.3114   17.4799   17.9235   10.1575    3.9765 
3034.10    3.2176    3.2608    3.9429    4.3008    4.4715   21.9631   21.6446   19.3025   18.3824   17.9410   10.3022    3.9045 
3034.20    3.0801    2.8547    3.7597    3.9162    4.4689   22.0168   23.2281   19.8595   19.3810   17.9351   10.3567    3.7411 
3034.30    2.8775    2.7894    3.3980    3.8208    4.4592   22.8172   23.5292   21.0584   19.6552   17.9419   10.5623    3.5820 
3034.40    2.6086    2.7952    3.2460    3.8096    4.3914   24.8764   23.5018   21.5922   19.6888   18.0105   10.6108    3.3732 
3034.50    2.4040    2.7940    3.2580    3.7260    4.2731   26.0282   23.5075   21.5464   19.9459   18.4399   10.6155    3.1479 
3034.60    2.3368    2.8554    3.2586    3.6758    4.1551   25.9798   23.2252   21.5440   20.1001   18.8350   10.5113    3.1266 
3034.70    2.3396    2.9282    3.2999    3.6960    4.0977   25.9551   22.8923   21.3907   20.0367   18.9068   10.4450    2.9902 
3034.80    2.3328    2.9397    3.3885    3.6957    4.0934   25.9754   22.8413   21.0696   20.0376   18.8814   10.4339    2.9116 
3034.90    2.3134    2.9398    3.4353    3.6867    4.1017   26.1075   22.8407   20.9022   20.0659   18.8699   10.3721    2.9532 
3035.00    2.3597    2.9388    3.4303    3.7216    4.1102   26.3220   22.8451   20.9197   19.9576   18.8396   10.3394    3.1048 
3035.10    2.4741    2.9379    3.4345    3.7703    4.1182   25.2143   22.8493   20.9048   19.8073   18.8135   10.3036    3.1672 
3035.20    2.6014    3.0543    3.4412    3.8019    4.1247   24.1696   22.3635   20.8815   19.7119   18.8051   10.2697    3.1283 
3035.30    2.6532    3.1167    3.4554    3.8068    4.1390   24.1390   22.0959   20.8323   19.6970   18.7879   10.2223    3.1505 
3035.40    2.5718    3.0903    3.4730    3.8044    4.1929   24.3116   22.2021   20.7716   19.7043   18.7004   10.2261    3.2178 
3035.50    2.4332    3.0375    3.4615    3.8052    4.2693   25.5590   22.4237   20.8111   19.7018   18.3903   10.3236    3.1836 
3035.60    2.3027    2.9136    3.4411    3.8807    4.3330   26.5411   22.9623   20.8818   19.4814   18.2031   10.4466    3.3538 
3035.70    2.2452    2.9933    3.4564    4.1531    4.3544   26.5913   22.6287   20.8292   18.7426   18.2150   10.5417    3.3937 
3035.80    2.3735    3.1238    3.7651    4.3743    4.3514   26.5831   22.0666   19.8717   18.1646   18.2269   10.6305    3.4467 
3035.90    2.6813    3.1277    4.2400    4.4017    4.3841   24.4949   22.0509   18.5214   18.0972   18.2256   10.5789    3.5817 
3036.00    3.1113    3.4427    4.4328    4.4523    4.4737   21.9358   20.9387   18.0252   17.9773   17.9820   10.4793    3.7787 
3036.10    3.4667    4.1215    4.4291    4.6044    4.5863   20.5851   18.8772   18.0340   17.6270   17.5962   10.2713    4.0168 
3036.20    3.6862    4.9226    4.4022    4.8297    4.6667   20.0289   16.9983   18.0988   17.1392   17.4407   10.0994    4.3937 
