~Version information
VERS.                            2.00: CWLS LAS  -  VERSION 2.00
WRAP.                              NO: One line per depth step
~Well information
#MNEM.UNIT                  DATA TYPE  INFORMATION
#===.================================:==================
STRT.M                       1140.000: First depth in file
STOP.M                       3790.800: Last depth in file
STEP.M                          0.100: Depth increment
NULL.                       -9999.00 : Null values
DATE.                        : LOG DATE
TIME.                           17:38: LOG TIME
WELL.                             F2: Well name
GRP.                                 : Group name
FLD.                    F: Field name
ISS.                     окон.каротаж: Well surveys
SRVC.                                : Service Company
~Curve information
#MNEM.UNIT                   API CODE   CURVE DESCRIPTION
#===.================================:==================
DEPT.M                               : Depth curve
RO05.Ohmm                            : : Apparent resistivity
RO07.Ohmm                            : : Apparent resistivity
RO10.Ohmm                            : : Apparent resistivity
RO14.Ohmm                            : : Apparent resistivity
RO20.Ohmm                            : : Apparent resistivity
DF05.                                : 
DF07.                                : 
DF10.                                : 
DF14.                                : 
DF20.                                : 
ГК ок.                               : 
НКТ-Б ок.                            : 
#
~Other information
#------------------ REMARKS AREA -----------------------
#=======================================================
# The file is generated by the program GeoTech-EditLog v2000.12
#Number of Curves = 12
~A Log Data Section
# ...
3660.00    4.3035    4.1436    4.7456    6.0501    6.3014   18.1699   18.7493   17.3147   14.9801   14.6057   12.4573    4.2394 
3660.10    4.1335    4.1415    4.7448    5.6364    6.3131   19.0595   18.7548   17.3164   15.6290   14.5723   12.4137    4.3972 
3660.20    4.0834    4.1481    4.7434    5.5232    6.3143   19.1876   18.7373   17.3195   15.8151   14.5868   12.2813    4.5603 
3660.30    4.1753    4.4756    4.7404    5.5534    6.1930   18.5471   17.9579   17.3259   15.7629   14.6003   12.1321    4.5664 
3660.40    4.2828    4.7455    4.9052    5.5274    5.9763   18.3149   17.3123   16.9862   15.8075   15.1254   11.9923    4.8272 
3660.50    4.3113    4.7328    5.0647    5.5242    5.7510   18.3250   17.3399   16.6587   15.8129   15.5794   11.8032    5.0831 
3660.60    4.3285    4.7251    4.9084    5.5381    5.6330   18.3250   17.3565   16.9796   15.7890   15.6398   11.6197    5.2344 
3660.70    4.3179    4.7246    4.7703    5.4421    5.6178   18.1892   17.3575   17.2616   15.9572   15.6739   11.4226    5.2254 
3660.80    4.2830    4.6656    4.7649    5.2525    5.6177   18.4113   17.4877   17.2732   16.3004   15.6557   11.2842    5.0235 
3660.90    4.2424    4.3336    4.7614    5.2570    5.6263   18.5912   18.2922   17.2806   16.2919   15.6400   11.2951    5.0022 
3661.00    4.2289    4.5085    4.7094    5.3335    5.6746   18.4919   17.9009   17.3942   16.1496   15.6307   11.3148    5.0203 
3661.10    4.2368    4.9389    5.0367    5.3381    5.8424   18.5077   16.9088   16.7491   16.1413   15.4196   11.3263    4.9908 
3661.20    4.2322    5.0037    5.6098    5.3556    6.0987   18.5292   16.7767   15.6833   16.1097   14.8629   11.3381    4.9555 
3661.30    4.2306    5.0036    5.8540    5.4399    6.3255   18.5278   16.7768   15.2723   15.9611   14.4635   11.3271    4.9165 
3661.40    4.3530    5.0100    5.8770    5.8457    6.4311   18.5196   16.7642   15.2360   15.3033   14.4080   11.2017    4.9320 
3661.50    4.5930    5.0059    5.8561    6.1793    6.4410   17.6877   16.7723   15.2690   14.7777   14.4021   11.0193    5.0510 
3661.60    4.9641    4.9928    5.8548    6.2339    6.4393   16.8865   16.7984   15.2710   14.6986   14.4223   10.8396    5.1010 
3661.70    5.3016    4.9913    5.8615    6.2509    6.4737   16.1604   16.8015   15.2603   14.6742   14.4151   10.7479    4.9253 
3661.80    5.5125    4.7758    5.8698    6.2433    6.6126   15.6705   17.2596   15.2473   14.6850   14.2643   10.7147    4.8025 
3661.90    5.5857    4.5570    5.8383    6.2494    6.8160   15.7155   17.7320   15.2973   14.6764   13.8839   10.6638    4.8143 
3662.00    5.5622    4.5334    6.0512    6.2461    6.9814   15.7457   17.7861   14.9788   14.6812   13.6360   10.6582    4.9791 
3662.10    5.5483    4.5429    6.3239    6.2246    7.0431   15.7901   17.7641   14.5735   14.7119   13.6370   10.7363    5.0784 
3662.20    5.5403    4.5534    6.3833    6.5560    7.0414   15.7864   17.7400   14.4901   14.2698   13.6529   10.8348    5.0359 
3662.30    5.5402    4.5629    6.3735    7.2809    7.0471   15.7865   17.7183   14.5038   13.3832   13.6419   10.9184    4.9483 
3662.40    5.5363    4.5665    6.3574    7.6934    7.0536   15.7904   17.7100   14.5262   12.9136   13.6165   10.8572    4.9963 
3662.50    5.5282    4.5700    6.3623    7.7097    7.1294   15.8067   17.7019   14.5194   12.8965   13.6298   10.7544    4.9481 
3662.60    5.6168    4.5716    6.3714    7.6997    7.2316   15.8282   17.6982   14.5066   12.9070   13.3814   10.8675    4.7334 
3662.70    5.4957    4.5631    6.3689    7.7111    7.3039   15.3675   17.7177   14.5101   12.8951   13.2645   10.9103    4.5276 
3662.80    5.1140    5.0339    6.3690    7.7232    7.3049   16.6438   16.7761   14.5100   12.8824   13.3768   10.9564    4.5173 
3662.90    4.6277    5.2980    6.3644    7.7040    7.2737   18.1705   16.2186   14.5165   12.9025   13.3730   11.0442    4.2856 
3663.00    4.3558    4.9561    6.7163    7.6912    7.2807   18.2368   16.8851   14.0623   12.9158   13.3694   11.1531    4.2975 
3663.10    4.3482    4.7618    6.3075    7.7038    7.2821   18.2283   17.2772   14.6682   12.9026   13.3529   11.2998    4.3255 
3663.20    4.3465    4.7567    5.7548    7.6969    7.2776   18.2262   17.2882   15.4314   12.9099   13.3683   11.3398    4.2711 
3663.30    4.3429    4.7551    5.8044    7.3832    7.2734   18.2489   17.2915   15.3509   13.2561   13.3848   11.3084    4.1889 
3663.40    4.3423    4.7602    5.8036    6.9130    7.2742   18.2549   17.2806   15.3521   13.8024   13.3672   11.3285    4.1506 
3663.50    4.3435    4.7572    5.7865    6.8489    7.2737   18.2311   17.2872   15.3795   13.8782   13.3656   11.3591    4.1909 
3663.60    4.3470    4.7543    5.7925    6.9102    7.2079   18.2395   17.2934   15.3699   13.8010   13.3865   11.3844    4.2954 
3663.70    4.3858    4.7522    5.8011    6.8959    7.1573   18.2294   17.2978   15.3562   13.8184   13.5981   11.3946    4.2098 
3663.80    4.5482    4.7485    5.7878    6.9073    7.1482   17.9543   17.3059   15.3775   13.8043   13.5451   11.3940    4.1969 
3663.90    4.7510    4.8134    5.7833    6.9216    7.1842   17.1528   17.1686   15.3847   13.7869   13.4181   11.4279    4.3226 
3664.00    4.8709    5.1622    5.7856    6.9410    7.2030   16.8751   16.4883   15.3810   13.7631   13.4695   11.4959    4.4820 
3664.10    4.8565    5.2264    5.8413    6.9465    7.1867   17.1473   16.3545   15.2927   13.7564   13.4754   11.5371    4.5432 
3664.20    4.8051    5.1281    5.9800    6.9397    7.1868   17.2236   16.5343   15.0784   13.7647   13.4741   11.4962    4.5139 
3664.30    4.8006    5.1951    5.9513    6.9378    7.1913   17.1926   16.4057   15.1222   13.7671   13.4690   11.4664    4.5163 
3664.40    4.8061    5.2095    5.7934    6.9137    7.1848   17.1747   16.3785   15.3693   13.7967   13.4598   11.5997    4.5339 
3664.50    4.8053    5.2083    5.7142    6.6606    7.1755   17.1889   16.3807   15.4967   14.1226   13.4968   11.7066    4.5492 
3664.60    4.8015    5.2122    5.7076    6.2672    7.1652   17.1972   16.3733   15.5075   14.6566   13.5014   11.7007    4.4586 
3664.70    4.7976    5.2123    5.7120    6.1065    7.1564   17.1989   16.3731   15.5002   14.8842   13.4956   11.6482    4.4856 
3664.80    4.8791    5.1994    5.6957    6.1080    7.0778   17.2137   16.3973   15.5269   14.8820   13.5274   11.5832    4.5915 
3664.90    4.8624    5.1974    5.6958    6.1006    6.9081   16.7142   16.4012   15.5268   14.8929   13.7876   11.5282    4.6993 
3665.00    4.6589    5.2149    5.6970    6.1070    6.7343   17.3791   16.3682   15.5249   14.8835   14.1227   11.4347    4.5847 
3665.10    4.3655    4.9872    5.7054    6.1206    6.6387   18.6595   16.8239   15.5112   14.8633   14.1739   11.3361    4.5360 
3665.20    4.1984    4.7123    5.7009    6.1256    6.6305   18.6992   17.3855   15.5185   14.8560   14.1447   11.4668    4.4872 
3665.30    4.2255    4.5945    5.6054    6.1106    6.6415   18.4808   17.6469   15.6782   14.8782   14.1541   11.6691    4.4312 
3665.40    4.2635    4.5421    5.3859    6.1217    6.6472   18.4433   17.7659   16.0626   14.8618   14.1305   11.9073    4.4191 
3665.50    4.2749    4.5429    5.2606    6.1375    6.6536   18.4011   17.7641   16.2857   14.8385   14.1226   12.1173    4.3824 
3665.60    4.2826    4.5520    5.2503    6.1889    6.6512   18.3948   17.7432   16.3047   14.7639   14.1289   12.2247    4.4530 
3665.70    4.2854    4.5452    5.2521    5.9079    6.6434   18.3851   17.7588   16.3014   15.2021   14.1399   12.3690    4.6699 
3665.80    4.2869    4.5372    5.2570    5.5250    6.6335   18.3794   17.7773   16.2923   15.8133   14.1532   12.5493    4.9064 
3665.90    4.2957    4.5377    5.2637    5.4182    6.5406   18.3835   17.7761   16.2799   15.9980   14.1674   12.6924    5.1404 
3666.00    4.3099    4.5373    5.2675    5.4078    6.3402   18.3198   17.7770   16.2728   16.0163   14.5234   12.7609    5.1803 
3666.10    4.4164    4.5427    5.2622    5.4064    6.1370   18.2725   17.7645   16.2825   16.0188   15.0005   12.8705    5.1258 
3666.20    4.4457    4.6208    5.2623    5.3973    6.0436   17.6500   17.5891   16.2825   16.0350   15.0262   13.0700    5.1006 
