~Version information
VERS.                            2.00: CWLS LAS  -  VERSION 2.00
WRAP.                              NO: One line per depth step
~Well information
#MNEM.UNIT                  DATA TYPE  INFORMATION
#===.================================:==================
STRT.M                          6.500: First depth in file
STOP.M                       3766.600: Last depth in file
STEP.M                          0.100: Depth increment
NULL.                       -9999.00 : Null values
DATE.                       : LOG DATE
TIME.                           11:24: LOG TIME
WELL.                             F2: Well name
GRP.                                1: Group name
FLD.                    F: Field name
ISS.                тех.состояние Э\К: Well surveys
SRVC.                                : Service Company
~Curve information
#MNEM.UNIT                   API CODE   CURVE DESCRIPTION
#===.================================:==================
DEPT.M                               : Depth curve
GK  .MKR/H                           : :11 Гамма-активность, мкр./ч -   67.0 
LM  .                                : 10 Локатор муфт,  -   28.0 см
NKT2 .UE                             : :7 Малый зонд, усл.ед. -  230.0 см
NKT1 .UE                             : :8 Большой зонд, усл.ед. -  219.0 см
W   .UE                              : :8 Большой зонд, усл.ед. -  219.0 см
#
~Other information
#------------------ REMARKS AREA -----------------------
#=======================================================
# The file is generated by the program GeoTech-EditLog v2000.12
#Number of Curves = 5
~A Log Data Section
# ...
3718.30    3.8067   657.1223    1.7372    4.4870   10.9141 
3718.40    2.7819  1486.7854    1.7548    4.4888   11.1225 
3718.50    2.2649  1809.7115    1.7705    4.5021   11.2537 
3718.60    2.5476   849.8146    1.7792    4.5611   11.0781 
3718.70    2.3537   395.9878    1.7807    4.6225   10.8092 
3718.80    2.3504   439.4548    1.7529    4.6939   10.1591 
3718.90    2.5718   516.7951    1.7277    4.7170    9.7583 
3719.00    2.9239   835.0758    1.7129    4.5470   10.3534 
3719.10    3.7828  1260.0488    1.6849    4.2980   11.2929 
3719.20    4.4878   787.6683    1.6043    3.7361   13.5988 
3719.30    5.8756   515.6186    1.5160    3.2446   15.3616 
3719.40    9.3383   982.0975    1.3981    3.0405   14.9300 
3719.50   13.3836  1975.6724    1.3030    2.8476   14.8600 
3719.60   13.2107  1744.2732    1.2981    2.6967   16.2313 
3719.70   12.5215   788.5659    1.3115    2.6250   17.1934 
3719.80   12.0154   440.6675    1.3985    2.8734   16.5099 
3719.90   10.1931   495.7317    1.4704    3.0784   15.9507 
3720.00    8.0354   691.7946    1.4818    3.1097   15.8887 
3720.10    6.5564   755.2585    1.4916    3.1519   15.7115 
3720.20    5.8638   815.5463    1.4946    3.2377   15.0753 
3720.30    5.5804   758.5648    1.4981    3.3103   14.5538 
3720.40    5.5303   537.2341    1.5032    3.3290   14.4975 
3720.50    4.7770  1109.5134    1.5094    3.3405   14.5152 
3720.60    4.8531  2265.7122    1.5202    3.3231   14.8284 
3720.70    4.6148  1916.2244    1.5273    3.3051   15.0865 
3720.80    4.3658   612.6406    1.5201    3.2847   15.1241 
3720.90    4.0504   519.6000    1.5139    3.2624   15.1941 
3721.00    4.1137   566.3570    1.5116    3.2327   15.3932 
3721.10    4.1566   915.2000    1.5112    3.2238   15.4608 
3721.20    4.0025  1112.0488    1.5182    3.2975   15.0013 
3721.30    4.0081  1895.5697    1.5245    3.3338   14.8291 
3721.40    4.1384   681.9512    1.5277    3.2194   15.8107 
3721.50    4.2904   719.0807    1.5264    3.1191   16.6032 
3721.60    4.4894   922.5854    1.5068    3.0737   16.6516 
3721.70    4.5681  2163.8220    1.4934    3.0446   16.6663 
3721.80    4.5925  2599.9634    1.5048    3.0817   16.5445 
3721.90    4.4974  1086.1219    1.5127    3.1155   16.3904 
3722.00    4.3048   570.2812    1.5067    3.1362   16.1079 
3722.10    4.5172   428.8537    1.5025    3.1624   15.8113 
3722.20    4.6569   578.5171    1.5050    3.2106   15.4616 
3722.30    4.8135  1235.8337    1.5004    3.2423   15.1214 
3722.40    4.4855  1960.1951    1.4672    3.2074   14.8232 
3722.50    4.7225  1458.3569    1.4464    3.1687   14.7773 
3722.60    4.6225   558.7610    1.4747    3.1142   15.7372 
3722.70    4.4616   647.7244    1.5007    3.0827   16.4611 
3722.80    3.9792  1466.8679    1.5175    3.1435   16.2386 
3722.90    3.9478  2656.3367    1.5297    3.1910   16.0471 
3723.00    3.9237  2168.8337    1.5232    3.1854   15.9798 
3723.10    4.2484   666.5220    1.5186    3.1976   15.8040 
3723.20    4.3381   426.6537    1.5219    3.2812   15.1965 
3723.30    4.2814   510.2787    1.5239    3.3463   14.7114 
3723.40    4.1496   835.3561    1.5202    3.3369   14.7221 
3723.50    3.8425  1515.6968    1.5241    3.3324   14.8201 
3723.60    3.7012  1560.0780    1.5580    3.3475   15.2673 
3723.70    3.9837   400.3415    1.5807    3.3451   15.6697 
3723.80    3.7413  1081.1370    1.5592    3.2716   15.8965 
3723.90    3.3090  2429.9170    1.5430    3.2277   15.9769 
3724.00    3.3126  2334.0930    1.5480    3.3014   15.4736 
3724.10    3.4862  1607.6683    1.5497    3.3481   15.1295 
3724.20    3.1681   389.5390    1.5383    3.2861   15.4266 
3724.30    3.0926   453.6870    1.5335    3.2499   15.6296 
3724.40    3.2586   662.7902    1.5546    3.3172   15.4534 
3724.50    3.3780  1504.3912    1.5702    3.3679   15.3144 
3724.60    3.2418  2586.0781    1.5636    3.3529   15.3218 
3724.70    3.4203  2213.7390    1.5575    3.3418   15.3062 
3724.80    3.5136  1178.2128    1.5530    3.3463   15.1967 
3724.90    3.4996   709.9951    1.5468    3.3335   15.1952 
3725.00    3.7037  1404.2469    1.5334    3.2515   15.6243 
3725.10    3.9606  1326.2292    1.5230    3.1990   15.8667 
3725.20    4.1313   731.2098    1.5246    3.2657   15.3597 
3725.30    4.3848   457.5672    1.5274    3.2959   15.1728 
3725.40    4.4374   495.9366    1.5349    3.1797   16.2715 
3725.50    4.2159   621.3546    1.5384    3.0993   16.9991 
3725.60    4.2733  1072.0293    1.5262    3.1606   16.2562 
3725.70    4.1603  1406.0073    1.5184    3.2114   15.6817 
3725.80    4.1302  1478.3912    1.5284    3.2201   15.7819 
3725.90    4.0283   642.8781    1.5380    3.2606   15.6399 
3726.00    4.3290   586.3521    1.5467    3.4279   14.5316 
3726.10    3.7172  1102.5073    1.5564    3.5622   13.6824 
3726.20    3.7481  1569.5951    1.5696    3.5635   13.8800 
3726.30    3.6748  1263.7653    1.5805    3.5803   13.9382 
3726.40    3.8486   555.2000    1.5819    3.6592   13.4365 
3726.50    4.0704   459.1491    1.5812    3.6844   13.2738 
3726.60    4.4377   731.3561    1.5723    3.4958   14.4610 
3726.70    5.1469  1432.7219    1.5635    3.3427   15.3990 
3726.80    5.3336  1910.6650    1.5549    3.3319   15.3401 
3726.90    5.1692  1593.6488    1.5468    3.3299   15.2214 
3727.00    4.8270   497.5355    1.5404    3.3628   14.8649 
3727.10    4.8941   459.7463    1.5388    3.3745   14.7532 
3727.20    4.7114   592.3658    1.5562    3.3012   15.6220 
3727.30    4.8770   888.5306    1.5697    3.2483   16.2621 
3727.40    4.9908   981.7415    1.5674    3.2782   15.9794 
3727.50    5.1781   454.6699    1.5596    3.3122   15.5772 
3727.60    5.1912   481.9512    1.5297    3.3633   14.6940 
3727.70    5.0782   732.2147    1.5078    3.3764   14.2387 
3727.80    4.7301  1863.6870    1.5171    3.2361   15.5100 
3727.90    4.1459  4149.2681    1.5316    3.1329   16.5738 
3728.00    4.1714  6738.6943    1.5670    3.1780   16.8065 
3728.10    4.1612  7362.5269    1.5907    3.2094   16.9517 
3728.20    4.0215  7192.9146    1.5671    3.1855   16.7448 
3728.30    3.8093 16202.8535    1.5419    3.1695   16.4436 
3728.40    4.1314 15084.8633    1.5107    3.1852   15.7672 
3728.50    4.4569  1402.3276    1.4981    3.2002   15.4189 
3728.60    4.2459   437.3854    1.5593    3.2127   16.3743 
3728.70    4.1116   543.0049    1.6099    3.2624   16.8620 
3728.80    3.4791   927.2078    1.6191    3.4635   15.4612 
3728.90    3.2620  1440.0586    1.6243    3.6335   14.2492 
3729.00    3.5548  1924.2616    1.6142    3.6786   13.7931 
3729.10    3.8259   722.5903    1.5956    3.6723   13.5621 
3729.20    4.0112   539.6000    1.5434    3.4599   14.2336 
3729.30    4.8506   413.7799    1.4965    3.2452   15.0686 
3729.40    5.7947   432.3415    1.4712    3.0236   16.5503 
3729.50    5.9883   511.7115    1.4460    2.8140   17.9946 
3729.60    6.7012   606.7902    1.4213    2.6492   19.3067 
3729.70    6.7258   485.7854    1.4040    2.5222   20.3495 
3729.80    6.9625   524.5183    1.4162    2.5470   20.3144 
3729.90    6.8369  1353.5220    1.4270    2.5704   20.2650 
3730.00    7.0245  3198.0906    1.4322    2.5888   20.1590 
3730.10    6.3388  1771.8976    1.4352    2.6236   19.8300 
3730.20    6.1859   357.3171    1.4288    2.7231   18.6133 
3730.30    6.2260   419.1296    1.4262    2.7963   17.7555 
3730.40    6.4619   511.9415    1.4382    2.7630   18.3448 
3730.50    6.3471   816.8704    1.4499    2.7376   18.8436 
3730.60    6.6717  1470.0098    1.4598    2.7430   18.9872 
3730.70    6.2804  1569.9512    1.4669    2.7531   19.0226 
3730.80    5.9692   938.5037    1.4623    2.7826   18.6199 
3730.90    5.9692   520.4683    1.4616    2.8257   18.1641 
3731.00    5.5242   782.7824    1.4761    2.9227   17.4974 
3731.10    3.8144   957.3756    1.5049    3.1065   16.4770 
3731.20    3.3214   392.9171    1.5904    3.6354   14.0538 
3731.30    3.4314   338.6993    1.6750    4.1318   11.9533 
3731.40    3.3598   455.3366    1.7551    4.4931   11.1668 
3731.50    3.7450   589.3986    1.8116    4.7818   10.4511 
3731.60    4.5701   909.7366    1.7746    4.7844   10.0093 
