~Version information
VERS.                            2.00: CWLS LAS  -  VERSION 2.00
WRAP.                              NO: One line per depth step
~Well information
#MNEM.UNIT                  DATA TYPE  INFORMATION
#===.================================:==================
STRT.M                          6.500: First depth in file
STOP.M                       3766.600: Last depth in file
STEP.M                          0.100: Depth increment
NULL.                       -9999.00 : Null values
DATE.                       : LOG DATE
TIME.                           11:24: LOG TIME
WELL.                             F2: Well name
GRP.                                1: Group name
FLD.                    F: Field name
ISS.                тех.состояние Э\К: Well surveys
SRVC.                                : Service Company
~Curve information
#MNEM.UNIT                   API CODE   CURVE DESCRIPTION
#===.================================:==================
DEPT.M                               : Depth curve
GK  .MKR/H                           : :11 Гамма-активность, мкр./ч -   67.0 
LM  .                                : 10 Локатор муфт,  -   28.0 см
NKT2 .UE                             : :7 Малый зонд, усл.ед. -  230.0 см
NKT1 .UE                             : :8 Большой зонд, усл.ед. -  219.0 см
W   .UE                              : :8 Большой зонд, усл.ед. -  219.0 см
#
~Other information
#------------------ REMARKS AREA -----------------------
#=======================================================
# The file is generated by the program GeoTech-EditLog v2000.12
#Number of Curves = 5
~A Log Data Section
# ...
3637.90    6.2592   383.0000    1.3289    2.2059   22.9051 
3638.00    6.1992   392.0000    1.3558    2.2917   22.3161 
3638.10    6.0292   564.0000    1.3701    2.3573   21.7137 
3638.20    6.0492  1272.0000    1.3334    2.3411   21.0647 
3638.30    5.9492  2392.0000    1.3032    2.3090   20.7983 
3638.40    6.4592  2018.0000    1.2986    2.2138   22.0688 
3638.50    6.1092   384.0000    1.2919    2.1322   23.0915 
3638.60    6.3092   441.0000    1.2763    2.1036   23.1388 
3638.70    6.3492   447.0000    1.2775    2.1089   23.0892 
3638.80    7.0892  1100.0000    1.3454    2.2518   22.6468 
3638.90    6.5092  1932.0000    1.4050    2.3742   22.3045 
3639.00    6.8192  2311.0000    1.4315    2.4147   22.3621 
3639.10    6.6592   460.0000    1.4429    2.4471   22.1841 
3639.20    6.2892   816.0000    1.3938    2.4473   21.0658 
3639.30    5.7792  1016.0000    1.3462    2.4174   20.3849 
3639.40    6.1992   501.0000    1.3050    2.2678   21.4644 
3639.50    7.0192   408.0000    1.2704    2.1382   22.4408 
3639.60    6.3692   559.0000    1.2614    2.0872   23.0181 
3639.70    6.7892   740.0000    1.2471    2.0319   23.5333 
3639.80    6.5892  1784.0000    1.2114    1.9585   23.8039 
3639.90    6.7492  2304.0000    1.1829    1.9016   23.9897 
3640.00    6.2792   500.0000    1.1834    1.9108   23.8373 
3640.10    6.9092   416.0000    1.1900    1.9196   23.8685 
3640.20    6.7492   480.0000    1.2212    1.9272   24.6338 
3640.30    6.0692   708.0000    1.2379    1.9312   25.0413 
3640.40    6.5592  1334.0000    1.1961    1.9215   24.0098 
3640.50    6.5092  1644.0000    1.1623    1.9240   22.9979 
3640.60    6.3192   600.0000    1.1593    1.9756   22.0524 
3640.70    6.1992   452.0000    1.1635    2.0064   21.6580 
3640.80    6.8192   456.0000    1.1958    1.9532   23.4906 
3640.90    6.5292   948.0000    1.2330    1.9563   24.5357 
3641.00    6.8892  1015.0000    1.2895    2.1842   22.4365 
3641.10    6.4492  1444.0000    1.3621    2.4035   20.8894 
3641.20    6.6292  1016.0000    1.4986    2.5863   21.5697 
3641.30    5.6592  4372.0000    1.6081    2.8042   21.4394 
3641.40    4.3992 13624.0000    1.6085    3.1602   18.0595 
3641.50    3.8592 18686.0000    1.5966    3.4235   15.3200 
3641.60    3.8392  7744.0000    1.5354    3.3200   15.1006 
3641.70    4.1792   632.0000    1.4740    3.1818   15.1945 
3641.80    4.5592  1792.0000    1.4108    2.9012   16.5583 
3641.90    5.3292  4458.0000    1.3631    2.6524   17.9989 
3642.00    5.1992  3877.0000    1.3775    2.5307   19.7426 
3642.10    5.2092  1628.0000    1.3810    2.4168   21.1733 
3642.20    5.4192   595.0000    1.3411    2.3354   21.3344 
3642.30    5.7892   820.0000    1.2968    2.2563   21.3492 
3642.40    5.6892  3208.0000    1.2350    2.1872   20.7769 
3642.50    6.2892  3076.0000    1.1953    2.1389   20.4660 
3642.60    6.3292  2826.0000    1.2433    2.1733   21.1936 
3642.70    6.5792   596.0000    1.2884    2.2198   21.6758 
3642.80    6.5692   872.0000    1.3227    2.3161   21.1702 
3642.90    5.9392  2363.0000    1.3390    2.3592   20.9851 
3643.00    5.9592  2424.0000    1.2836    2.1894   22.0794 
3643.10    6.1592  1731.0000    1.2390    2.0438   23.1158 
3643.20    6.0092   681.0000    1.2385    1.9967   23.9083 
3643.30    6.3592   896.0000    1.2397    1.9538   24.6867 
3643.40    6.8792  2832.0000    1.2479    1.9280   25.4012 
3643.50    7.1092  3144.0000    1.2482    1.9028   25.8787 
3643.60    6.9592  1406.0000    1.2175    1.8795   25.4172 
3643.70    7.0492   815.0000    1.1870    1.8534   25.0145 
3643.80    6.9392   666.0000    1.1575    1.8158   24.8451 
3643.90    6.7092  3102.0000    1.1369    1.7861   24.7931 
3644.00    7.2292  4768.0000    1.1517    1.7885   25.2098 
3644.10    6.6992  3252.0000    1.1690    1.7922   25.6708 
3644.20    7.4092   988.0000    1.1956    1.8015   26.3031 
3644.30    7.1792   568.0000    1.2182    1.8365   26.3489 
3644.40    7.1392  1427.0000    1.2244    1.9741   24.0422 
3644.50    6.9592  2152.0000    1.2362    2.0954   22.2023 
3644.60    7.0092  2592.0000    1.2704    2.1534   22.2007 
3644.70    6.1092   774.0000    1.3076    2.2570   21.7209 
3644.80    6.5492   718.0000    1.3577    2.5470   19.2988 
3644.90    6.3592  1936.0000    1.4190    2.8188   17.3813 
3645.00    5.4992  2437.0000    1.5248    3.0177   17.4821 
3645.10    4.8892  1906.0000    1.6020    3.1608   17.5767 
3645.20    4.6892   856.0000    1.5642    3.0788   17.6454 
3645.30    4.6992   504.0000    1.5162    2.9513   18.0204 
3645.40    4.6492  1108.0000    1.4277    2.6422   19.6199 
3645.50    5.9092  2674.0000    1.3512    2.3647   21.2081 
3645.60    6.8092  3344.0000    1.3218    2.2096   22.7702 
3645.70    7.0392  2330.0000    1.2964    2.0862   23.9543 
3645.80    7.3092   742.0000    1.2864    2.0901   23.6226 
3645.90    6.4492   996.0000    1.2834    2.1215   23.0721 
3646.00    6.5392  2550.0000    1.3087    2.2623   21.6497 
3646.10    6.8992  2265.0000    1.3334    2.3727   20.6468 
3646.20    6.7792  1408.0000    1.3553    2.3600   21.3338 
3646.30    7.0592   596.0000    1.3696    2.3466   21.8515 
3646.40    7.0892  1322.0000    1.3532    2.3304   21.6848 
3646.50    7.9392  3529.0000    1.3391    2.3029   21.7409 
3646.60    8.0192  3112.0000    1.3338    2.2301   22.6861 
3646.70    7.4992  1860.0000    1.3256    2.1573   23.5766 
3646.80    7.1892  1256.0000    1.3052    2.0836   24.2569 
3646.90    7.5792   549.0000    1.2826    2.0224   24.6636 
3647.00    7.0151  2004.0000    1.2505    2.0107   23.9779 
3647.10    8.0173  1718.0000    1.2279    2.0034   23.4803 
3647.20    8.2713  1912.0000    1.2438    2.0138   23.7417 
3647.30    8.7237   547.0000    1.2555    2.0184   23.9902 
3647.40    8.6499  1282.0000    1.2507    1.9994   24.1844 
3647.50    8.0569  2978.0000    1.2465    1.9820   24.3714 
3647.60    8.0102  3080.0000    1.2448    1.9704   24.5321 
3647.70    8.2527  1996.0000    1.2444    1.9743   24.4605 
3647.80    7.9081   495.0000    1.2490    2.0417   23.4473 
3647.90    7.8992   912.0000    1.2587    2.0944   22.8164 
3648.00    7.5370  2788.0000    1.2888    2.0887   23.7124 
3648.10    7.5117  3480.0000    1.3161    2.0961   24.3198 
3648.20    7.2536  1648.0000    1.3317    2.1557   23.7657 
3648.30    7.3425   456.0000    1.3397    2.2030   23.2140 
3648.40    7.2506   732.0000    1.3172    2.2009   22.6778 
3648.50    7.7792  1556.0000    1.3004    2.1856   22.4985 
3648.60    7.7868  1832.0000    1.3061    2.1172   23.7406 
3648.70    7.2626  1672.0000    1.3108    2.0855   24.3837 
3648.80    7.0092   480.0000    1.3118    2.2023   22.6097 
3648.90    6.8203  1024.0000    1.3152    2.2727   21.6136 
3649.00    6.4292  3120.0000    1.3282    2.1584   23.7244 
3649.10    6.5104  2388.0000    1.3373    2.0950   24.9524 
3649.20    6.6846  1728.0000    1.3312    2.2366   22.6344 
3649.30    7.0613   555.0000    1.3296    2.3654   20.6581 
3649.40    6.7753   904.0000    1.3462    2.4416   20.0711 
3649.50    6.9492  1328.0000    1.3632    2.4975   19.7477 
3649.60    6.8882  1972.0000    1.3821    2.4736   20.4712 
3649.70    6.8104   824.0000    1.3955    2.4495   21.0754 
3649.80    6.4559  1195.6553    1.3867    2.4244   21.2038 
3649.90    6.4325   788.6780    1.3749    2.3880   21.4197 
3650.00    6.1360   887.0245    1.3511    2.3069   21.9840 
3650.10    6.5070  2292.6877    1.3359    2.2423   22.5253 
3650.20    6.6080  3497.4731    1.3554    2.2451   22.9680 
3650.30    6.9247  2533.9805    1.3675    2.2536   23.1453 
3650.40    6.6947   560.5756    1.3496    2.2847   22.2562 
3650.50    6.6436   551.1393    1.3412    2.3197   21.5459 
3650.60    6.4339   951.5317    1.3705    2.3709   21.5393 
3650.70    5.9283  2213.1414    1.4069    2.4504   21.3460 
3650.80    5.2025  2681.4548    1.4716    2.6455   20.3941 
3650.90    5.2357  2168.8342    1.5210    2.8266   19.3401 
3651.00    5.2470  1185.0782    1.5089    2.9513   17.8809 
3651.10    5.4649   525.6829    1.4957    3.0200   16.9542 
3651.20    5.5769   996.8342    1.4786    2.8635   18.1686 
