~Version information
VERS.                            2.00: CWLS LAS  -  VERSION 2.00
WRAP.                              NO: One line per depth step
~Well information
#MNEM.UNIT                  DATA TYPE  INFORMATION
#===.================================:==================
STRT.M                          6.500: First depth in file
STOP.M                       3766.600: Last depth in file
STEP.M                          0.100: Depth increment
NULL.                       -9999.00 : Null values
DATE.                       : LOG DATE
TIME.                           11:24: LOG TIME
WELL.                             F2: Well name
GRP.                                1: Group name
FLD.                    F: Field name
ISS.                тех.состояние Э\К: Well surveys
SRVC.                                : Service Company
~Curve information
#MNEM.UNIT                   API CODE   CURVE DESCRIPTION
#===.================================:==================
DEPT.M                               : Depth curve
GK  .MKR/H                           : :11 Гамма-активность, мкр./ч -   67.0 
LM  .                                : 10 Локатор муфт,  -   28.0 см
NKT2 .UE                             : :7 Малый зонд, усл.ед. -  230.0 см
NKT1 .UE                             : :8 Большой зонд, усл.ед. -  219.0 см
W   .UE                              : :8 Большой зонд, усл.ед. -  219.0 см
#
~Other information
#------------------ REMARKS AREA -----------------------
#=======================================================
# The file is generated by the program GeoTech-EditLog v2000.12
#Number of Curves = 5
~A Log Data Section
# ...
3624.50    7.0592  1250.0000    1.2996    2.0059   25.4291 
3624.60    7.1092  1039.0000    1.2655    2.0153   24.3226 
3624.70    6.9192   614.0000    1.2422    2.0204   23.5873 
3624.80    7.0792   407.0000    1.2617    2.0078   24.3459 
3624.90    6.8092   656.0000    1.2717    2.0030   24.7108 
3625.00    6.5692   903.0000    1.2441    2.0294   23.5036 
3625.10    7.3792  1136.0000    1.2300    2.0723   22.4151 
3625.20    5.9892   746.0000    1.2701    2.1805   21.8144 
3625.30    6.2892   878.0000    1.3007    2.2718   21.2356 
3625.40    6.5092   622.0000    1.2933    2.2940   20.7502 
3625.50    5.9392  2186.0000    1.2977    2.3160   20.5487 
3625.60    5.9492  2324.0000    1.3490    2.3377   21.4769 
3625.70    6.0292  1912.0000    1.3913    2.3625   22.1474 
3625.80    6.0992   490.0000    1.3979    2.4005   21.7830 
3625.90    5.9392   486.0000    1.3943    2.4316   21.2830 
3626.00    5.5692  1070.0000    1.3507    2.4349   20.2430 
3626.10    6.5292  1952.0000    1.3125    2.4212   19.5464 
3626.20    6.4192  2207.0000    1.2963    2.3394   20.2315 
3626.30    6.0992  1288.0000    1.2905    2.2817   20.8447 
3626.40    6.3192   504.0000    1.3264    2.3213   21.1638 
3626.50    6.7892   773.0000    1.3501    2.3612   21.1985 
3626.60    5.9892  1023.0000    1.3261    2.4030   20.0998 
3626.70    6.3492   512.0000    1.3119    2.4461   19.2174 
3626.80    5.1392   613.0000    1.3374    2.4950   19.2003 
3626.90    5.3192   592.0000    1.3674    2.5381   19.3508 
3627.00    5.8992  1440.0000    1.4160    2.5581   20.1693 
3627.10    5.7192  3630.0000    1.4385    2.5651   20.5717 
3627.20    6.3092  3099.0000    1.3566    2.5202   19.3048 
3627.30    6.3892   701.0000    1.2955    2.4582   18.7417 
3627.40    6.2792   466.0000    1.3186    2.3285   21.0066 
3627.50    6.4692  1140.0000    1.3314    2.2084   22.9296 
3627.60    6.1592  1664.0000    1.3032    2.1257   23.5131 
3627.70    6.1592  2128.0000    1.2764    2.0509   24.0106 
3627.80    6.0592   910.0000    1.2551    2.0076   24.1664 
3627.90    6.7292   464.0000    1.2435    1.9857   24.2251 
3628.00    6.7392   872.0000    1.2708    2.0490   23.8966 
3628.10    6.1592  2799.0000    1.2974    2.1089   23.6085 
3628.20    6.2292  2528.0000    1.3206    2.1546   23.4855 
3628.30    6.5492  1592.0000    1.3354    2.1969   23.2048 
3628.40    6.5392   500.0000    1.3161    2.2254   22.2947 
3628.50    6.6692   629.0000    1.3076    2.2642   21.5117 
3628.60    5.9392  2504.0000    1.3420    2.3451   21.2259 
3628.70    5.9892  3426.0000    1.3634    2.3907   21.1199 
3628.80    6.7192  3079.0000    1.3332    2.2939   21.7406 
3628.90    6.2592   752.0000    1.3061    2.1926   22.5539 
3629.00    6.7292   495.0000    1.2919    2.0734   24.1342 
3629.10    6.8292  1038.0000    1.2816    1.9848   25.3094 
3629.20    7.0092  2280.0000    1.2871    2.0193   24.8502 
3629.30    6.6492  2304.0000    1.2961    2.0558   24.4590 
3629.40    7.0592  1566.0000    1.3194    2.0997   24.3442 
3629.50    6.5692   496.0000    1.3379    2.1511   24.0031 
3629.60    6.1592  1176.0000    1.3376    2.2327   22.7555 
3629.70    6.1792  2662.0000    1.3401    2.2977   21.8289 
3629.80    5.9692  2521.0000    1.3540    2.2959   22.1907 
3629.90    5.9792  1162.0000    1.3600    2.3007   22.2734 
3630.00    6.1692   552.0000    1.3347    2.3315   21.2419 
3630.10    5.7392  1312.0000    1.3239    2.3584   20.6099 
3630.20    5.6792  4840.0000    1.3715    2.3692   21.5837 
3630.30    5.1792 14187.0000    1.4049    2.3754   22.2856 
3630.40    5.1392 18720.0000    1.3811    2.3633   21.8904 
3630.50    5.5192  6642.0000    1.3591    2.3310   21.8417 
3630.60    6.4392  1095.0000    1.3444    2.2176   23.1749 
3630.70    6.3892  3436.0000    1.3328    2.1364   24.0963 
3630.80    6.4492  2080.0000    1.3334    2.1842   23.3618 
3630.90    6.7192   412.0000    1.3304    2.2140   22.8132 
3631.00    6.9892   485.0000    1.3126    2.1720   23.0072 
3631.10    7.3392   648.0000    1.3006    2.1337   23.2966 
3631.20    6.8792  1282.0000    1.3117    2.1107   23.9634 
3631.30    7.0392  2391.0000    1.3181    2.0961   24.3698 
3631.40    6.8592  1225.0000    1.3053    2.1147   23.7285 
3631.50    7.2992   586.0000    1.2945    2.1303   23.1883 
3631.60    7.0392   502.0000    1.2913    2.1341   23.0443 
3631.70    7.3192   616.0000    1.2964    2.1495   22.9338 
3631.80    7.1392  1048.0000    1.3349    2.2118   22.9571 
3631.90    6.3292   419.0000    1.3641    2.2590   22.9758 
3632.00    6.6292   460.0000    1.3557    2.2452   22.9762 
3632.10    7.6092   864.0000    1.3582    2.2711   22.6952 
3632.20    6.6492  2792.0000    1.4040    2.4555   21.2915 
3632.30    6.4292  2423.0000    1.4400    2.5858   20.3742 
3632.40    6.6292   328.0000    1.4367    2.4977   21.4166 
3632.50    6.4092   448.0000    1.4325    2.4389   22.0658 
3632.60    6.0592   666.0000    1.4247    2.4961   21.1551 
3632.70    5.8192   750.0000    1.4185    2.5416   20.4303 
3632.80    6.0892  1267.0000    1.4188    2.5406   20.4497 
3632.90    6.0992  2008.0000    1.4192    2.5273   20.6283 
3633.00    5.8892   416.0000    1.4194    2.4645   21.4419 
3633.10    5.8592   676.0000    1.4131    2.4037   22.0866 
3633.20    5.7992  1218.0000    1.3807    2.3515   22.0471 
3633.30    6.0392   799.0000    1.3537    2.3027   22.0881 
3633.40    6.4092   432.0000    1.3483    2.2686   22.4513 
3633.50    6.3492   880.0000    1.3373    2.2399   22.5972 
3633.60    6.5292   474.0000    1.3041    2.2325   21.8787 
3633.70    7.1892  1092.0000    1.2831    2.2340   21.3311 
3633.80    7.2392  2124.0000    1.3098    2.2708   21.4682 
3633.90    7.6492  1280.0000    1.3393    2.3160   21.5549 
3634.00    6.9892   444.0000    1.3797    2.3945   21.4404 
3634.10    6.3792   440.0000    1.4130    2.4664   21.2568 
3634.20    6.5292   680.0000    1.4176    2.5108   20.7993 
3634.30    5.9792  1212.0000    1.4208    2.5242   20.7166 
3634.40    6.4692  1832.0000    1.4179    2.4129   22.1370 
3634.50    6.2092  1904.0000    1.4133    2.3278   23.1593 
3634.60    6.1992   480.0000    1.4010    2.3462   22.6062 
3634.70    7.0092   983.0000    1.3928    2.3629   22.1739 
3634.80    6.4892  1829.0000    1.4006    2.3724   22.2251 
3634.90    6.6892   664.0000    1.4063    2.3803   22.2496 
3635.00    6.2792   538.0000    1.4032    2.3811   22.1670 
3635.10    5.8292   451.0000    1.3994    2.3869   21.9997 
3635.20    6.0192   704.0000    1.3922    2.4121   21.4957 
3635.30    5.8492  2210.0000    1.3949    2.4663   20.8739 
3635.40    6.5692  2086.0000    1.4374    2.6358   19.7854 
3635.50    6.0092   532.0000    1.4795    2.8003   18.7848 
3635.60    5.5292   416.0000    1.5208    2.9466   18.1228 
3635.70    5.0792   424.0000    1.5350    3.0223   17.6443 
3635.80    4.9892   692.0000    1.4411    2.8127   17.9024 
3635.90    6.4992   811.0000    1.3572    2.6124   18.3041 
3636.00    6.2292   728.0000    1.3138    2.4498   19.2776 
3636.10    6.3692  1395.0000    1.2866    2.3065   20.4325 
3636.20    6.1492  2408.0000    1.3246    2.2423   22.2984 
3636.30    6.2892  1120.0000    1.3631    2.2282   23.4667 
3636.40    6.2092   448.0000    1.4033    2.4153   21.8267 
3636.50    6.4992   516.0000    1.4348    2.5494   20.6998 
3636.60    6.0092   560.0000    1.4318    2.4740   21.6060 
3636.70    6.2092  1344.0000    1.4278    2.4065   22.3913 
3636.80    6.3292  3210.0000    1.4192    2.3702   22.6973 
3636.90    6.4592  2936.0000    1.4131    2.3533   22.7959 
3637.00    6.5492   396.0000    1.4175    2.4141   22.0666 
3637.10    6.6192   456.0000    1.4217    2.4618   21.5097 
3637.20    5.6692   820.0000    1.4252    2.4573   21.6490 
3637.30    4.9692  1616.0000    1.4249    2.4621   21.5835 
3637.40    5.1992  1680.0000    1.4091    2.5043   20.6979 
3637.50    5.7592  1575.0000    1.3853    2.5190   19.9752 
3637.60    5.7592   497.0000    1.3293    2.4235   19.8935 
3637.70    5.3992  1362.0000    1.2885    2.3315   20.1441 
3637.80    6.2892  1732.0000    1.3079    2.2522   21.7436 
