~Version information
VERS.                            2.00: CWLS LAS  -  VERSION 2.00
WRAP.                              NO: One line per depth step
~Well information
#MNEM.UNIT                  DATA TYPE  INFORMATION
#===.================================:==================
STRT.M                          6.500: First depth in file
STOP.M                       3766.600: Last depth in file
STEP.M                          0.100: Depth increment
NULL.                       -9999.00 : Null values
DATE.                       : LOG DATE
TIME.                           11:24: LOG TIME
WELL.                             F2: Well name
GRP.                                1: Group name
FLD.                    F: Field name
ISS.                тех.состояние Э\К: Well surveys
SRVC.                                : Service Company
~Curve information
#MNEM.UNIT                   API CODE   CURVE DESCRIPTION
#===.================================:==================
DEPT.M                               : Depth curve
GK  .MKR/H                           : :11 Гамма-активность, мкр./ч -   67.0 
LM  .                                : 10 Локатор муфт,  -   28.0 см
NKT2 .UE                             : :7 Малый зонд, усл.ед. -  230.0 см
NKT1 .UE                             : :8 Большой зонд, усл.ед. -  219.0 см
W   .UE                              : :8 Большой зонд, усл.ед. -  219.0 см
#
~Other information
#------------------ REMARKS AREA -----------------------
#=======================================================
# The file is generated by the program GeoTech-EditLog v2000.12
#Number of Curves = 5
~A Log Data Section
# ...
3758.50    6.9491   941.4352    1.2601    1.9935   24.5447 
3758.60    6.6023   614.9512    1.1829    1.8820   24.3439 
3758.70    6.1514  1066.5244    1.1376    1.8397   23.8547 
3758.80    6.0957  2338.7751    1.2183    2.0772   22.1918 
3758.90    5.6068  1785.0195    1.3029    2.3452   20.4210 
3759.00    5.5537   855.4939    1.4029    2.7343   18.2243 
3759.10    5.6459   384.1122    1.4818    3.0430   16.4691 
3759.20    5.6226   524.3707    1.4753    3.0260   16.5016 
3759.30    5.4125  1145.3888    1.4641    2.9684   16.8633 
3759.40    5.3008  2505.9902    1.4345    2.7486   18.5416 
3759.50    5.5860  1906.2299    1.4057    2.5805   19.6912 
3759.60    5.9300   622.3415    1.3805    2.6164   18.7463 
3759.70    5.8159   505.3341    1.3649    2.6314   18.2482 
3759.80    5.7492   622.9242    1.3878    2.5616   19.5535 
3759.90    5.9193  1341.3365    1.4054    2.5162   20.4590 
3760.00    6.8760  2182.8752    1.4020    2.5679   19.7673 
3760.10    7.3416  1249.2781    1.4017    2.6208   19.1364 
3760.20    7.2794   428.2439    1.4136    2.6778   18.7565 
3760.30    6.8871   906.3814    1.4245    2.7169   18.5506 
3760.40    7.2651  2767.8440    1.4307    2.6836   19.0444 
3760.50    7.1445  8408.9629    1.4369    2.6577   19.4594 
3760.60    6.1321 15926.6826    1.4436    2.6606   19.5656 
3760.70    5.6647 15999.4541    1.4482    2.6777   19.4773 
3760.80    5.8580  4147.6382    1.4446    2.7526   18.6000 
3760.90    5.7371  2085.9316    1.4391    2.8105   17.8667 
3761.00    6.3972  2617.3887    1.4260    2.8001   17.7098 
3761.10    7.1525  1555.8341    1.4232    2.8063   17.5919 
3761.20    7.0604  1548.7830    1.4620    2.8788   17.6315 
3761.30    6.8815   807.0024    1.4875    2.9197   17.7264 
3761.40    6.9601   567.8049    1.4593    2.8334   18.0415 
3761.50    6.3479   792.8607    1.4352    2.7380   18.5657 
3761.60    5.8712   637.5024    1.4275    2.6052   19.9298 
3761.70    5.9424   395.5366    1.4274    2.5210   20.8899 
3761.80    6.4025   482.2616    1.4583    2.6325   20.2255 
3761.90    6.5004   921.0390    1.4824    2.7305   19.5881 
3762.00    6.9459  2066.4670    1.4798    2.7745   19.0597 
3762.10    6.9809  2062.1123    1.4767    2.8226   18.4898 
3762.20    6.6394  1623.3561    1.4719    2.8867   17.7607 
3762.30    6.1425   822.3252    1.4667    2.9388   17.1431 
3762.40    5.9262   555.2732    1.4600    2.9430   16.9780 
3762.50    5.1457   817.7849    1.4590    2.9585   16.8145 
3762.60    4.5944   893.6488    1.4802    3.0193   16.6552 
3762.70    4.0659  1107.7512    1.5003    3.0754   16.5182 
3762.80    4.1493  1019.7995    1.5160    3.1132   16.4701 
3762.90    4.2694   579.2878    1.5286    3.1606   16.2915 
3763.00    4.0037  1202.1980    1.5289    3.2468   15.5926 
3763.10    4.1637  1829.3610    1.5281    3.3157   15.0165 
3763.20    4.1725  1814.9390    1.5233    3.3153   14.9386 
3763.30    4.1358  1067.4866    1.5169    3.3259   14.7538 
3763.40    4.1722  1003.5512    1.5045    3.3810   14.1423 
3763.50    4.6327   540.6577    1.4953    3.4356   13.5907 
3763.60    5.1360  1083.0098    1.4983    3.4890   13.2709 
3763.70    4.8413   744.7927    1.5014    3.5088   13.1918 
3763.80    5.0214   378.7726    1.5054    3.3932   14.0862 
3763.90    4.8690   369.3854    1.5109    3.2939   14.8970 
3764.00    4.7480   396.0098    1.5228    3.2597   15.3720 
3764.10    4.5355   424.0000    1.5352    3.2361   15.7695 
3764.20    4.4902   424.0000    1.5491    3.2552   15.8524 
3764.30    4.5501   424.0000    1.5580    3.2808   15.8009 
3764.40    3.8847   424.0000    1.5466    3.3318   15.2110 
3764.50    3.8158   424.0000    1.5423    3.3891   14.6953 
3764.60    3.5821   424.0000    1.5659    3.4724   14.4694 
3764.70    3.5169   424.0000    1.5865    3.5588   14.1829 
3764.80    3.8125   424.0000    1.5955    3.6592   13.6478 
3764.90    3.8040   424.0000    1.6024    3.7426   13.1959 
3765.00    4.3970   424.0000    1.6012    3.7585   13.0778 
3765.10    4.5925   424.0000    1.6036    3.7861   12.9405 
3765.20    4.5692   424.0000    1.6201    3.8603   12.7282 
3765.30    4.5180   424.0000    1.6364    3.9059   12.6867 
3765.40    4.3100   424.0000    1.6512    3.8367   13.3304 
3765.50    4.2003   424.0000    1.6629    3.7943   13.7611 
3765.60    4.0974   424.0000    1.6621    3.8585   13.3478 
3765.70    3.7982   424.0000    1.6625    3.9356   12.8839 
3765.80    3.7460   424.0000    1.6674    4.0660   12.2099 
3765.90    4.1937   424.0000    1.6711    4.1600   11.7247 
3766.00    4.2715   424.0000    1.6703    4.1089   11.9939 
3766.10    4.4578   424.0000    1.6694    4.0503   12.3088 
3766.20    4.2538   424.0000    1.6678    3.9624   12.8030 
3766.30    3.8636   424.0000    1.6650    3.8986   13.1360 
3766.40    3.7634   425.3463    1.6568    3.9322   12.8193 
3766.50    4.0091   430.4450    1.6508    3.9752   12.4822 
3766.60    3.6888   430.2049    1.6535    4.0565   12.0600 
