~Version information
VERS.                            2.00: CWLS LAS  -  VERSION 2.00
WRAP.                              NO: One line per depth step
~Well information
#MNEM.UNIT                  DATA TYPE  INFORMATION
#===.================================:==================
STRT.M                          6.500: First depth in file
STOP.M                       3766.600: Last depth in file
STEP.M                          0.100: Depth increment
NULL.                       -9999.00 : Null values
DATE.                       : LOG DATE
TIME.                           11:24: LOG TIME
WELL.                             F2: Well name
GRP.                                1: Group name
FLD.                    F: Field name
ISS.                тех.состояние Э\К: Well surveys
SRVC.                                : Service Company
~Curve information
#MNEM.UNIT                   API CODE   CURVE DESCRIPTION
#===.================================:==================
DEPT.M                               : Depth curve
GK  .MKR/H                           : :11 Гамма-активность, мкр./ч -   67.0 
LM  .                                : 10 Локатор муфт,  -   28.0 см
NKT2 .UE                             : :7 Малый зонд, усл.ед. -  230.0 см
NKT1 .UE                             : :8 Большой зонд, усл.ед. -  219.0 см
W   .UE                              : :8 Большой зонд, усл.ед. -  219.0 см
#
~Other information
#------------------ REMARKS AREA -----------------------
#=======================================================
# The file is generated by the program GeoTech-EditLog v2000.12
#Number of Curves = 5
~A Log Data Section
# ...
3597.70    7.2392   648.0000  -9999.00  -9999.00  -9999.00 
3597.80    6.9592  2301.0000  -9999.00  -9999.00  -9999.00 
3597.90    7.4292  3535.0000  -9999.00  -9999.00  -9999.00 
3598.00    7.2492  2527.0000  -9999.00  -9999.00  -9999.00 
3598.10    7.1992  2272.0000  -9999.00  -9999.00  -9999.00 
3598.20    6.5992  2430.0000  -9999.00  -9999.00  -9999.00 
3598.30    6.2092 10185.0000  -9999.00  -9999.00  -9999.00 
3598.40    7.0892 18644.0000  -9999.00  -9999.00  -9999.00 
3598.50    6.4292  7778.0000  -9999.00  -9999.00  -9999.00 
3598.60    6.7292   404.0000  -9999.00  -9999.00  -9999.00 
3598.70    6.8392   472.0000  -9999.00  -9999.00  -9999.00 
3598.80    6.8992   824.0000  -9999.00  -9999.00  -9999.00 
3598.90    8.2992  1564.0000  -9999.00  -9999.00  -9999.00 
3599.00    7.8392  1440.0000  -9999.00  -9999.00  -9999.00 
3599.10    7.7592  1536.0000  -9999.00  -9999.00  -9999.00 
3599.20    8.0992   488.0000  -9999.00  -9999.00  -9999.00 
3599.30    7.7692  1315.0000  -9999.00  -9999.00  -9999.00 
3599.40    7.4492  1668.0000  -9999.00  -9999.00  -9999.00 
3599.50    7.2092  1736.0000  -9999.00  -9999.00  -9999.00 
3599.60    7.0392   760.0000  -9999.00  -9999.00  -9999.00 
3599.70    7.7292   450.0000  -9999.00  -9999.00  -9999.00 
3599.80    7.9992   751.0000  -9999.00  -9999.00  -9999.00 
3599.90    8.0492  1453.0000  -9999.00  -9999.00  -9999.00 
3600.00    7.6192  1822.0000  -9999.00  -9999.00  -9999.00 
3600.10    8.1292  1526.0000  -9999.00  -9999.00  -9999.00 
3600.20    7.9892   446.0000  -9999.00  -9999.00  -9999.00 
3600.30    7.3392   575.0000  -9999.00  -9999.00  -9999.00 
3600.40    7.6292  1336.0000  -9999.00  -9999.00  -9999.00 
3600.50    7.8792  2138.0000  -9999.00  -9999.00  -9999.00 
3600.60    7.4492  1816.0000  -9999.00  -9999.00  -9999.00 
3600.70    8.0092   584.0000  -9999.00  -9999.00  -9999.00 
3600.80    8.2592   776.0000  -9999.00  -9999.00  -9999.00 
3600.90    7.6492  2368.0000  -9999.00  -9999.00  -9999.00 
3601.00    7.8592  3253.0000  -9999.00  -9999.00  -9999.00 
3601.10    7.5392  3184.0000  -9999.00    1.8797   24.4758 
3601.20    8.0692  2064.0000  -9999.00    1.8315   25.4136 
3601.30    7.3892   464.0000    1.1889    1.7906   26.3253 
3601.40    7.8792   733.0000    1.2064    1.7787   27.1235 
3601.50    8.2492  1913.0000    1.2237    1.7835   27.5697 
3601.60    8.2792  1352.0000    1.2401    1.8547   26.6181 
3601.70    7.5892   928.0000    1.2569    1.9146   25.9028 
3601.80    8.2892   448.0000    1.2750    1.9299   26.1355 
3601.90    8.4792   604.0000    1.2892    1.9635   25.9480 
3602.00    7.3392  1204.0000    1.2877    2.0700   24.0841 
3602.10    7.0592  1576.0000    1.2884    2.1685   22.4437 
3602.20    7.2392  1166.0000    1.2975    2.2338   21.7171 
3602.30    7.8592  1280.0000    1.3026    2.2777   21.1992 
3602.40    7.7792   864.0000    1.2912    2.2353   21.5231 
3602.50    7.2592  2396.0000    1.2833    2.1876   22.0315 
3602.60    7.5992  3389.0000    1.2889    2.1177   23.2821 
3602.70    7.7992  2384.0000    1.2890    2.0479   24.4088 
3602.80    7.3192   536.0000    1.2668    1.9774   25.0472 
3602.90    7.3892   456.0000    1.2439    1.9119   25.5795 
3603.00    7.8792   744.0000    1.2180    1.8667   25.6866 
3603.10    8.4492  1226.0000    1.2028    1.8336   25.8756 
3603.20    8.4192  1008.0000    1.2302    1.8493   26.3898 
3603.30    8.3092   908.0000    1.2552    1.8685   26.7599 
3603.40    7.7392  1092.0000    1.2702    1.9016   26.5489 
3603.50    8.0192  2421.0000    1.2762    1.9260   26.2455 
3603.60    8.0692  2744.0000    1.2464    1.9162   25.5694 
3603.70    7.4092  1260.0000    1.2252    1.9157   24.9654 
3603.80    7.7192  1008.0000    1.2378    1.9531   24.6457 
3603.90    7.3492  1280.0000    1.2466    1.9699   24.6018 
3604.00    7.1792  1597.0000    1.2405    1.9043   25.6587 
3604.10    7.2892  2140.0000    1.2364    1.8474   26.6199 
3604.20    7.3492   720.0000    1.2403    1.8257   27.1861 
3604.30    7.5392   505.0000    1.2455    1.8280   27.3199 
3604.40    7.8092   700.0000    1.2553    1.9261   25.7187 
3604.50    7.8692  1088.0000    1.2627    2.0088   24.3538 
3604.60    7.5092   994.0000    1.2604    2.0309   23.9149 
3604.70    7.0892   568.0000    1.2577    2.0365   23.7509 
3604.80    7.1392   512.0000    1.2528    1.9751   24.6982 
3604.90    7.5292   820.0000    1.2440    1.9162   25.5045 
3605.00    7.5292  1388.0000    1.2200    1.8669   25.7454 
3605.10    7.5692  2720.0000    1.1938    1.8275   25.7260 
3605.20    8.1592  1688.0000    1.1593    1.8280   24.6659 
3605.30    7.5392   472.0000    1.1304    1.8228   23.8856 
3605.40    8.1492   864.0000    1.1240    1.7945   24.2346 
3605.50    8.0592  1624.0000    1.1203    1.7559   24.9114 
3605.60    7.5192  1485.0000    1.1276    1.6761   26.9034 
3605.70    8.0892   464.0000    1.1325    1.6143   28.4151 
3605.80    8.1992   440.0000    1.1276    1.6247   28.0001 
3605.90    7.5092   476.0000    1.1217    1.6409   27.4242 
3606.00    7.6392   604.0000    1.1112    1.6800   26.2075 
3606.10    7.8392  1037.0000    1.1046    1.7050   25.4348 
3606.20    7.5392  1106.0000    1.1141    1.6731   26.4480 
3606.30    7.9992   488.0000    1.1236    1.6504   27.2610 
3606.40    7.8492   552.0000    1.1330    1.6641   27.2635 
3606.50    8.2292  1097.0000    1.1454    1.6839   27.2283 
3606.60    7.9692  2448.0000    1.1694    1.7277   27.0429 
3606.70    7.8592  2301.0000    1.1940    1.7803   26.7103 
3606.80    8.4592   900.0000    1.2211    1.8688   25.7778 
3606.90    7.9292   458.0000    1.2408    1.9377   25.0077 
3607.00    7.5092   736.0000    1.2303    1.9278   24.8877 
3607.10    7.5492   915.0000    1.2173    1.9153   24.7406 
3607.20    7.5292   609.0000    1.1943    1.8926   24.4874 
3607.30    6.9792   425.0000    1.1759    1.8753   24.2687 
3607.40    7.6192   440.0000    1.1759    1.8795   24.1907 
3607.50    7.9792   543.0000    1.1774    1.8894   24.0534 
3607.60    8.0992  1251.0000    1.1846    1.9220   23.6775 
3607.70    7.6292  1775.0000    1.1925    1.9464   23.4681 
3607.80    7.7092   814.0000    1.2035    1.9381   23.9303 
3607.90    8.0592   520.0000    1.2143    1.9187   24.6115 
3608.00    8.4392   804.0000    1.2250    1.8555   26.1648 
3608.10    8.0792  2000.0000    1.2327    1.8154   27.1746 
3608.20    7.9492  1496.0000    1.2285    1.8682   25.9984 
3608.30    8.4692   516.0000    1.2284    1.9123   25.1201 
3608.40    8.2592   396.0000    1.2451    1.9209   25.4445 
3608.50    7.6392   374.0000    1.2603    1.9372   25.5829 
3608.60    7.3592   586.0000    1.2696    1.9850   24.9807 
3608.70    6.5092   864.0000    1.2744    2.0202   24.4801 
3608.80    7.1692   355.0000    1.2614    2.0049   24.3845 
3608.90    6.7192   608.0000    1.2491    1.9799   24.4903 
3609.00    6.2992  1602.0000    1.2396    1.9164   25.3999 
3609.10    6.5392  6454.0000    1.2251    1.8601   26.0233 
3609.20    7.0192 17567.0000    1.1902    1.8332   25.4944 
3609.30    6.7192 18704.0000    1.1631    1.8180   24.9791 
3609.40    6.9692  1805.0000    1.1680    1.8495   24.5235 
3609.50    6.4092   769.0000    1.1753    1.8680   24.3938 
3609.60    7.1892  1470.0000    1.1927    1.8351   25.5618 
3609.70    7.2492  1816.0000    1.2064    1.8258   26.1713 
3609.80    7.0492   792.0000    1.2053    1.9119   24.5265 
3609.90    7.6292   445.0000    1.2056    1.9953   23.0107 
3610.00    7.6792   416.0000    1.2115    2.0676   22.0130 
3610.10    7.8292  1112.0000    1.2162    2.1022   21.6056 
3610.20    7.8692   695.0000    1.2162    1.9858   23.5640 
3610.30    7.9092   897.0000    1.2163    1.8923   25.1422 
3610.40    7.6292   564.0000    1.2168    1.8911   25.1800 
3610.50    7.6392   556.0000    1.2165    1.8857   25.2769 
3610.60    7.5192  1691.0000    1.2132    1.8633   25.6102 
3610.70    8.0492  2244.0000    1.2103    1.8387   26.0085 
3610.80    8.1692  2108.0000    1.2091    1.8044   26.6748 
3610.90    7.6792   684.0000    1.2061    1.7812   27.0601 
3611.00    7.5792   447.0000    1.1961    1.8018   26.3239 
