~Version information
VERS.                            2.00: CWLS LAS  -  VERSION 2.00
WRAP.                              NO: One line per depth step
~Well information
#MNEM.UNIT                  DATA TYPE  INFORMATION
#===.================================:==================
STRT.M                          6.500: First depth in file
STOP.M                       3766.600: Last depth in file
STEP.M                          0.100: Depth increment
NULL.                       -9999.00 : Null values
DATE.                       : LOG DATE
TIME.                           11:24: LOG TIME
WELL.                             F2: Well name
GRP.                                1: Group name
FLD.                    F: Field name
ISS.                тех.состояние Э\К: Well surveys
SRVC.                                : Service Company
~Curve information
#MNEM.UNIT                   API CODE   CURVE DESCRIPTION
#===.================================:==================
DEPT.M                               : Depth curve
GK  .MKR/H                           : :11 Гамма-активность, мкр./ч -   67.0 
LM  .                                : 10 Локатор муфт,  -   28.0 см
NKT2 .UE                             : :7 Малый зонд, усл.ед. -  230.0 см
NKT1 .UE                             : :8 Большой зонд, усл.ед. -  219.0 см
W   .UE                              : :8 Большой зонд, усл.ед. -  219.0 см
#
~Other information
#------------------ REMARKS AREA -----------------------
#=======================================================
# The file is generated by the program GeoTech-EditLog v2000.12
#Number of Curves = 5
~A Log Data Section
# ...
3704.90   13.0672  3528.6633    1.2020    1.7086   28.5502 
3705.00   13.0825  1836.0293    1.2070    1.7885   26.9958 
3705.10   12.7330   932.5269    1.2106    1.8571   25.6533 
3705.20   11.8606  2640.6707    1.2089    1.8794   25.1747 
3705.30   11.2060  5105.1294    1.2031    1.8976   24.6558 
3705.40   11.9391  4271.8438    1.1813    1.8995   23.9802 
3705.50   12.6992  2109.5354    1.1622    1.8847   23.7102 
3705.60   12.6431  1237.6097    1.1541    1.8029   25.0543 
3705.70   12.9375  1034.4951    1.1466    1.7357   26.1368 
3705.80   14.8939  2831.9805    1.1416    1.7263   26.1735 
3705.90   15.6662  3852.3318    1.1393    1.7279   26.0719 
3706.00   15.5416  2914.3472    1.1479    1.7730   25.4191 
3706.10   15.9746  1684.9561    1.1563    1.7949   25.2490 
3706.20   15.4648   914.7219    1.1636    1.7237   27.0122 
3706.30   14.9065  2634.0684    1.1700    1.6709   28.3435 
3706.40   13.1447  5999.5220    1.1727    1.6928   27.9302 
3706.50   12.0015 12236.5137    1.1748    1.6989   27.8725 
3706.60   12.1231 18799.1602    1.1751    1.6425   29.2323 
3706.70   11.7933 15068.4658    1.1659    1.6112   29.6980 
3706.80   12.7582  2643.3179    1.1190    1.6807   26.5490 
3706.90   13.5700  4952.9414    1.0857    1.7340   24.2172 
3707.00   15.1059  3568.0000    1.1070    1.7222   25.1516 
3707.10   15.0762   941.4244    1.1272    1.7056   26.1624 
3707.20   14.4935   601.4000    1.1426    1.6705   27.4665 
3707.30   14.9405   435.8093    1.1576    1.6410   28.6304 
3707.40   15.4939   679.2585    1.1704    1.6347   29.2209 
3707.50   15.6571  1442.6185    1.1802    1.6249   29.7962 
3707.60   16.1042  2201.3318    1.1780    1.6014   30.3180 
3707.70   16.7802  1934.0829    1.1777    1.5885   30.6346 
3707.80   16.6955  1436.5721    1.1851    1.6188   30.1245 
3707.90   15.8142   759.1024    1.1885    1.6473   29.5272 
3708.00   16.8326  1828.2274    1.1753    1.6687   28.5830 
3708.10   16.7607  2961.4780    1.1674    1.6892   27.8308 
3708.20   16.0715  3085.2097    1.1801    1.7065   27.8560 
3708.30   15.8257  1332.4303    1.1904    1.7164   27.9721 
3708.40   15.4584   615.1609    1.1913    1.6967   28.4516 
3708.50   15.2878   582.3546    1.1898    1.6793   28.8045 
3708.60   14.5052  1206.2585    1.1795    1.6709   28.6569 
3708.70   15.1147  2072.2000    1.1733    1.6893   28.0862 
3708.80   15.4951  1832.7408    1.1838    1.8164   25.7952 
3708.90   16.1154   712.4146    1.1907    1.9018   24.2376 
3709.00   15.4518   642.2812    1.1834    1.8204   25.6102 
3709.10   16.6972  1469.1757    1.1801    1.7525   26.8501 
3709.20   18.0375  2889.8123    1.1927    1.7391   27.5438 
3709.30   19.7271  3497.9170    1.1999    1.7245   28.0951 
3709.40   20.0741  2149.1902    1.1855    1.7049   28.0699 
3709.50   19.6757   515.5648    1.1724    1.6948   27.8740 
3709.60   18.9772   647.9122    1.1639    1.7224   26.9949 
3709.70   18.4195  1241.2781    1.1595    1.7479   26.2879 
3709.80   17.4724  1733.4059    1.1708    1.7659   26.2691 
3709.90   17.1665   675.0585    1.1834    1.7829   26.3097 
3710.00   17.6573   670.8582    1.2011    1.7961   26.5866 
3710.10   18.6983   618.6780    1.2125    1.8011   26.8363 
3710.20   19.6164   918.0073    1.1985    1.7739   26.9738 
3710.30   20.9467  1504.9634    1.1900    1.7501   27.2164 
3710.40   20.4591  1270.3025    1.2042    1.7406   27.8783 
3710.50   21.1347   819.7751    1.2128    1.7334   28.3107 
3710.60   20.6956   930.4780    1.1992    1.7353   27.8335 
3710.70   20.3723  1733.0756    1.1944    1.7401   27.5675 
3710.80   20.9859  3199.9976    1.2243    1.7566   28.1535 
3710.90   20.8252  3051.6731    1.2465    1.7641   28.6988 
3711.00   20.0624  1307.3643    1.2380    1.7354   29.0804 
3711.10   19.8615   704.8000    1.2336    1.7253   29.1788 
3711.20   20.6703   624.3098    1.2454    1.7893   28.1431 
3711.30   20.8762  1188.3276    1.2537    1.8403   27.2836 
3711.40   22.0995  1903.1415    1.2478    1.8387   27.1389 
3711.50   23.0642  1986.3667    1.2408    1.8444   26.8171 
3711.60   25.2430   979.9025    1.2292    1.8796   25.7853 
3711.70   28.5400   662.8732    1.2246    1.9217   24.8419 
3711.80   33.0576  2082.4548    1.2476    1.9920   24.2453 
3711.90   33.9829  4746.4292    1.2804    2.0750   23.7173 
3712.00   31.0060  4739.4985    1.3523    2.2083   23.4640 
3712.10   30.9120  2984.1609    1.4197    2.3381   23.1710 
3712.20   29.4127   710.9683    1.4687    2.4521   22.7225 
3712.30   28.4775   595.8044    1.5026    2.5275   22.4613 
3712.40   27.3965  1472.4390    1.4761    2.4473   22.9540 
3712.50   29.2899  2996.0464    1.4304    2.3432   23.3444 
3712.60   28.4201  2183.5659    1.3075    2.1428   23.3321 
3712.70   29.3467   971.5073    1.2055    1.9562   23.7169 
3712.80   30.3885   484.6822    1.1859    1.8230   25.7142 
3712.90   31.7483   785.0293    1.1772    1.7522   26.8454 
3713.00   29.1632  1893.8289    1.2120    1.9305   24.5179 
3713.10   17.7715  2602.6245    1.2552    2.1125   22.4688 
3713.20   15.3471  1985.2219    1.3315    2.3074   21.5581 
3713.30   14.9146   679.0734    1.3946    2.4463   21.1146 
3713.40   14.0502   862.0341    1.4042    2.3589   22.5487 
3713.50   12.9026  2295.1882    1.4016    2.2522   24.0608 
3713.60   13.2943  3569.4438    1.3508    2.0670   25.9024 
3713.70   13.2950  2530.7903    1.3036    1.9145   27.2669 
3713.80   12.5048  1301.7115    1.2704    1.8930   26.7160 
3713.90   12.5767   525.3658    1.2427    1.8808   26.1482 
3714.00   12.9014   968.3325    1.2374    1.9058   25.5139 
3714.10   13.0016  2009.7561    1.2325    1.9262   24.9825 
3714.20   12.9238  2239.2097    1.2296    1.9278   24.8693 
3714.30   12.2902  1988.9291    1.2278    1.9244   24.8806 
3714.40   12.2844  1757.0927    1.2302    1.9011   25.3910 
3714.50   13.2658   869.4915    1.2329    1.8954   25.5845 
3714.60   12.7534  2443.5806    1.2364    1.9597   24.5164 
3714.70   11.7604  4109.5708    1.2428    2.0156   23.6854 
3714.80   11.3392  3319.3105    1.2609    2.0378   23.8049 
3714.90   11.3091   654.5756    1.2729    2.0229   24.4730 
3715.00   11.7515   550.4401    1.2605    1.8599   27.3289 
3715.10   12.1644   945.7561    1.2495    1.7404   29.3450 
3715.20   12.8103  1216.0488    1.2445    1.7959   27.9779 
3715.30   12.6892   980.7726    1.2392    1.8320   27.0203 
3715.40   12.8526   637.2292    1.2325    1.7896   27.7142 
3715.50   13.8372   620.9144    1.2232    1.7605   28.0452 
3715.60   14.7733  1161.1805    1.2037    1.7843   26.9327 
3715.70   15.8881  2713.4097    1.1878    1.8113   25.8736 
3715.80   15.7244  2352.0488    1.1856    1.8520   25.0175 
3715.90   14.8261  1659.4342    1.1902    1.9031   24.1882 
3716.00   14.7724   888.3325    1.2214    1.9954   23.4678 
3716.10   13.8575   829.8634    1.2497    2.0708   22.9560 
3716.20   12.4426  1780.9438    1.2658    2.0770   23.2852 
3716.30   12.2825  1762.6699    1.2791    2.0808   23.5819 
3716.40   12.2983  1071.3756    1.2813    2.0745   23.7455 
3716.50   13.4529   769.4597    1.2803    2.0620   23.9271 
3716.60   14.6767   592.6097    1.2664    2.0249   24.1827 
3716.70   15.8053  1460.9073    1.2466    1.9641   24.7462 
3716.80   17.1756  3541.3789    1.2029    1.8073   26.5639 
3716.90   16.5620  5450.5952    1.1726    1.7012   27.7599 
3717.00   16.6635  9962.4648    1.1962    1.7976   26.4718 
3717.10   15.8172 10912.6338    1.2231    1.8983   25.2504 
3717.20   13.8919  9815.3877    1.2630    2.0148   24.3106 
3717.30   12.0742 17889.0879    1.3078    2.1385   23.4216 
3717.40   10.2055 12924.4053    1.3716    2.2900   22.7456 
3717.50    8.8770   443.0660    1.4348    2.4373   22.1391 
3717.60    8.6448   594.3024    1.4966    2.5692   21.8023 
3717.70    7.6783   506.3927    1.5496    2.7580   20.8310 
3717.80    6.6688   803.1809    1.5687    3.1793   17.2789 
3717.90    5.2840  1514.6488    1.5947    3.5687   14.2603 
3718.00    4.6782  1902.1002    1.6483    3.8298   13.3776 
3718.10    4.8676   862.4731    1.6955    4.0840   12.4898 
3718.20    4.5472   627.8342    1.7167    4.3074   11.5922 
