~Version information
VERS.                            2.00: CWLS LAS  -  VERSION 2.00
WRAP.                              NO: One line per depth step
~Well information
#MNEM.UNIT                  DATA TYPE  INFORMATION
#===.================================:==================
STRT.M                          6.500: First depth in file
STOP.M                       3766.600: Last depth in file
STEP.M                          0.100: Depth increment
NULL.                       -9999.00 : Null values
DATE.                       : LOG DATE
TIME.                           11:24: LOG TIME
WELL.                             F2: Well name
GRP.                                1: Group name
FLD.                    F: Field name
ISS.                тех.состояние Э\К: Well surveys
SRVC.                                : Service Company
~Curve information
#MNEM.UNIT                   API CODE   CURVE DESCRIPTION
#===.================================:==================
DEPT.M                               : Depth curve
GK  .MKR/H                           : :11 Гамма-активность, мкр./ч -   67.0 
LM  .                                : 10 Локатор муфт,  -   28.0 см
NKT2 .UE                             : :7 Малый зонд, усл.ед. -  230.0 см
NKT1 .UE                             : :8 Большой зонд, усл.ед. -  219.0 см
W   .UE                              : :8 Большой зонд, усл.ед. -  219.0 см
#
~Other information
#------------------ REMARKS AREA -----------------------
#=======================================================
# The file is generated by the program GeoTech-EditLog v2000.12
#Number of Curves = 5
~A Log Data Section
# ...
3611.10    7.5092   624.0000    1.1929    1.8227   25.7937 
3611.20    6.8792   800.0000    1.2174    1.8448   26.0940 
3611.30    7.1492   434.0000    1.2415    1.8817   26.1103 
3611.40    7.0392   552.0000    1.2637    1.9776   24.9876 
3611.50    7.4992   483.0000    1.2796    2.0390   24.3101 
3611.60    7.3592   890.0000    1.2702    1.9642   25.3994 
3611.70    7.4792  1547.0000    1.2671    1.9222   26.0726 
3611.80    7.8692   969.0000    1.2893    2.0125   25.0691 
3611.90    7.4092  1147.0000    1.3096    2.0800   24.4147 
3612.00    7.2992   468.0000    1.3221    2.0567   25.1544 
3612.10    7.1892   800.0000    1.3323    2.0497   25.5565 
3612.20    7.0392  2320.0000    1.3333    2.1077   24.6031 
3612.30    7.4892   402.0000    1.3346    2.1499   23.9189 
3612.40    7.1992   416.0000    1.3366    2.1286   24.3211 
3612.50    7.3492   456.0000    1.3370    2.1013   24.7877 
3612.60    6.9792   726.0000    1.3307    2.0499   25.5169 
3612.70    6.9192   544.0000    1.3225    2.0116   25.9604 
3612.80    7.0492   704.0000    1.3059    2.0258   25.2526 
3612.90    7.3792   574.0000    1.2901    2.0391   24.5823 
3613.00    7.6492   494.0000    1.2769    2.0485   24.0632 
3613.10    7.1792  1183.0000    1.2663    2.0610   23.5664 
3613.20    7.4592  2542.0000    1.2661    2.0853   23.1645 
3613.30    7.7892  2854.0000    1.2729    2.1141   22.8771 
3613.40    7.1892   807.0000    1.3077    2.1605   23.0520 
3613.50    7.1392   448.0000    1.3319    2.1926   23.1768 
3613.60    7.0492   688.0000    1.3144    2.1685   23.1034 
3613.70    6.9992   958.0000    1.3034    2.1468   23.1581 
3613.80    7.3592   730.0000    1.3177    2.1343   23.7324 
3613.90    7.0892   468.0000    1.3237    2.1247   24.0432 
3614.00    6.7092   446.0000    1.2965    2.1265   23.3019 
3614.10    6.9392   752.0000    1.2745    2.1334   22.6195 
3614.20    7.4992  1104.0000    1.2734    2.1603   22.1806 
3614.30    7.5992   872.0000    1.2781    2.1921   21.8200 
3614.40    8.0592  1038.0000    1.3063    2.2434   21.7765 
3614.50    7.4492   678.0000    1.3212    2.2600   21.9232 
3614.60    7.5192   751.0000    1.2836    2.1382   22.8299 
3614.70    7.3292  2320.0000    1.2446    2.0226   23.6248 
3614.80    7.4892  1810.0000    1.2000    1.9307   23.9771 
3614.90    7.0892  1000.0000    1.1635    1.8445   24.4898 
3615.00    7.1692   367.0000    1.1598    1.7815   25.6412 
3615.10    7.1592   452.0000    1.1621    1.7297   26.7640 
3615.20    7.2092   766.0000    1.1886    1.7234   27.7587 
3615.30    8.1392  1600.0000    1.2108    1.7429   28.0922 
3615.40    7.6792   898.0000    1.2156    1.8660   25.7718 
3615.50    7.4292   808.0000    1.2252    1.9700   23.9816 
3615.60    7.0692   584.0000    1.2544    1.9992   24.2845 
3615.70    7.0892  1759.0000    1.2778    2.0307   24.3962 
3615.80    7.1292  2160.0000    1.2789    2.0719   23.7351 
3615.90    7.4092  1408.0000    1.2808    2.1062   23.2127 
3616.00    7.5592   676.0000    1.2861    2.1130   23.2451 
3616.10    7.1192   490.0000    1.2932    2.1437   22.9755 
3616.20    7.2092   580.0000    1.3069    2.2692   21.5011 
3616.30    7.0992  1032.0000    1.3161    2.3487   20.5752 
3616.40    7.8092   792.0000    1.3070    2.2430   21.8577 
3616.50    6.9692   409.0000    1.3021    2.1648   22.8460 
3616.60    6.4392   624.0000    1.3139    2.1957   22.6731 
3616.70    7.0392  1396.0000    1.3208    2.2076   22.6751 
3616.80    6.7792  2296.0000    1.3086    2.1424   23.3857 
3616.90    6.8792  3358.0000    1.3000    2.1019   23.8006 
3617.00    6.6092  1207.0000    1.3059    2.1602   23.0347 
3617.10    6.8592   628.0000    1.3155    2.2115   22.4740 
3617.20    6.7992   672.0000    1.3395    2.2338   22.7411 
3617.30    6.8592  1016.0000    1.3571    2.2523   22.9023 
3617.40    6.4292   642.0000    1.3483    2.2556   22.6374 
3617.50    6.4592   444.0000    1.3370    2.2402   22.5959 
3617.60    6.8392   674.0000    1.3151    2.1501   23.4449 
3617.70    7.2392   647.0000    1.2952    2.0876   23.9089 
3617.80    7.3692  1152.0000    1.2830    2.1363   22.8190 
3617.90    7.4292  2629.0000    1.2720    2.1735   21.9396 
3618.00    7.0892  2408.0000    1.2655    2.1649   21.9019 
3618.10    7.2492   580.0000    1.2610    2.1680   21.7468 
3618.20    7.3892   448.0000    1.2650    2.2179   21.1245 
3618.30    7.3492   667.0000    1.2711    2.2451   20.8916 
3618.40    7.1292   726.0000    1.2860    2.1809   22.2229 
3618.50    7.2592   647.0000    1.2984    2.1347   23.2199 
3618.60    7.0692   620.0000    1.3009    2.1597   22.8964 
3618.70    6.4692   459.0000    1.3016    2.1820   22.5680 
3618.80    6.5292   969.0000    1.2945    2.1935   22.2159 
3618.90    6.2592  1545.0000    1.2979    2.2220   21.8815 
3619.00    6.4692  1632.0000    1.3428    2.3181   21.6180 
3619.10    6.4492  1242.0000    1.3789    2.3959   21.3985 
3619.20    6.0592   448.0000    1.3789    2.3990   21.3571 
3619.30    5.8692   618.0000    1.3733    2.3686   21.6812 
3619.40    5.3092  1048.0000    1.3452    2.2039   23.4673 
3619.50    6.2092  1324.0000    1.3202    2.0694   24.8748 
3619.60    6.4392   958.0000    1.3071    2.0538   24.7896 
3619.70    6.3292   750.0000    1.2885    2.0368   24.5770 
3619.80    6.5292  3892.0000    1.2475    2.0134   23.8466 
3619.90    6.2992 13099.0000    1.2143    1.9854   23.4160 
3620.00    6.4992 18686.0000    1.2120    1.9386   24.1832 
3620.10    7.5492  8150.0000    1.2162    1.9135   24.7459 
3620.20    7.1392   647.0000    1.2464    1.9760   24.4837 
3620.30    7.4492   744.0000    1.2711    2.0347   24.1430 
3620.40    6.8192  2049.0000    1.2735    2.0779   23.4909 
3620.50    7.4892  2305.0000    1.2790    2.1096   23.1143 
3620.60    7.2992  1104.0000    1.2976    2.0958   23.8317 
3620.70    7.0892   637.0000    1.3164    2.1082   24.1462 
3620.80    6.9392   876.0000    1.3361    2.2266   22.8329 
3620.90    7.0492  2314.0000    1.3584    2.3422   21.6575 
3621.00    6.5692  3728.0000    1.3905    2.4458   21.0346 
3621.10    6.6592  3062.0000    1.4170    2.5209   20.6561 
3621.20    6.5592  1568.0000    1.4213    2.4811   21.2598 
3621.30    6.6692   580.0000    1.4214    2.4505   21.6511 
3621.40    6.7192  3302.0000    1.4049    2.4575   21.1871 
3621.50    6.4592  2935.0000    1.3963    2.4775   20.7394 
3621.60    6.7092  2112.0000    1.4192    2.5501   20.3512 
3621.70    7.0292   636.0000    1.4439    2.6159   20.0844 
3621.80    6.7692   678.0000    1.4763    2.6554   20.3063 
3621.90    6.7192  2144.0000    1.5100    2.7463   20.0528 
3622.00    5.9992  2171.0000    1.5490    3.0427   17.9031 
3622.10    5.8992  1640.0000    1.5851    3.3158   15.9912 
3622.20    5.9092   564.0000    1.6092    3.4929   15.0542 
3622.30    6.6192   720.0000    1.6214    3.6044   14.4115 
3622.40    5.3092  2132.0000    1.5856    3.4518   14.9549 
3622.50    4.9792  3282.0000    1.5424    3.2479   15.9169 
3622.60    5.4992  1112.0000    1.4690    2.8366   18.5595 
3622.70    5.0592   952.0000    1.4083    2.4900   20.8574 
3622.80    5.2092   492.0000    1.3976    2.4017   21.7879 
3622.90    5.9092  1160.0000    1.3846    2.3225   22.5501 
3623.00    6.6192  3100.0000    1.3627    2.2796   22.6388 
3623.10    6.6692  2216.0000    1.3336    2.2268   22.6974 
3623.20    6.7092  1136.0000    1.2763    2.1352   22.6350 
3623.30    6.4592   464.0000    1.2388    2.0511   23.0039 
3623.40    7.1192  1348.0000    1.2809    1.9983   25.0985 
3623.50    7.1492  2614.0000    1.3212    1.9846   26.4604 
3623.60    6.9592  1104.0000    1.3545    2.1265   24.9172 
3623.70    6.6892   475.0000    1.3807    2.2560   23.4467 
3623.80    6.4792   432.0000    1.3788    2.3364   22.2528 
3623.90    5.8592   856.0000    1.3714    2.3875   21.3386 
3624.00    5.5692   863.0000    1.3416    2.3211   21.5431 
3624.10    5.5892  1528.0000    1.3131    2.2576   21.7422 
3624.20    5.9192  1560.0000    1.2901    2.2063   21.9172 
3624.30    6.4492   696.0000    1.2752    2.1490   22.4173 
3624.40    6.9292   756.0000    1.2925    2.0684   24.2159 
