~Version information
VERS.                            2.00: CWLS LAS  -  VERSION 2.00
WRAP.                              NO: One line per depth step
~Well information
#MNEM.UNIT                  DATA TYPE  INFORMATION
#===.================================:==================
STRT.M                          6.500: First depth in file
STOP.M                       3766.600: Last depth in file
STEP.M                          0.100: Depth increment
NULL.                       -9999.00 : Null values
DATE.                       : LOG DATE
TIME.                           11:24: LOG TIME
WELL.                             F2: Well name
GRP.                                1: Group name
FLD.                    F: Field name
ISS.                тех.состояние Э\К: Well surveys
SRVC.                                : Service Company
~Curve information
#MNEM.UNIT                   API CODE   CURVE DESCRIPTION
#===.================================:==================
DEPT.M                               : Depth curve
GK  .MKR/H                           : :11 Гамма-активность, мкр./ч -   67.0 
LM  .                                : 10 Локатор муфт,  -   28.0 см
NKT2 .UE                             : :7 Малый зонд, усл.ед. -  230.0 см
NKT1 .UE                             : :8 Большой зонд, усл.ед. -  219.0 см
W   .UE                              : :8 Большой зонд, усл.ед. -  219.0 см
#
~Other information
#------------------ REMARKS AREA -----------------------
#=======================================================
# The file is generated by the program GeoTech-EditLog v2000.12
#Number of Curves = 5
~A Log Data Section
# ...
3731.70    5.4745  1427.9318    1.7353    4.6989    9.9746 
3731.80    5.9624  1383.7065    1.6869    4.2557   11.5883 
3731.90    5.6852   529.6390    1.6254    3.7820   13.4467 
3732.00    6.3749   503.5844    1.5124    3.1880   16.2773 
3732.10    6.9206   598.1171    1.4240    2.7041   18.6790 
3732.20    7.3537   596.4976    1.4354    2.6665   19.3365 
3732.30    7.1948   456.4597    1.4412    2.6398   19.7549 
3732.40    7.3214   491.9219    1.4247    2.6573   19.2108 
3732.50    7.1979   524.5183    1.4192    2.6924   18.7090 
3732.60    6.4834  1278.1268    1.4577    2.7985   18.3699 
3732.70    5.3551  3222.5806    1.5078    2.9351   17.9751 
3732.80    4.4436  2907.9805    1.6045    3.1968   17.3492 
3732.90    4.3457   856.2634    1.6873    3.4916   16.3677 
3733.00    4.4723   524.2983    1.7141    3.9176   13.9694 
3733.10    3.6168   449.1317    1.7350    4.2794   11.9347 
3733.20    3.2680   694.0293    1.7317    4.3805   11.3794 
3733.30    3.8072  1213.7360    1.7137    4.4020   11.0458 
3733.40    4.2784  1045.9805    1.6373    4.1047   11.6044 
3733.50    4.1683   791.4474    1.5691    3.8077   12.3418 
3733.60    5.0980   591.9512    1.5328    3.5085   13.8005 
3733.70    6.2981  1097.4025    1.4948    3.1946   15.5305 
3733.80    6.5727  1349.8827    1.4500    2.8171   18.3805 
3733.90    7.0558   722.9268    1.4077    2.5028   20.6717 
3734.00    6.8739   765.7164    1.3755    2.4412   20.7276 
3734.10    7.4913   588.6537    1.3400    2.3579   21.0304 
3734.20    6.7225   991.5024    1.2918    2.1885   22.3172 
3734.30    6.6155  2839.1785    1.2244    1.9543   24.9704 
3734.40    5.3334  4321.5024    1.0801    1.4627   33.0766 
3734.50    4.4225  3530.2935    0.9556    1.0681   39.1584 
3734.60    4.1452   536.4976    0.9083    1.0556   37.2414 
3734.70    3.3672   579.8732    0.8715    1.0386   36.0965 
3734.80    2.6000  1132.2299    0.8761    1.0028   38.0639 
3734.90    1.6121  2130.3999    0.8783    0.9798   39.2826 
3735.00    1.4492  2933.6553    0.8707    1.0077   37.5112 
3735.10    1.4245  1394.9609    0.8664    1.0173   36.8556 
3735.20    1.3103   782.4268    0.8750    0.9539   40.6711 
3735.30    1.2181  1665.2372    0.8808    0.9046   43.5638 
3735.40    1.2357  2417.1511    0.8747    0.9126   42.7282 
3735.50    1.1847  2268.1760    0.8704    0.9151   42.3208 
3735.60    1.2208   787.2585    0.8727    0.8959   43.6162 
3735.70    1.4392   512.4561    0.8737    0.8770   44.8262 
3735.80    1.5547   617.3912    0.8694    0.8593   45.7054 
3735.90    1.5410  1560.3268    0.8638    0.8570   45.5734 
3736.00    1.8315  3317.0955    0.8529    0.9169   41.4066 
3736.10    2.0488  3259.9609    0.8476    0.9620   38.4180 
3736.20    2.1827   909.9122    0.8647    0.9477   40.1785 
3736.30    1.8648   530.2299    0.8775    0.9352   41.5928 
3736.40    2.1871   806.9073    0.8729    0.9302   41.6050 
3736.50    2.8851  2077.8093    0.8768    0.9366   41.4916 
3736.60    4.0462  3215.6099    0.9144    0.9887   40.8761 
3736.70    5.0269  2234.9170    0.9636    1.0853   39.2820 
3736.80    5.2937  1284.1614    1.0595    1.3635   33.7051 
3736.90    5.7346   546.2537    1.1534    1.6440   28.6152 
3737.00    6.7373   840.9438    1.2388    1.9334   25.4805 
3737.10    7.5180   969.7268    1.3044    2.1557   23.0498 
3737.20    7.2412   857.3512    1.2903    2.1067   23.4642 
3737.30    7.7281   778.4108    1.2797    2.0707   23.7651 
3737.40    7.6129   648.7902    1.2835    2.0864   23.6080 
3737.50    7.2647   814.5648    1.2797    2.0898   23.4485 
3737.60    6.7717  2005.2537    1.2458    2.0447   23.2779 
3737.70    6.1647  2752.4194    1.2108    1.9775   23.5002 
3737.80    6.4915  2288.6797    1.1710    1.8207   25.3159 
3737.90    6.7249   417.3268    1.1364    1.6858   26.8938 
3738.00    6.6924   578.0880    1.1228    1.6388   27.5189 
3738.10    6.3421  1732.0878    1.1120    1.6033   27.9708 
3738.20    6.2103  3768.3123    1.1129    1.6149   27.7250 
3738.30    6.3882  3805.1931    1.1259    1.6493   27.3824 
3738.40    6.8020  2997.6682    1.1877    1.7752   26.6551 
3738.50    7.2924   492.2201    1.2361    1.8820   25.9282 
3738.60    6.8452   551.5220    1.2316    1.9140   25.1938 
3738.70    6.4849  1078.5220    1.2205    1.9030   25.1645 
3738.80    5.9590  2253.9268    1.1831    1.7180   27.9896 
3738.90    5.4261  2639.8342    1.1492    1.5688   30.1399 
3739.00    5.6104  2460.7285    1.1292    1.5625   29.5922 
3739.10    5.7542  3191.9805    1.1301    1.5812   29.1483 
3739.20    5.1381  8906.7021    1.2140    1.6997   29.1251 
3739.30    5.2171 18523.9609    1.2880    1.8374   28.5098 
3739.40    5.6696 14922.5850    1.3213    2.0507   25.5266 
3739.50    5.9115   604.4841    1.3512    2.2429   22.9172 
3739.60    6.3141   423.3366    1.3678    2.3534   21.7660 
3739.70    6.6778   824.4976    1.3768    2.4385   20.7916 
3739.80    7.4982  2206.0930    1.3559    2.4223   20.5204 
3739.90    7.7980  3005.0049    1.3436    2.4265   20.1927 
3740.00    7.8148  2157.5110    1.3657    2.5123   19.6404 
3740.10    8.0182   441.7951    1.3833    2.5731   19.2901 
3740.20    7.9316   472.1927    1.3829    2.5337   19.7529 
3740.30    7.5214   723.6479    1.3829    2.5232   19.8892 
3740.40    7.4664  1679.8341    1.3842    2.6291   18.7149 
3740.50    7.1869  2857.6382    1.3873    2.6927   18.0624 
3740.60    7.0590  2053.8733    1.3980    2.5883   19.4832 
3740.70    7.3892   603.5098    1.4048    2.4919   20.7493 
3740.80    7.4748   473.8484    1.3960    2.4265   21.4053 
3740.90    7.6279   934.9464    1.3852    2.3762   21.8131 
3741.00    7.9336  2103.6675    1.3660    2.3863   21.2296 
3741.10    7.8316  2892.1560    1.3531    2.3973   20.7823 
3741.20    7.8582  1996.8292    1.3659    2.4120   20.8850 
3741.30    7.7615   796.1052    1.3738    2.4290   20.8491 
3741.40    7.8248   585.5366    1.3624    2.4552   20.2576 
3741.50    6.9669   983.9609    1.3526    2.4764   19.7664 
3741.60    6.6747   924.5073    1.3491    2.4779   19.6689 
3741.70    6.6259  1267.1366    1.3487    2.4911   19.5034 
3741.80    6.6026  1543.6479    1.3608    2.5515   19.0602 
3741.90    6.7923   629.3463    1.3734    2.5966   18.8057 
3742.00    6.3837  1412.7848    1.3880    2.5806   19.3047 
3742.10    6.6272  3033.9951    1.3967    2.5640   19.6852 
3742.20    6.5116  2517.5659    1.3820    2.5452   19.5876 
3742.30    6.0427   535.2861    1.3702    2.5258   19.5602 
3742.40    6.3615   429.6195    1.3699    2.5042   19.8144 
3742.50    5.4245   710.4401    1.3754    2.5103   19.8732 
3742.60    4.6266  1566.4683    1.4043    2.6267   19.1531 
3742.70    4.0992  2571.9756    1.4333    2.7419   18.4678 
3742.80    4.1526  2641.8875    1.4627    2.8538   17.9144 
3742.90    4.3706   420.9756    1.4836    2.9418   17.4342 
3743.00    4.3568   496.4988    1.4700    2.9346   17.2470 
3743.10    3.9831   864.7219    1.4613    2.9482   16.9617 
3743.20    4.1204  2068.7610    1.4718    3.0451   16.2876 
3743.30    3.8736  3770.7383    1.4808    3.0978   15.9887 
3743.40    3.6339  3318.9854    1.4837    2.9724   17.1973 
3743.50    3.6970   932.5257    1.4899    2.8833   18.1273 
3743.60    3.6214   632.4439    1.5087    2.9372   17.9578 
3743.70    3.7313  1118.7317    1.5214    2.9872   17.7163 
3743.80    4.1381  1768.9095    1.5100    3.0222   17.1805 
3743.90    4.3092  2537.1511    1.5011    3.0253   17.0006 
3744.00    4.2892  2365.4817    1.5021    2.9006   18.2411 
3744.10    4.2932   803.9122    1.4996    2.7896   19.2881 
3744.20    4.6912   665.8391    1.4826    2.7345   19.5481 
3744.30    5.2381  1314.8949    1.4652    2.6914   19.6678 
3744.40    5.6426  2048.1074    1.4468    2.6971   19.2244 
3744.50    6.5070  2343.4670    1.4206    2.6630   19.0847 
3744.60    6.5656  2156.4585    1.3626    2.4699   20.1551 
3744.70    5.8983  1108.9951    1.2939    2.2318   21.9670 
3744.80    5.4327   571.1052    1.1810    1.8084   26.8041 
3744.90    5.6703  1408.0682    1.0780    1.4580   30.5093 
3745.00    4.7212  3252.7678    1.0142    1.3989   29.6883 
