~Version information
VERS.                            2.00: CWLS LAS  -  VERSION 2.00
WRAP.                              NO: One line per depth step
~Well information
#MNEM.UNIT                  DATA TYPE  INFORMATION
#===.================================:==================
STRT.M                          6.500: First depth in file
STOP.M                       3766.600: Last depth in file
STEP.M                          0.100: Depth increment
NULL.                       -9999.00 : Null values
DATE.                       : LOG DATE
TIME.                           11:24: LOG TIME
WELL.                             F2: Well name
GRP.                                1: Group name
FLD.                    F: Field name
ISS.                тех.состояние Э\К: Well surveys
SRVC.                                : Service Company
~Curve information
#MNEM.UNIT                   API CODE   CURVE DESCRIPTION
#===.================================:==================
DEPT.M                               : Depth curve
GK  .MKR/H                           : :11 Гамма-активность, мкр./ч -   67.0 
LM  .                                : 10 Локатор муфт,  -   28.0 см
NKT2 .UE                             : :7 Малый зонд, усл.ед. -  230.0 см
NKT1 .UE                             : :8 Большой зонд, усл.ед. -  219.0 см
W   .UE                              : :8 Большой зонд, усл.ед. -  219.0 см
#
~Other information
#------------------ REMARKS AREA -----------------------
#=======================================================
# The file is generated by the program GeoTech-EditLog v2000.12
#Number of Curves = 5
~A Log Data Section
# ...
3651.30    5.8793  1874.7677    1.4576    2.7192   19.2050 
3651.40    6.2516  1972.5951    1.4213    2.6246   19.5175 
3651.50    6.3781  1118.9878    1.3908    2.5416   19.8241 
3651.60    6.6345   480.3122    1.3828    2.5036   20.1115 
3651.70    6.8693   625.7366    1.3758    2.4664   20.4157 
3651.80    6.7170   847.2372    1.3730    2.4322   20.7920 
3651.90    7.0359  1135.9707    1.3692    2.4019   21.0944 
3652.00    7.3413   861.4132    1.3610    2.3871   21.1014 
3652.10    6.8668  1225.2683    1.3633    2.3889   21.1297 
3652.20    6.2250  4600.4585    1.4073    2.4570   21.2433 
3652.30    5.3567 12678.1221    1.4347    2.5113   21.1631 
3652.40    4.5994 17904.7031    1.3951    2.5095   20.3065 
3652.50    4.6514 11727.5889    1.3492    2.4608   19.9361 
3652.60    4.7216   420.6537    1.2776    2.2242   21.4995 
3652.70    5.3989   844.2268    1.2262    2.0439   22.7564 
3652.80    6.3027  1970.8900    1.2546    2.0893   22.7880 
3652.90    6.8096  2574.5464    1.2794    2.1314   22.7783 
3653.00    6.9136  2123.5991    1.2901    2.1606   22.6041 
3653.10    6.8341   857.5220    1.2951    2.1798   22.4353 
3653.20    6.9692   654.1927    1.2771    2.1589   22.2907 
3653.30    7.0438  1569.0122    1.2564    2.1120   22.5226 
3653.40    7.5335  2036.4780    1.2251    1.9613   24.2619 
3653.50    7.5081  1137.8728    1.1971    1.8603   25.2236 
3653.60    7.6137   486.5171    1.1819    1.9562   23.0966 
3653.70    7.6026   719.4000    1.1697    2.0158   21.6862 
3653.80    7.4202  1451.2372    1.1692    1.9293   23.1604 
3653.90    7.2079  2377.5415    1.1713    1.8403   24.8395 
3654.00    7.5470  1963.5697    1.1836    1.7415   27.3316 
3654.10    7.4584  1202.1757    1.1846    1.6647   28.9772 
3654.20    7.2991   898.4488    1.1400    1.6770   27.2162 
3654.30    7.6547  2080.4009    1.1105    1.6938   25.8570 
3654.40    7.4763  2619.6389    1.1414    1.7283   26.1220 
3654.50    7.6503  1448.6846    1.1655    1.7503   26.4332 
3654.60    7.6623   802.5171    1.1625    1.7229   26.9325 
3654.70    7.7090   831.9268    1.1614    1.7029   27.3256 
3654.80    8.2170  1824.6210    1.1676    1.7135   27.2938 
3654.90    8.3600  2429.1804    1.1725    1.7250   27.2024 
3655.00    8.6659  2335.0220    1.1727    1.7404   26.8732 
3655.10    8.6111   773.8927    1.1745    1.7476   26.7777 
3655.20    8.1369  1191.3463    1.1829    1.7218   27.6179 
3655.30    8.1624  3161.4475    1.1889    1.7099   28.0781 
3655.40    7.6164  3337.2097    1.1853    1.7539   27.0103 
3655.50    7.1327  2273.1150    1.1818    1.7809   26.3074 
3655.60    7.4170   455.8829    1.1782    1.7410   27.0504 
3655.70    7.1269   990.5732    1.1744    1.7104   27.5852 
3655.80    7.4892  2085.8972    1.1697    1.7171   27.2830 
3655.90    7.5255  2454.2927    1.1683    1.7242   27.0810 
3656.00    7.5249  1230.6260    1.1806    1.7332   27.2792 
3656.10    7.7699   497.7463    1.1885    1.7479   27.2208 
3656.20    7.3479   809.4805    1.1786    1.7851   26.1369 
3656.30    7.7770  1789.5990    1.1695    1.8111   25.3077 
3656.40    7.7710  2119.8049    1.1632    1.7915   25.5072 
3656.50    8.0459  1568.6895    1.1575    1.7683   25.8055 
3656.60    8.0023   890.7415    1.1543    1.7308   26.5014 
3656.70    7.6047   571.9366    1.1583    1.7085   27.0982 
3656.80    7.7758  1094.1931    1.1912    1.7476   27.3009 
3656.90    7.5771  2379.2634    1.2164    1.8005   27.0198 
3657.00    7.9814  2323.9707    1.2111    1.9084   24.8095 
3657.10    7.7191   851.9902    1.2094    1.9935   23.1347 
3657.20    7.4024   537.7829    1.2225    1.9863   23.6228 
3657.30    7.8714  1113.4425    1.2280    1.9690   24.0837 
3657.40    7.6930  2138.2927    1.2037    1.9112   24.4314 
3657.50    7.0514  1996.1711    1.1799    1.8618   24.6406 
3657.60    7.2140   552.8683    1.1582    1.8453   24.3000 
3657.70    7.6205   475.3220    1.1465    1.8477   23.9103 
3657.80    7.1937   665.7482    1.1742    1.9263   23.3171 
3657.90    7.2141  1317.7512    1.2000    1.9823   23.0666 
3658.00    6.9492  1759.8925    1.2178    1.9478   24.1845 
3658.10    6.8608  1790.6830    1.2335    1.9202   25.1207 
3658.20    7.0303   709.9537    1.2406    1.9207   25.3190 
3658.30    6.9881   774.0831    1.2426    1.9241   25.3124 
3658.40    7.0277  1905.1512    1.2233    1.9392   24.4840 
3658.50    7.3148  2751.5037    1.2056    1.9442   23.8810 
3658.60    7.2952  2301.8684    1.1935    1.9091   24.1691 
3658.70    6.9859  1126.2756    1.1875    1.8895   24.3464 
3658.80    6.9060   651.3301    1.2051    1.9327   24.0770 
3658.90    7.2119  1022.3415    1.2221    1.9686   23.9188 
3659.00    7.0993  2627.7996    1.2362    1.9750   24.2046 
3659.10    7.4631  3462.9170    1.2479    1.9774   24.4928 
3659.20    7.2470  2424.8367    1.2493    1.9633   24.7871 
3659.30    7.2048   901.2372    1.2488    1.9529   24.9588 
3659.40    7.2933   700.2732    1.2402    1.9571   24.6376 
3659.50    7.1025  1080.4841    1.2292    1.9455   24.5439 
3659.60    6.8198  1406.5366    1.2086    1.8709   25.3569 
3659.70    6.7580   956.3268    1.1867    1.8181   25.7099 
3659.80    7.2949   654.2200    1.1590    1.8532   24.2047 
3659.90    7.7853   960.1268    1.1464    1.8772   23.3633 
3660.00    7.6148  1950.2250    1.1940    1.8570   25.1724 
3660.10    7.5750  1448.8195    1.2362    1.8558   26.4561 
3660.20    7.2869   715.2000    1.2562    1.9302   25.6227 
3660.30    7.4348   521.4083    1.2671    2.0017   24.6189 
3660.40    7.5857  1128.6830    1.2414    2.0607   22.9416 
3660.50    7.7768  2307.1150    1.2220    2.1114   21.5803 
3660.60    7.1715  1408.0195    1.2278    2.1293   21.4628 
3660.70    6.8880   455.6732    1.2408    2.1571   21.3806 
3660.80    7.2771   468.5941    1.2826    2.2256   21.4402 
3660.90    7.5672   734.5024    1.3175    2.2788   21.5463 
3661.00    7.5491  1227.7238    1.3247    2.2707   21.8372 
3661.10    7.2064   961.4780    1.3291    2.2517   22.2274 
3661.20    6.9759   549.5878    1.3226    2.1894   23.0094 
3661.30    6.9626   523.5257    1.3141    2.1442   23.4818 
3661.40    7.2834  1178.3025    1.2983    2.1678   22.7080 
3661.50    7.7934  2688.2837    1.2869    2.1872   22.1148 
3661.60    7.0374  2585.0830    1.2934    2.1902   22.2347 
3661.70    6.7759  1534.6610    1.2984    2.1790   22.5431 
3661.80    6.7159  1073.5844    1.2977    2.1108   23.6184 
3661.90    6.7747   812.6049    1.2965    2.0601   24.3973 
3662.00    7.0280  1722.5428    1.2932    2.0791   23.9911 
3662.10    6.6908  1323.1219    1.2886    2.0943   23.6123 
3662.20    6.9380  1008.1951    1.2787    2.0945   23.3471 
3662.30    7.1013   455.3423    1.2738    2.0951   23.2075 
3662.40    6.9773   715.9366    1.2888    2.0970   23.5726 
3662.50    7.4581  1655.9340    1.2975    2.0973   23.8008 
3662.60    7.3133  2025.5853    1.2818    2.0909   23.4859 
3662.70    7.1648  1576.4438    1.2613    2.0716   23.2582 
3662.80    7.0525   869.9144    1.2218    1.9996   23.3812 
3662.90    6.9749   806.3073    1.1904    1.9431   23.4641 
3663.00    7.0826  1594.7531    1.1915    1.9494   23.3865 
3663.10    7.3567  1982.0586    1.1957    1.9477   23.5432 
3663.20    7.4728  1283.7683    1.2123    1.9142   24.6356 
3663.30    6.7391  1406.7286    1.2277    1.8853   25.6122 
3663.40    6.3986  4868.3315    1.2378    1.8749   26.1157 
3663.50    6.2982 13368.9971    1.2379    1.8727   26.1713 
3663.60    6.8834 15981.9707    1.1985    1.9034   24.4414 
3663.70    7.4671  5069.1221    1.1764    1.9223   23.4358 
3663.80    6.9391   539.7384    1.2235    1.8938   25.3507 
3663.90    6.6767   564.3268    1.2611    1.8979   26.4103 
3664.00    6.8924  1154.0293    1.2608    2.0318   24.0544 
3664.10    6.6632  1400.7219    1.2631    2.1350   22.2988 
3664.20    7.0124   775.4415    1.2756    2.1135   22.9661 
3664.30    7.3414   455.8777    1.2807    2.0921   23.4383 
3664.40    7.3492   476.5073    1.2563    2.0713   23.1231 
3664.50    7.2669   778.5917    1.2393    2.0686   22.7211 
3664.60    7.0308  1160.9561    1.2516    2.1384   21.9675 
