~Version information
VERS.                            2.00: CWLS LAS  -  VERSION 2.00
WRAP.                              NO: One line per depth step
~Well information
#MNEM.UNIT                  DATA TYPE  INFORMATION
#===.================================:==================
STRT.M                          6.500: First depth in file
STOP.M                       3766.600: Last depth in file
STEP.M                          0.100: Depth increment
NULL.                       -9999.00 : Null values
DATE.                       : LOG DATE
TIME.                           11:24: LOG TIME
WELL.                             F2: Well name
GRP.                                1: Group name
FLD.                    F: Field name
ISS.                тех.состояние Э\К: Well surveys
SRVC.                                : Service Company
~Curve information
#MNEM.UNIT                   API CODE   CURVE DESCRIPTION
#===.================================:==================
DEPT.M                               : Depth curve
GK  .MKR/H                           : :11 Гамма-активность, мкр./ч -   67.0 
LM  .                                : 10 Локатор муфт,  -   28.0 см
NKT2 .UE                             : :7 Малый зонд, усл.ед. -  230.0 см
NKT1 .UE                             : :8 Большой зонд, усл.ед. -  219.0 см
W   .UE                              : :8 Большой зонд, усл.ед. -  219.0 см
#
~Other information
#------------------ REMARKS AREA -----------------------
#=======================================================
# The file is generated by the program GeoTech-EditLog v2000.12
#Number of Curves = 5
~A Log Data Section
# ...
3745.10    4.2926  3197.0732    0.9783    1.3755   28.9648 
3745.20    4.7924  2857.6340    1.0539    1.4947   28.6397 
3745.30    5.0003  1649.1345    1.1399    1.6909   27.4093 
3745.40    4.9055   800.3317    1.2665    2.1940   22.5604 
3745.50    5.2092  2046.2396    1.3570    2.5452   19.1162 
3745.60    5.2527  1909.7561    1.3048    2.2952   21.2320 
3745.70    4.8371  1206.9609    1.2482    2.0436   23.4966 
3745.80    4.5003  1038.7140    1.1729    1.7828   26.3920 
3745.90    4.2484  1074.8195    1.0968    1.5134   30.2676 
3746.00    3.8535  1256.1956    1.0180    1.2107   38.0451 
3746.10    3.5255  3107.7463    0.9593    0.9891   43.5043 
3746.20    3.8935  2674.3901    0.9817    1.0951   39.6243 
3746.30    4.4238   902.6504    1.0207    1.2364   35.6641 
3746.40    5.1787   777.0146    1.1260    1.5174   31.4209 
3746.50    5.9594   577.8680    1.2323    1.8357   27.1431 
3746.60    6.6022  1160.0195    1.3440    2.3062   22.6753 
3746.70    6.7538  2487.7463    1.4384    2.7261   18.7798 
3746.80    6.1390  2722.9536    1.4650    2.9466   17.1539 
3746.90    5.7255   938.9659    1.4859    3.1096   15.9655 
3747.00    6.0804   729.7800    1.4843    3.0430   16.5263 
3747.10    6.4688  1083.3561    1.4782    2.9671   17.1033 
3747.20    6.8002  2526.3708    1.4541    2.8550   17.7384 
3747.30    6.9902  3062.7285    1.4348    2.7572   18.3325 
3747.40    6.5751  1632.3123    1.4347    2.7175   18.7564 
3747.50    6.7103   471.1100    1.4353    2.6847   19.1218 
3747.60    6.7425   524.5463    1.4388    2.6791   19.2580 
3747.70    6.7880  1083.1122    1.4446    2.6809   19.3567 
3747.80    6.9869  2586.9487    1.4589    2.7123   19.3047 
3747.90    6.7158  2838.8586    1.4711    2.7422   19.2253 
3748.00    6.2492   798.9633    1.4743    2.7658   19.0365 
3748.10    6.0576   400.2342    1.4766    2.7858   18.8682 
3748.20    5.9125   600.3024    1.4754    2.7914   18.7840 
3748.30    5.7511  1328.3912    1.4760    2.8071   18.6340 
3748.40    4.7141  2732.0781    1.4838    2.8628   18.2212 
3748.50    4.5671  3008.6943    1.5009    2.9504   17.7037 
3748.60    4.7719   529.6390    1.5550    3.1660   16.7625 
3748.70    4.5570   552.5781    1.5976    3.3346   16.0315 
3748.80    4.6592   974.5379    1.5949    3.3152   16.1428 
3748.90    4.8620  1968.3903    1.5930    3.3024   16.2144 
3749.00    5.0392  3218.0244    1.5947    3.3165   16.1276 
3749.10    4.9216  2151.8342    1.6008    3.3195   16.2106 
3749.20    5.1191   439.2025    1.6252    3.2778   16.9721 
3749.30    5.5303   604.5770    1.6365    3.2313   17.5534 
3749.40    5.7730  1271.2195    1.5952    3.1660   17.4065 
3749.50    7.0374  2573.7114    1.5437    3.0660   17.4072 
3749.60    8.1537  2990.6829    1.4513    2.8264   17.9961 
3749.70    8.0205   772.6780    1.3767    2.6066   18.7953 
3749.80    7.4970  1804.1321    1.3725    2.4645   20.4559 
3749.90    7.1706  7340.7803    1.3663    2.3389   21.8862 
3750.00    6.1515 17846.8945    1.3523    2.2798   22.3942 
3750.10    6.6658 15143.2002    1.3362    2.2220   22.8393 
3750.20    7.5824  1131.1464    1.3123    2.1702   23.0269 
3750.30    7.9469   418.2543    1.2926    2.1206   23.2979 
3750.40    7.4613   686.1464    1.2906    2.0807   23.9003 
3750.50    6.9013  1530.8435    1.2923    2.0643   24.2218 
3750.60    6.4443  2454.4048    1.3095    2.1415   23.4266 
3750.70    6.1871  2342.1123    1.3224    2.1918   22.9540 
3750.80    5.7825   681.7017    1.3186    2.1339   23.7814 
3750.90    5.7426   527.2781    1.2989    2.0625   24.4174 
3751.00    6.1848   902.1907    1.2161    1.9378   24.2881 
3751.10    6.3110  1777.4049    1.1622    1.8369   24.5838 
3751.20    6.5770  2880.0439    1.2247    1.8323   26.5757 
3751.30    6.8283  2221.5720    1.2823    1.8750   27.5654 
3751.40    7.5924   391.0683    1.3190    2.1071   24.5275 
3751.50    7.7801   580.2151    1.3532    2.3114   21.9625 
3751.60    6.9491  1097.9025    1.3781    2.4075   21.2525 
3751.70    5.9061  2178.9414    1.4009    2.5071   20.4826 
3751.80    5.2104  2741.5354    1.4161    2.6227   19.4608 
3751.90    5.3914   777.3463    1.4317    2.7312   18.5470 
3752.00    5.4103   718.3668    1.4490    2.8113   18.0664 
3752.10    5.4425   506.3220    1.4635    2.8832   17.6192 
3752.20    5.4148   889.7975    1.4667    2.9217   17.3114 
3752.30    5.4036  2170.1858    1.4732    2.9525   17.1372 
3752.40    5.4573  1928.0391    1.4922    2.9520   17.5000 
3752.50    5.5625   385.8191    1.5023    2.9603   17.6166 
3752.60    5.6981   517.4634    1.4771    3.0034   16.7523 
3752.70    6.5447   876.5073    1.4546    2.9985   16.4089 
3752.80    6.7770  2312.8606    1.4427    2.7994   18.1707 
3752.90    6.9541  2888.2732    1.4328    2.6351   19.6318 
3753.00    7.2071   744.4254    1.4313    2.6103   19.8892 
3753.10    7.3876   630.3122    1.4301    2.5851   20.1584 
3753.20    6.8159   451.5219    1.4300    2.5590   20.4716 
3753.30    6.7648   833.6821    1.4309    2.5599   20.4951 
3753.40    6.8816  1993.1122    1.4362    2.6694   19.3573 
3753.50    7.3637  2137.2739    1.4401    2.7454   18.5666 
3753.60    7.5188   634.1902    1.4384    2.6890   19.1507 
3753.70    7.7015   500.3512    1.4361    2.6540   19.4881 
3753.80    7.3835   870.3472    1.4314    2.7050   18.8309 
3753.90    6.7615  1556.0586    1.4355    2.7554   18.3613 
3754.00    6.0136  2349.5845    1.4747    2.8033   18.6416 
3754.10    5.9552  1009.2098    1.5078    2.8386   18.9321 
3754.20    5.6260   567.0146    1.5164    2.8235   19.2603 
3754.30    5.4003   855.5697    1.5172    2.8176   19.3403 
3754.40    5.3925  1173.3463    1.4870    2.8491   18.4248 
3754.50    4.9336  2195.4106    1.4673    2.8791   17.7317 
3754.60    4.8200  1972.4829    1.4894    2.9034   17.9171 
3754.70    5.1303   474.6195    1.5063    2.9173   18.1054 
3754.80    5.4194   653.1638    1.5024    2.8896   18.3075 
3754.90    6.0402   961.0732    1.4891    2.8199   18.8083 
3755.00    6.0604  1750.7457    1.4379    2.5830   20.4996 
3755.10    6.2212  2267.2146    1.3996    2.4011   21.8116 
3755.20    6.3390   932.1707    1.4132    2.4412   21.5906 
3755.30    6.8758   472.7042    1.4226    2.4912   21.1661 
3755.40    6.2216   731.2390    1.4153    2.5808   19.9302 
3755.50    5.2627  1177.4622    1.4101    2.6622   18.8500 
3755.60    5.8176  1096.9171    1.4132    2.7120   18.3781 
3755.70    5.6503  1533.7000    1.4191    2.7568   18.0171 
3755.80    5.7292   728.8019    1.4362    2.7817   18.1011 
3755.90    6.0599   557.1902    1.4497    2.7961   18.2246 
3756.00    6.8060   905.8777    1.4493    2.7685   18.5048 
3756.10    7.0105  1402.7024    1.4454    2.7472   18.6495 
3756.20    6.6736  2154.9707    1.4278    2.7513   18.2504 
3756.30    6.7381  1838.7335    1.4066    2.7109   18.2980 
3756.40    6.8755   486.6732    1.3709    2.4922   20.1363 
3756.50    6.5145   879.8386    1.3330    2.2660   22.2397 
3756.60    5.3630  1766.7415    1.2855    2.0064   25.4258 
3756.70    4.3902  2091.9268    1.2198    1.7446   28.4167 
3756.80    4.5914  2095.7480    1.0803    1.4708   30.6543 
3756.90    4.8465  1181.1268    0.9733    1.2585   32.4142 
3757.00    5.6906   610.8998    0.9960    1.2925   32.2635 
3757.10    6.6585   978.4000    1.0320    1.3653   31.6025 
3757.20    7.2181  1132.1122    1.1209    1.5927   28.9085 
3757.30    7.1847  1510.7433    1.2026    1.7978   26.6156 
3757.40    6.9682  1449.5122    1.2552    1.9115   25.9536 
3757.50    6.9147   593.9169    1.3011    2.0281   25.1115 
3757.60    6.4599  1263.0634    1.3213    2.1576   23.5411 
3757.70    6.0246  1856.4196    1.3503    2.2864   22.2373 
3757.80    6.5560   624.4108    1.4145    2.4135   21.9964 
3757.90    6.8691   505.1122    1.4589    2.5197   21.5948 
3758.00    6.3970   474.2812    1.4241    2.5423   20.5531 
3758.10    6.4359   925.7317    1.3947    2.5442   19.8878 
3758.20    6.8281  2086.1099    1.3875    2.4639   20.7369 
3758.30    6.8114  2327.5110    1.3711    2.3611   21.7349 
3758.40    6.9161   953.1317    1.3179    2.1690   23.3203 
