~Version information
VERS.                            2.00: CWLS LAS  -  VERSION 2.00
WRAP.                              NO: One line per depth step
~Well information
#MNEM.UNIT                  DATA TYPE  INFORMATION
#===.================================:==================
STRT.M                          6.500: First depth in file
STOP.M                       3766.600: Last depth in file
STEP.M                          0.100: Depth increment
NULL.                       -9999.00 : Null values
DATE.                       : LOG DATE
TIME.                           11:24: LOG TIME
WELL.                             F2: Well name
GRP.                                1: Group name
FLD.                    F: Field name
ISS.                тех.состояние Э\К: Well surveys
SRVC.                                : Service Company
~Curve information
#MNEM.UNIT                   API CODE   CURVE DESCRIPTION
#===.================================:==================
DEPT.M                               : Depth curve
GK  .MKR/H                           : :11 Гамма-активность, мкр./ч -   67.0 
LM  .                                : 10 Локатор муфт,  -   28.0 см
NKT2 .UE                             : :7 Малый зонд, усл.ед. -  230.0 см
NKT1 .UE                             : :8 Большой зонд, усл.ед. -  219.0 см
W   .UE                              : :8 Большой зонд, усл.ед. -  219.0 см
#
~Other information
#------------------ REMARKS AREA -----------------------
#=======================================================
# The file is generated by the program GeoTech-EditLog v2000.12
#Number of Curves = 5
~A Log Data Section
# ...
3678.10    8.6230   515.0244    1.0937    1.6224   26.8916 
3678.20    9.0471   701.5122    1.1072    1.6555   26.5976 
3678.30    8.5114  1609.0660    1.1141    1.6828   26.2167 
3678.40    8.3612  2085.4829    1.0943    1.6862   25.4914 
3678.50    8.3125  1688.9780    1.0816    1.6884   25.0223 
3678.60    8.3727   621.7366    1.0966    1.6860   25.5686 
3678.70    8.4236   522.5756    1.1069    1.6935   25.7611 
3678.80    8.4236   972.6748    1.0989    1.7414   24.5235 
3678.90    8.2256  1677.7756    1.0987    1.7834   23.6552 
3679.00    7.6002  1760.1296    1.1300    1.8020   24.2623 
3679.10    7.1133  1252.2097    1.1601    1.8156   24.9307 
3679.20    7.0070   425.2073    1.1851    1.8089   25.8364 
3679.30    7.2094   530.9658    1.2047    1.8013   26.5906 
3679.40    7.8899   989.7512    1.2018    1.7904   26.7294 
3679.50    8.4469  1625.4352    1.1949    1.7859   26.6130 
3679.60    8.0825  1061.0586    1.1722    1.8075   25.4771 
3679.70    7.9749  1188.7024    1.1507    1.8200   24.5588 
3679.80    7.7904   461.7946    1.1338    1.7957   24.5105 
3679.90    8.3093   828.1854    1.1203    1.7719   24.5591 
3680.00    8.6480  1867.4817    1.1201    1.7502   24.9945 
3680.10    8.2233  1427.1219    1.1206    1.7400   25.2161 
3680.20    8.0526   596.9366    1.1232    1.7760   24.5793 
3680.30    7.9292   564.1271    1.1282    1.8061   24.1362 
3680.40    8.0064  1262.3414    1.1431    1.8122   24.4738 
3680.50    7.8515  2435.3545    1.1572    1.8066   25.0339 
3680.60    7.9996  2235.7073    1.1690    1.7548   26.4881 
3680.70    7.7281  1153.1122    1.1787    1.7224   27.4681 
3680.80    7.6704   599.2176    1.1803    1.7684   26.5399 
3680.90    7.8694  1139.1610    1.1733    1.7927   25.7964 
3681.00    8.0771  2091.2812    1.1320    1.7298   25.7916 
3681.10    8.5772  2385.9219    1.0987    1.6811   25.7441 
3681.20    8.5149  1439.2341    1.0976    1.6896   25.5260 
3681.30    8.2972   488.9389    1.1030    1.7064   25.3456 
3681.40    9.1445   909.3463    1.1346    1.7566   25.3176 
3681.50    9.3858  1922.2885    1.1654    1.8156   25.1109 
3681.60    9.2710  1921.2683    1.1940    1.9108   24.1889 
3681.70    9.4571  1116.4000    1.2179    1.9811   23.5870 
3681.80    9.2614   601.3276    1.2237    1.9518   24.2736 
3681.90    9.0924   708.6390    1.2288    1.9454   24.5453 
3682.00    8.1814  1356.4915    1.2308    2.0305   23.1607 
3682.10    7.8827  1852.5707    1.2451    2.1127   22.1616 
3682.20    7.6580   841.8536    1.3082    2.1822   22.7165 
3682.30    7.7833   603.5306    1.3618    2.2518   23.0337 
3682.40    7.0665   739.3366    1.3768    2.3214   22.3946 
3682.50    7.8461  1814.8827    1.3782    2.3492   22.0356 
3682.60    8.5795  2894.6487    1.3255    2.2104   22.7895 
3682.70    9.0149  1959.0731    1.2773    2.0842   23.4857 
3682.80    8.8460   747.9462    1.2470    2.0076   23.9570 
3682.90    9.2443   785.4049    1.2188    1.9390   24.3522 
3683.00    9.2160  1594.9585    1.1990    1.9027   24.4423 
3683.10    9.7086  2261.4438    1.1814    1.8665   24.5997 
3683.20    9.8659  2718.0732    1.1732    1.8317   25.0248 
3683.30    9.7502  2075.0269    1.1717    1.8174   25.2594 
3683.40    9.7089   667.4634    1.1973    1.8856   24.7277 
3683.50   10.0098  1416.0244    1.2133    1.9238   24.4858 
3683.60    8.6694  2927.1902    1.1911    1.8421   25.3969 
3683.70    8.8213  3160.8733    1.1744    1.7712   26.2755 
3683.80    9.0224  1673.0195    1.1793    1.7431   27.0338 
3683.90    8.8673   713.2927    1.1838    1.7233   27.6033 
3684.00    9.4281   667.5379    1.1873    1.7367   27.4183 
3684.10    9.6373  1453.6049    1.1960    1.7570   27.2537 
3684.20    9.6826  1922.8292    1.2256    1.8046   27.1726 
3684.30    9.3325   992.1565    1.2468    1.8430   27.0215 
3684.40    9.1266   545.6878    1.2334    1.8443   26.5910 
3684.50    9.0103  1253.7238    1.2243    1.8658   25.9223 
3684.60    8.9397  4552.8242    1.2319    1.9675   24.2961 
3684.70    8.1705 11866.4834    1.2400    2.0407   23.1932 
3684.80    7.7004 17270.3867    1.2505    1.9995   24.1963 
3684.90    7.9847  9422.7217    1.2546    1.9548   25.0937 
3685.00    8.4115   517.0709    1.2331    1.8967   25.5676 
3685.10    8.7997  1180.8976    1.2210    1.8680   25.7639 
3685.20    9.5024  3156.2000    1.2463    1.9574   24.8474 
3685.30    9.8814  4267.9438    1.2695    2.0355   24.0818 
3685.40    9.7025  3148.5513    1.2839    2.0677   23.9294 
3685.50    9.4705  1717.8362    1.2895    2.0839   23.8088 
3685.60   10.2083   906.2781    1.2606    2.0369   23.8141 
3685.70   10.5538  2634.6829    1.2365    1.9919   23.9200 
3685.80   10.1437  4892.1416    1.2314    1.9550   24.4352 
3685.90   10.2323  3605.4927    1.2281    1.9248   24.8783 
3686.00    9.8348  1803.1296    1.2314    1.9216   25.0326 
3686.10    9.7132   865.1609    1.2407    1.9476   24.8625 
3686.20    8.2416  1928.2219    1.2743    2.0901   23.3969 
3686.30    7.8081  2373.4866    1.3025    2.1946   22.4090 
3686.40    7.8423  2453.8733    1.3092    2.1457   23.3463 
3686.50    7.5628  1269.8435    1.3116    2.0981   24.1654 
3686.60    8.1607  1236.7512    1.2974    2.0545   24.5224 
3686.70    8.0335   817.8000    1.2846    2.0239   24.6964 
3686.80    8.8151  2231.5793    1.2769    2.0447   24.1316 
3686.90    9.8106  2929.4927    1.2697    2.0657   23.5807 
3687.00    9.8169  2460.8997    1.2643    2.0871   23.0867 
3687.10    9.4390   837.1512    1.2596    2.0812   23.0921 
3687.20    9.4202  1011.4025    1.2579    1.9659   25.0949 
3687.30    9.7883  2915.7310    1.2534    1.8839   26.4124 
3687.40   10.6467  4747.4438    1.2372    1.9362   24.9693 
3687.50   11.3403  4478.3179    1.2219    1.9775   23.7582 
3687.60   11.2805  2364.2537    1.2097    1.9750   23.4573 
3687.70   10.9103   789.4537    1.2042    1.9709   23.3738 
3687.80   10.8070  1652.9193    1.2254    1.9599   24.1703 
3687.90   10.7633  3840.5269    1.2400    1.9448   24.8579 
3688.00   10.6436  4303.9756    1.2282    1.9129   25.1092 
3688.10   10.7041  2897.9023    1.2203    1.8887   25.3272 
3688.20   10.8215   529.9366    1.2278    1.8960   25.4093 
3688.30   10.4667  1090.2396    1.2343    1.9016   25.4947 
3688.40    9.8216  2714.4780    1.2371    1.9007   25.5921 
3688.50   10.1212  3630.7310    1.2372    1.9066   25.4894 
3688.60    9.7218  2725.7317    1.2267    1.9394   24.5874 
3688.70   10.3136  1056.2366    1.2210    1.9580   24.0825 
3688.80   10.5481   720.9193    1.2342    1.9193   25.1796 
3688.90   10.5657   909.4244    1.2399    1.8921   25.8451 
3689.00   10.5815  1597.3008    1.2160    1.9114   24.7866 
3689.10   10.7880  2476.6633    1.1936    1.9209   23.9513 
3689.20   10.7115  1236.2512    1.1772    1.8910   24.0184 
3689.30   10.6504   515.2225    1.1649    1.8710   24.0209 
3689.40   10.9463   691.0244    1.1689    1.8915   23.7646 
3689.50   11.3695  1856.4622    1.1750    1.9042   23.7146 
3689.60   12.4071  3789.4194    1.1897    1.8859   24.4866 
3689.70   12.7693  3218.9219    1.2026    1.8678   25.2048 
3689.80   12.5849  1297.3839    1.2085    1.8508   25.7141 
3689.90   13.2446   657.8634    1.2114    1.8379   26.0551 
3690.00   15.0612  1736.9340    1.2029    1.8416   25.7234 
3690.10   17.6632  3572.2341    1.1933    1.8189   25.9461 
3690.20   18.2237  3763.8123    1.1795    1.6903   28.3841 
3690.30   17.8346  2467.8728    1.1670    1.6024   29.9382 
3690.40   17.4777   617.6683    1.1600    1.6779   27.9327 
3690.50   17.6624  1485.0660    1.1556    1.7419   26.2928 
3690.60   17.1864  3303.0439    1.1614    1.7603   26.0904 
3690.70   16.5359  3427.3464    1.1644    1.7668   26.0546 
3690.80   16.2913  2928.5476    1.1567    1.7255   26.6931 
3690.90   16.0533  1289.0731    1.1491    1.6838   27.3586 
3691.00   16.1584  1205.7897    1.1418    1.6404   28.1302 
3691.10   17.0063  1906.8878    1.1340    1.6023   28.7590 
3691.20   17.1692  4350.0537    1.1241    1.5863   28.8094 
3691.30   17.2782  3866.1516    1.1203    1.5715   29.0506 
3691.40   17.4460   477.7171    1.1416    1.5619   30.0547 
