~Version information
VERS.                            2.00: CWLS LAS  -  VERSION 2.00
WRAP.                              NO: One line per depth step
~Well information
#MNEM.UNIT                  DATA TYPE  INFORMATION
#===.================================:==================
STRT.M                          6.500: First depth in file
STOP.M                       3766.600: Last depth in file
STEP.M                          0.100: Depth increment
NULL.                       -9999.00 : Null values
DATE.                       : LOG DATE
TIME.                           11:24: LOG TIME
WELL.                             F2: Well name
GRP.                                1: Group name
FLD.                    F: Field name
ISS.                тех.состояние Э\К: Well surveys
SRVC.                                : Service Company
~Curve information
#MNEM.UNIT                   API CODE   CURVE DESCRIPTION
#===.================================:==================
DEPT.M                               : Depth curve
GK  .MKR/H                           : :11 Гамма-активность, мкр./ч -   67.0 
LM  .                                : 10 Локатор муфт,  -   28.0 см
NKT2 .UE                             : :7 Малый зонд, усл.ед. -  230.0 см
NKT1 .UE                             : :8 Большой зонд, усл.ед. -  219.0 см
W   .UE                              : :8 Большой зонд, усл.ед. -  219.0 см
#
~Other information
#------------------ REMARKS AREA -----------------------
#=======================================================
# The file is generated by the program GeoTech-EditLog v2000.12
#Number of Curves = 5
~A Log Data Section
# ...
3664.70    7.3157   988.2683    1.2618    2.1918   21.4101 
3664.80    7.6892   767.0024    1.2638    2.1797   21.6404 
3664.90    7.5972   514.7902    1.2674    2.1679   21.9061 
3665.00    7.2458   996.1174    1.2769    2.1573   22.3125 
3665.10    7.1247  2003.9025    1.2817    2.1428   22.6586 
3665.20    7.0715  1844.7903    1.2676    2.1128   22.7595 
3665.30    6.9325   762.1125    1.2571    2.0715   23.1691 
3665.40    6.8733   531.4731    1.2616    1.9849   24.8126 
3665.50    6.9962   965.7335    1.2651    1.9169   26.1004 
3665.60    7.7919  1434.8341    1.2647    1.9224   25.9853 
3665.70    7.6458  1133.3098    1.2592    1.9355   25.5925 
3665.80    7.9069   537.1907    1.2330    1.9794   24.0703 
3665.90    7.7525   501.3024    1.2196    2.0158   23.0397 
3666.00    7.7136   994.4841    1.2573    2.0220   23.9733 
3666.10    7.6211  2072.7708    1.2866    2.0456   24.3994 
3666.20    7.6135  1935.3243    1.2818    2.1388   22.7906 
3666.30    8.0625  1246.2396    1.2795    2.2163   21.4998 
3666.40    8.0778   856.3805    1.2874    2.2301   21.4972 
3666.50    8.1027   668.2836    1.2919    2.2264   21.6738 
3666.60    8.4503  1746.5756    1.2831    2.1529   22.5668 
3666.70    8.1790  2845.1172    1.2794    2.0966   23.3289 
3666.80    8.5847  2774.9341    1.2964    2.1094   23.5704 
3666.90    8.1344   487.4536    1.3086    2.1195   23.7310 
3667.00    7.6348  1009.4327    1.3019    2.1187   23.5687 
3667.10    7.9320  1284.1268    1.2942    2.1142   23.4375 
3667.20    8.5003  1144.1293    1.2822    2.0950   23.4328 
3667.30    8.3814   767.6602    1.2721    2.0650   23.6695 
3667.40    8.3641   737.5561    1.2692    1.9921   24.8719 
3667.50    8.4591   729.1492    1.2657    1.9387   25.7076 
3667.60    8.2582   970.3903    1.2592    1.9623   25.0914 
3667.70    8.1338  1340.3292    1.2523    1.9779   24.6057 
3667.80    7.6515   885.7090    1.2431    1.9614   24.6423 
3667.90    7.9792   392.3171    1.2381    1.9651   24.4501 
3668.00    8.2769   574.1320    1.2496    2.0496   23.3451 
3668.10    7.9870  1102.7903    1.2633    2.1275   22.4187 
3668.20    8.0924  1641.7561    1.2855    2.1782   22.2183 
3668.30    8.5181  1701.9976    1.3051    2.2220   22.0585 
3668.40    8.5025  1406.2097    1.3146    2.2378   22.0630 
3668.50    8.1882   602.0146    1.3197    2.2247   22.4201 
3668.60    8.5800  1554.6537    1.3074    2.0962   24.1878 
3668.70    9.0035  2245.6487    1.2970    2.0006   25.4559 
3668.80    9.4135  1159.3350    1.2934    2.0373   24.7170 
3668.90    8.8683   568.3903    1.2937    2.0795   24.0009 
3669.00    7.9990   986.1174    1.3095    2.1441   23.3775 
3669.10    7.5832  2107.4438    1.3213    2.2119   22.6297 
3669.20    7.7327  2515.6877    1.3173    2.2923   21.3932 
3669.30    7.3792  1878.7971    1.3182    2.3469   20.6373 
3669.40    7.4896   889.5707    1.3385    2.2977   21.8157 
3669.50    7.5536   751.2127    1.3529    2.2694   22.5569 
3669.60    7.0267  1600.5464    1.3435    2.3240   21.5641 
3669.70    6.0792  2121.9341    1.3391    2.3611   20.9363 
3669.80    5.9081   972.0342    1.3549    2.3274   21.7788 
3669.90    5.9810   732.2537    1.3561    2.2940   22.2653 
3670.00    6.6737   848.8924    1.2994    2.2617   21.3302 
3670.10    7.2066  1579.5951    1.2500    2.2224   20.6779 
3670.20    8.2159  1694.4390    1.2309    2.1555   21.1644 
3670.30    8.1983   918.4792    1.2187    2.0958   21.7361 
3670.40    8.8565   389.6293    1.2347    2.0659   22.6440 
3670.50    9.1337   423.1198    1.2415    2.0341   23.3358 
3670.60    9.2757   544.4878    1.2113    1.9940   23.1747 
3670.70    9.0872   910.6268    1.1877    1.9564   23.1590 
3670.80    8.6760   931.7751    1.1900    1.9279   23.7319 
3670.90    8.9209   576.8293    1.1985    1.9139   24.2200 
3671.00    8.7147   601.2640    1.2312    1.9577   24.3682 
3671.10    8.7800  1076.4731    1.2594    2.0093   24.2695 
3671.20    8.9882  1170.9318    1.2690    2.0912   23.1841 
3671.30    8.7681  1054.0073    1.2759    2.1321   22.7146 
3671.40    8.8288  1052.7854    1.2714    2.0084   24.7197 
3671.50    8.5802   957.3105    1.2671    1.9139   26.2189 
3671.60    8.2688  1138.8292    1.2637    1.9352   25.7192 
3671.70    8.4803  2022.1854    1.2523    1.9360   25.3756 
3671.80    8.4281  1861.6748    1.2085    1.8541   25.6597 
3671.90    8.5655   822.6195    1.1727    1.7930   25.7725 
3672.00    8.5849   494.7237    1.1685    1.8153   25.2020 
3672.10    8.9313  1084.7903    1.1656    1.8196   25.0396 
3672.20    8.5846  2599.5073    1.1676    1.7522   26.5113 
3672.30    8.9726  2504.3813    1.1708    1.7088   27.5104 
3672.40    9.1278  1440.4976    1.1780    1.7620   26.6047 
3672.50    8.8368   572.7628    1.1834    1.8176   25.6240 
3672.60    8.0892   622.6732    1.1821    1.8840   24.3326 
3672.70    7.3474  1156.2952    1.1953    1.9788   23.0343 
3672.80    6.0125  1832.8020    1.2669    2.1897   21.6918 
3672.90    5.8263  1436.3512    1.3148    2.3394   20.6503 
3673.00    6.1071   847.2372    1.2680    2.2447   20.8120 
3673.10    6.8311   790.1073    1.2188    2.1423   21.0438 
3673.20    7.9136  1675.8390    1.1610    2.0097   21.5528 
3673.30    7.7089  2113.9707    1.1217    1.8872   22.4901 
3673.40    6.9392  1791.6975    1.1571    1.8062   25.1359 
3673.50    6.8547   887.9022    1.1876    1.7633   26.8929 
3673.60    6.6826   820.9464    1.1989    1.8712   25.1271 
3673.70    7.0382  2550.4536    1.2077    1.9515   23.8154 
3673.80    6.5712  8124.6650    1.2065    1.9212   24.3269 
3673.90    5.9169 16182.1172    1.2002    1.8800   24.9131 
3674.00    6.3092 15496.0049    1.1738    1.7954   25.7967 
3674.10    6.5767  3337.2195    1.1511    1.7361   26.2818 
3674.20    7.2659  1042.8536    1.1434    1.7790   25.1666 
3674.30    7.1468  1773.5453    1.1435    1.8348   24.0752 
3674.40    6.5953  1766.4390    1.1747    1.9417   23.0905 
3674.50    6.4937  1538.0709    1.2054    2.0278   22.4506 
3674.60    6.6770   500.1902    1.2347    2.0323   23.1782 
3674.70    6.2692   808.6439    1.2518    2.0266   23.7471 
3674.80    6.2593  1768.7579    1.2207    1.9800   23.6803 
3674.90    6.6622  2498.6050    1.1876    1.9087   24.0698 
3675.00    7.3136  1652.5624    1.1467    1.7388   26.2796 
3675.10    7.2098   671.7756    1.1180    1.6120   27.9726 
3675.20    7.0658   839.6000    1.1384    1.6587   27.5778 
3675.30    7.0124  2110.8167    1.1581    1.7074   27.1284 
3675.40    6.5553  2364.5269    1.1748    1.7636   26.4639 
3675.50    6.8560  1534.6161    1.1873    1.8132   25.8161 
3675.60    7.1731   685.3366    1.1832    1.8369   25.2264 
3675.70    7.1634   520.3561    1.1781    1.8422   24.9785 
3675.80    7.7914   939.9805    1.1691    1.7729   26.1122 
3675.90    7.9042  1420.8195    1.1628    1.7232   26.9278 
3676.00    8.4625   982.7726    1.1678    1.7521   26.4723 
3676.10    8.3441   590.3122    1.1695    1.7813   25.9151 
3676.20    8.3638   380.4488    1.1578    1.8114   24.9579 
3676.30    7.8024   517.5159    1.1459    1.8203   24.4217 
3676.40    7.6024  1047.6293    1.1328    1.7435   25.5788 
3676.50    7.8791   966.3130    1.1211    1.6856   26.3873 
3676.60    7.6418   556.3415    1.1150    1.7030   25.8161 
3676.70    7.9246   484.3903    1.1090    1.7066   25.5474 
3676.80    8.4726   863.1614    1.1031    1.6548   26.4999 
3676.90    8.7718  1685.6342    1.1028    1.6083   27.5386 
3677.00    8.6722  1846.5721    1.1244    1.5832   28.9186 
3677.10    7.8227  1571.3268    1.1441    1.5673   29.9989 
3677.20    7.8248   511.9317    1.1558    1.5885   29.8678 
3677.30    7.7070   780.3105    1.1600    1.6152   29.3632 
3677.40    7.8706  1190.7463    1.1343    1.6639   27.3657 
3677.50    7.9236  1463.6675    1.1107    1.6984   25.7686 
3677.60    7.7270   503.6976    1.0957    1.6764   25.7482 
3677.70    7.7414   678.0854    1.0875    1.6585   25.8616 
3677.80    7.8615  1526.3888    1.1058    1.6568   26.5180 
3677.90    8.1685  2061.7903    1.1176    1.6514   27.0339 
3678.00    8.6614  1877.6382    1.1029    1.6316   26.9876 
