~Version information
VERS.                            2.00: CWLS LAS  -  VERSION 2.00
WRAP.                              NO: One line per depth step
~Well information
#MNEM.UNIT                  DATA TYPE  INFORMATION
#===.================================:==================
STRT.M                          6.500: First depth in file
STOP.M                       3766.600: Last depth in file
STEP.M                          0.100: Depth increment
NULL.                       -9999.00 : Null values
DATE.                       : LOG DATE
TIME.                           11:24: LOG TIME
WELL.                             F2: Well name
GRP.                                1: Group name
FLD.                    F: Field name
ISS.                тех.состояние Э\К: Well surveys
SRVC.                                : Service Company
~Curve information
#MNEM.UNIT                   API CODE   CURVE DESCRIPTION
#===.================================:==================
DEPT.M                               : Depth curve
GK  .MKR/H                           : :11 Гамма-активность, мкр./ч -   67.0 
LM  .                                : 10 Локатор муфт,  -   28.0 см
NKT2 .UE                             : :7 Малый зонд, усл.ед. -  230.0 см
NKT1 .UE                             : :8 Большой зонд, усл.ед. -  219.0 см
W   .UE                              : :8 Большой зонд, усл.ед. -  219.0 см
#
~Other information
#------------------ REMARKS AREA -----------------------
#=======================================================
# The file is generated by the program GeoTech-EditLog v2000.12
#Number of Curves = 5
~A Log Data Section
# ...
3691.50   16.5668   526.9755    1.1603    1.5692   30.5513 
3691.60   15.9772  1161.1757    1.1695    1.6438   29.0303 
3691.70   15.6548  2431.6340    1.1744    1.6998   27.8244 
3691.80   15.8928  2224.2444    1.1630    1.6808   27.8793 
3691.90   16.6378  1966.2244    1.1517    1.6578   28.0374 
3692.00   16.3650   804.6064    1.1410    1.6190   28.6076 
3692.10   17.1080   881.5220    1.1308    1.5903   28.9440 
3692.20   17.2379  2377.8926    1.1225    1.6032   28.3410 
3692.30   17.7313  4576.8608    1.1172    1.6140   27.8934 
3692.40   17.2927  3943.5513    1.1239    1.6161   28.0735 
3692.50   16.9369  1722.9535    1.1326    1.6272   28.1139 
3692.60   17.0589   735.6293    1.1494    1.6739   27.5984 
3692.70   17.8668  1430.6830    1.1645    1.7094   27.2848 
3692.80   18.4260  2560.3228    1.1733    1.6999   27.7856 
3692.90   18.8562  2023.9609    1.1787    1.6851   28.3046 
3693.00   18.3890  1203.1246    1.1709    1.6493   28.8950 
3693.10   17.8512   610.0390    1.1659    1.6171   29.5010 
3693.20   18.0782   931.1805    1.1721    1.5995   30.1621 
3693.30   17.7325  2536.2004    1.1754    1.5860   30.6199 
3693.40   17.7110  4145.4927    1.1670    1.5886   30.2579 
3693.50   17.8279  3111.5134    1.1598    1.5928   29.8987 
3693.60   17.2099  1932.4731    1.1572    1.6031   29.5460 
3693.70   16.6969   625.3683    1.1556    1.6188   29.1076 
3693.80   16.9427  1616.2201    1.1584    1.6560   28.3170 
3693.90   17.3594  3243.0830    1.1590    1.6775   27.8320 
3694.00   17.4670  3135.9094    1.1514    1.6357   28.5674 
3694.10   17.6127  1860.6586    1.1460    1.6028   29.1630 
3694.20   17.6903   593.4976    1.1492    1.6062   29.1916 
3694.30   17.8326   993.1736    1.1531    1.6043   29.3778 
3694.40   18.1332  2068.2927    1.1594    1.5811   30.1943 
3694.50   18.7180  2672.3057    1.1642    1.5864   30.2891 
3694.60   18.4831  1415.2830    1.1627    1.7051   27.5075 
3694.70   18.0672   620.4707    1.1600    1.7828   25.6104 
3694.80   17.4783   708.5330    1.1524    1.6958   27.2714 
3694.90   17.8026  1579.7854    1.1481    1.6261   28.6639 
3695.00   16.5836  2804.6748    1.1569    1.6255   28.9815 
3695.10   16.3196  3122.0293    1.1629    1.6376   28.9136 
3695.20   16.0282  1621.2781    1.1574    1.7006   27.3045 
3695.30   15.7624   589.4377    1.1555    1.7488   26.1439 
3695.40   15.4951  1555.7854    1.1682    1.7375   26.7934 
3695.50   15.5613  4211.9805    1.1801    1.7167   27.6488 
3695.60   15.3098  5421.4927    1.1891    1.6582   29.3360 
3695.70   15.0970  5248.2949    1.1970    1.6175   30.5611 
3695.80   14.7979  5127.6089    1.2008    1.6482   29.9301 
3695.90   14.0785  9294.2734    1.1996    1.6737   29.2606 
3696.00   13.4815 18778.7852    1.1785    1.6789   28.4394 
3696.10   13.7306 15067.1660    1.1639    1.6819   27.8848 
3696.20   13.8969  2028.6146    1.1757    1.6764   28.4031 
3696.30   14.1214  1298.8167    1.1830    1.6896   28.3803 
3696.40   14.3585   549.3463    1.1727    1.7777   26.1885 
3696.50   14.8113  1345.4670    1.1654    1.8419   24.5883 
3696.60   14.5567  3062.8293    1.1699    1.8114   25.3280 
3696.70   14.8991  2848.5269    1.1783    1.7963   25.8783 
3696.80   14.9680  1174.0244    1.2025    1.8439   25.6684 
3696.90   14.7035   625.9512    1.2176    1.8718   25.5768 
3697.00   14.7337   844.6357    1.1965    1.8206   25.9573 
3697.10   15.0471  1321.9902    1.1790    1.7802   26.2277 
3697.20   15.1847  1172.7756    1.1755    1.7834   26.0546 
3697.30   15.4870  1262.6014    1.1706    1.7719   26.1540 
3697.40   15.8615   453.4634    1.1596    1.7016   27.3448 
3697.50   16.4500   564.9682    1.1503    1.6603   27.9548 
3697.60   15.4132  1221.0342    1.1474    1.7346   26.2555 
3697.70   14.8459  2890.8828    1.1464    1.7756   25.3438 
3697.80   14.7491  3437.2004    1.1525    1.6827   27.6100 
3697.90   14.4032  2616.9707    1.1594    1.6175   29.2723 
3698.00   14.6992   978.5233    1.1695    1.6633   28.5208 
3698.10   14.8998   781.6195    1.1801    1.7013   27.9757 
3698.20   15.2779  1727.7463    1.1930    1.7072   28.2622 
3698.30   15.6222  2470.0171    1.2026    1.7249   28.1951 
3698.40   14.7996  2258.9316    1.1991    1.7897   26.7107 
3698.50   15.0193  1186.4547    1.1994    1.8420   25.6088 
3698.60   15.3216   582.6927    1.2149    1.8449   26.0188 
3698.70   15.4946   733.8268    1.2218    1.8416   26.2937 
3698.80   15.9382  1357.1541    1.1943    1.8133   26.0248 
3698.90   16.0836  1692.5366    1.1701    1.7818   25.9221 
3699.00   15.5228  1181.3766    1.1585    1.7379   26.4830 
3699.10   16.1803   646.3366    1.1526    1.7006   27.0936 
3699.20   15.3004   738.4586    1.1701    1.6906   27.8962 
3699.30   14.5954  1729.3691    1.1854    1.6983   28.2423 
3699.40   13.2686  3194.4292    1.1919    1.7774   26.7547 
3699.50   13.4503  3055.3374    1.1964    1.8376   25.6041 
3699.60   13.5027  1265.8488    1.1931    1.8236   25.7834 
3699.70   13.5536   579.5024    1.1875    1.7985   26.1320 
3699.80   13.7739  1151.1785    1.1730    1.7289   27.1710 
3699.90   14.5610  2829.6196    1.1590    1.6692   28.0122 
3700.00   14.7736  3392.0073    1.1467    1.6495   28.0617 
3700.10   14.9207  2504.5903    1.1392    1.6415   27.9986 
3700.20   15.8969  1317.3000    1.1503    1.6802   27.4858 
3700.30   16.1849   544.1076    1.1591    1.7004   27.3214 
3700.40   17.1488  1080.4293    1.1582    1.6466   28.5557 
3700.50   18.4390  1891.8044    1.1565    1.5992   29.6224 
3700.60   17.5987  1729.6975    1.1519    1.5768   30.0341 
3700.70   16.8955   812.3366    1.1446    1.5597   30.2159 
3700.80   17.7736   572.1076    1.1265    1.5637   29.4697 
3700.90   17.8126  1230.9463    1.1107    1.5749   28.6304 
3701.00   18.8795  2548.7947    1.1036    1.6153   27.4220 
3701.10   19.8161  2593.0000    1.1004    1.6321   26.9356 
3701.20   20.1778  1332.4025    1.1131    1.5543   29.3426 
3701.30   20.9991   825.4572    1.1245    1.5011   31.0749 
3701.40   20.1977  1361.4927    1.1309    1.5470   30.0847 
3701.50   18.9037  3349.8752    1.1315    1.5886   29.0200 
3701.60   19.0341  3949.7317    1.1089    1.6133   27.6460 
3701.70   19.3734  2580.3416    1.0917    1.6414   26.3914 
3701.80   19.8279  1355.4792    1.0959    1.6841   25.6054 
3701.90   19.0201   589.6342    1.1003    1.7097   25.1949 
3702.00   18.7506  1369.9120    1.1053    1.6676   26.2837 
3702.10   19.1369  2808.3416    1.1071    1.6386   26.9751 
3702.20   18.0346  1814.7390    1.0959    1.6625   26.0685 
3702.30   18.4859   858.4205    1.0921    1.6728   25.7225 
3702.40   18.3665   574.3220    1.1181    1.6287   27.6279 
3702.50   17.3736  1268.8606    1.1389    1.5945   29.1251 
3702.60   17.5212  2633.6780    1.1393    1.5995   29.0125 
3702.70   18.1970  3034.6877    1.1384    1.6035   28.8809 
3702.80   17.9946  2035.1882    1.1320    1.6031   28.6710 
3702.90   17.7589  1018.1073    1.1293    1.6050   28.5311 
3703.00   18.2579  1470.6309    1.1410    1.6157   28.6712 
3703.10   17.6116  2991.3950    1.1497    1.6277   28.6826 
3703.20   17.6115  4001.3611    1.1463    1.6441   28.1788 
3703.30   17.1212  2923.5598    1.1443    1.6407   28.2297 
3703.40   16.3053  1432.4293    1.1476    1.5572   30.5044 
3703.50   15.8900  1151.5232    1.1491    1.5168   31.6392 
3703.60   15.1700  2986.9707    1.1433    1.6480   28.2416 
3703.70   15.5202  3188.7268    1.1385    1.7441   25.7091 
3703.80   15.7937  3221.9170    1.1376    1.6995   26.6485 
3703.90   15.8500  1550.4390    1.1395    1.6633   27.5012 
3704.00   15.5223  1016.0294    1.1527    1.6606   28.0061 
3704.10   14.8122  1538.9073    1.1647    1.6683   28.2355 
3704.20   15.1014  3243.7708    1.1717    1.7176   27.3605 
3704.30   15.0024  3763.6089    1.1772    1.7428   26.9857 
3704.40   14.5731  3030.0293    1.1765    1.6711   28.6202 
3704.50   14.3770  1831.3691    1.1762    1.6237   29.6984 
3704.60   14.0214   985.5707    1.1774    1.6729   28.5713 
3704.70   12.9901  2752.5415    1.1806    1.7103   27.7875 
3704.80   13.4691  4779.9219    1.1919    1.7004   28.3844 
