~Version information
VERS.                            2.00: CWLS LAS  -  VERSION 2.00
WRAP.                              NO: One line per depth step
~Well information
#MNEM.UNIT                  DATA TYPE  INFORMATION
#===.================================:==================
STRT.M                       2520.000: First depth in file
STOP.M                       2803.200: Last depth in file
STEP.M                          0.200: Depth increment
NULL.                       -9999.00 : Null values
DATE.                       : LOG DATE
TIME.                           10:42: LOG TIME
WELL.                            F7: Well name
GRP.                                 : Group name
FLD.                    F: Field name
ISS.                     окон.каротаж: Well surveys
SRVC.                                : Service Company
~Curve information
#MNEM.UNIT                   API CODE   CURVE DESCRIPTION
#===.================================:==================
DEPT.M                               : Depth curve
GR  .MKR/H                           : :11 Гамма-активность, мкр./ч -   67.0 
W   .PERC                            : :12 Водонасыщенная пористость, % -  22
CNTC.PRIV                            : :13 Малый зонд приведенный,  -  230.0 
CFTC.PRIV                            : :14 Большой зонд приведенный,  -  219.
#
~Other information
#------------------ REMARKS AREA -----------------------
#=======================================================
# The file is generated by the program GeoTech-EditLog v2000.12
#Number of Curves = 4
~A Log Data Section
2530.20   14.7535   18.4045    1.9136    3.7345 
2530.40   16.3783   18.1657    1.9709    3.8947 
2530.60   20.3349   17.3317    2.0127    4.0919 
2530.80   22.9857   17.1383    2.0209    4.1045 
2531.00   18.8383   16.4846    2.0809    4.4018 
2531.20   11.0989   16.4381    2.1227    4.4891 
2531.40    6.2243   16.5227    2.1581    4.3849 
2531.60    4.8906   15.6263    2.2173    4.8482 
2531.80    4.2454   15.7518    2.2300    4.7709 
2532.00    4.4654   15.5373    2.2091    4.6709 
2532.20    4.5182   15.2328    2.1973    4.8536 
2532.40    4.3569   15.1421    2.2309    4.9543 
2532.60    4.8399   15.1730    2.2664    5.1226 
2532.80    5.0000   16.1972    2.2191    4.7528 
2533.00    5.3227   17.2381    2.1427    4.3673 
2533.20    5.1991   17.4600    2.1309    4.2582 
2533.40    5.1045   16.6455    2.1672    4.4134 
2533.60    5.7737   15.6344    2.1827    4.6136 
2533.80    6.1545   15.3418    2.1200    4.6318 
2534.00    6.0791   14.9182    2.1845    4.8709 
2534.20    5.9292   14.3992    2.2500    5.0463 
2534.40    5.6038   14.1345    2.2636    5.1657 
2534.60    5.8585   14.2419    2.2118    4.9618 
2534.80    6.3782   14.0683    2.1800    4.8627 
2535.00    5.7528   13.0774    2.2491    5.3872 
2535.20    5.0200   12.2673    2.3982    5.9690 
2535.40    4.6511   11.9709    2.4509    6.2653 
2535.60    4.8511   12.4530    2.4154    6.0690 
2535.80    5.3854   13.7370    2.3118    5.7183 
2548.20    5.7309   16.7625    2.3191    5.1919 
2548.40    5.1978   19.9965    2.2047    4.4297 
2548.60    4.2560   25.2660    1.9235    3.2950 
2548.80    2.4148   34.5546    1.5028    2.0501 
2549.00    1.4927   40.9459    1.3527    1.5400 
2549.20    1.4827   43.4272    1.3491    1.3800 
2549.40    1.8720   43.0836    1.3436    1.4074 
2549.60    2.8932   41.2111    1.3773    1.4364 
2549.80    4.7098   37.0914    1.4682    1.7090 
2550.00    6.9871   32.8076    1.6291    2.0800 
2550.20    7.7600   30.3509    1.6655    2.2691 
2550.40    6.7540   30.4418    1.5791    2.0962 
2550.60    6.9459   28.0265    1.6956    2.4911 
2550.80    8.2162   22.7534    2.0391    3.2526 
2551.00    8.8845   18.9320    2.0873    3.9481 
2551.20    7.7830   17.6073    2.1609    4.3082 
2551.40    7.1488   17.0534    2.2036    4.6236 
2551.60    7.6205   17.8040    2.1418    4.3326 
2551.80    7.6481   18.9554    2.0673    4.0418 
2552.00    7.6990   19.6917    2.0655    3.8600 
2552.20    8.6971   20.9253    1.9364    3.5655 
2552.40    9.4213   20.9552    2.0317    3.5641 
2552.60    8.9673   19.1460    2.0873    3.8774 
2552.80    8.2346   18.0919    2.1300    4.1200 
2553.00    8.1154   17.7890    2.1018    4.2946 
2553.20    8.6773   18.5782    2.0645    3.9491 
2553.40    8.3072   17.7018    2.1064    4.1532 
2553.60    8.0871   17.5592    2.0800    4.2191 
2553.80    7.7101   17.8454    2.0836    4.2300 
2554.00    8.3226   18.3899    2.0727    4.0937 
2554.20    8.3892   18.7473    2.0700    3.9982 
2554.40    7.6602   18.6502    2.0836    3.9972 
2554.60    7.1999   18.3572    2.0936    4.0719 
2554.80    7.1974   18.5980    2.0727    4.1646 
2555.00    6.6429   19.6699    2.0664    3.9109 
2555.20    6.1573   20.4708    2.0318    3.7637 
2555.40    5.6070   21.9808    1.9464    3.6030 
2555.60    5.8366   24.4674    1.9254    3.3899 
2555.80    6.3719   28.5248    1.8173    2.8338 
2556.00    5.8065   33.5041    1.5800    2.0328 
2556.20    6.1771   35.4237    1.5045    1.7973 
2556.40    7.9186   31.9567    1.6126    2.0611 
2556.60    9.9747   26.2742    1.7891    2.6684 
2556.80   10.6944   23.8837    1.8464    3.0291 
2557.00   10.9201   24.2154    1.8473    3.0155 
2557.20   10.5700   24.0300    1.8764    3.0245 
2557.40   11.5974   23.9875    1.8255    2.9891 
2557.60   12.4385   25.4341    1.7564    2.7908 
2557.80   12.4928   26.1782    1.7573    2.6837 
2558.00   11.4103   24.7994    1.8009    2.8009 
2558.20    9.4748   22.6366    1.8918    3.1427 
2558.40    8.1923   21.1712    1.9509    3.5147 
2558.60    7.9630   20.9653    1.9727    3.4709 
2558.80    8.5210   20.9255    1.9136    3.3782 
2559.00    7.9401   20.1801    1.9336    3.5536 
2559.20    6.9664   20.0500    1.9500    3.6127 
2559.40    6.7188   20.1721    1.9645    3.5907 
2559.60    6.2845   20.3351    1.9654    3.8218 
2559.80    6.3745   22.7933    1.8882    3.3646 
2560.00    6.6445   26.1968    1.7655    2.8628 
2560.20    6.6527   29.6226    1.6109    2.1782 
2560.40    7.4309   28.7012    1.6062    2.2468 
2560.60    9.1461   23.9831    1.8528    2.8556 
2560.80   10.7390   20.9411    1.9336    3.4127 
2561.00   12.1171   20.3254    1.9255    3.5027 
2561.20   12.7501   20.7954    1.8873    3.4546 
2561.40   12.0883   20.6606    1.9472    3.5443 
2561.60   11.4363   20.6074    1.9709    3.6118 
2561.80   10.9618   20.4819    2.0100    3.6091 
2562.00    9.9883   20.0955    1.9973    3.6282 
2562.20    9.1691   19.1746    2.0436    3.8827 
2562.40    9.3403   18.9960    2.0428    3.9055 
2562.60    9.9901   19.3176    2.0254    3.8527 
2562.80    9.6455   19.6955    2.0400    3.8136 
2563.00    9.2791   19.2720    2.0836    3.8527 
2563.20    9.5564   18.5100    2.1009    4.0428 
2563.40    9.1130   17.4967    2.1409    4.2268 
2563.60    8.1418   16.1804    2.2491    4.6838 
2563.80    6.3219   14.6583    2.3882    5.3418 
2564.00    6.2336   14.5690    2.3618    5.4582 
2564.20    6.7826   15.9953    2.2746    4.9401 
2564.40    7.8884   17.4697    2.1755    4.5106 
2564.60    8.7810   18.5603    2.1118    4.0990 
2564.80    8.9900   19.3845    2.0500    3.9836 
2565.00    8.8400   19.8700    2.0800    3.9227 
2565.20    9.2772   20.6471    2.0846    3.8191 
2565.40   10.1736   22.2091    1.9955    3.5368 
2565.60   10.8414   24.0149    1.9045    3.1190 
2565.80   11.1281   25.2226    1.7946    2.8028 
2566.00   11.0319   25.6565    1.7927    2.8000 
2566.20   10.7945   23.0459    2.0263    3.2263 
2566.40   11.0574   20.3514    2.0936    3.7507 
2566.60   11.1099   19.2388    2.1136    4.0228 
2566.80   10.1074   18.8191    2.1336    4.1655 
2567.00    9.6273   19.0536    2.1500    4.2645 
2567.20    8.8991   19.7245    2.2136    4.1346 
2567.40    8.7784   19.4414    2.2091    4.0372 
2567.60    9.2793   18.7389    2.1827    4.1464 
2567.80   10.0673   18.2946    2.1673    4.2100 
2568.00    9.8599   17.8073    2.1773    4.3181 
2568.20    9.9819   17.4691    2.1873    4.4400 
2568.40    8.7404   17.2451    2.2209    4.4643 
2568.60    8.1086   16.7835    2.2509    4.6909 
2568.80    7.7346   16.4891    2.2836    4.6618 
2569.00    7.3945   16.1109    2.2491    4.7409 
2569.20    7.3454   16.0910    2.2336    4.6782 
2569.40    7.1366   15.0865    2.3053    5.0296 
2569.60    6.6206   13.8705    2.4255    5.5648 
2569.80    5.8590   12.9764    2.5373    6.0736 
2570.00    6.1454   12.6655    2.5800    6.2109 
2570.20    6.0128   12.4446    2.5455    6.2145 
2570.40    6.3187   12.5307    2.4991    6.0964 
2570.60    6.0809   12.8156    2.4719    6.0518 
2570.80    6.1091   12.8955    2.5245    6.1109 
2571.00    5.8910   13.1917    2.4927    6.0046 
2571.20    5.8772   13.8381    2.4027    5.5955 
2571.40    6.4575   14.4996    2.3728    5.4174 
2571.60    6.8517   14.9756    2.3609    5.3063 
2571.80    6.6053   14.9637    2.4045    5.2900 
2572.00    7.6799   14.5355    2.4264    5.3545 
2572.20    8.2700   14.0301    2.4000    5.3373 
2572.40    8.2097   13.1227    2.3764    5.5298 
2572.60    7.8698   12.1380    2.3736    5.8456 
2572.80    6.6620   11.3219    2.4700    6.3900 
2573.00    6.0519   11.4072    2.4664    6.5282 
2573.20    5.8181   11.7646    2.4982    6.4136 
2573.40    6.0383   11.5102    2.5953    6.8196 
2573.60    5.8892   11.7539    2.6354    6.8717 
2573.80    6.1627   12.9243    2.5237    6.3883 
2574.00    6.9518   14.9644    2.4064    5.5228 
2574.20    6.9746   15.9463    2.4027    5.0946 
2574.40    6.9439   16.3003    2.3383    4.9719 
2574.60    6.9356   17.0075    2.2791    4.7764 
2574.80    6.8363   17.9835    2.2391    4.5264 
2575.00    6.8418   18.7981    2.2100    4.2982 
