~Version information
VERS.                            2.00: CWLS LAS  -  VERSION 2.00
WRAP.                              NO: One line per depth step
~Well information
#MNEM.UNIT                  DATA TYPE  INFORMATION
#===.================================:==================
STRT.M                       2520.000: First depth in file
STOP.M                       2803.200: Last depth in file
STEP.M                          0.200: Depth increment
NULL.                       -9999.00 : Null values
DATE.                       : LOG DATE
TIME.                           10:42: LOG TIME
WELL.                            F7: Well name
GRP.                                 : Group name
FLD.                    F: Field name
ISS.                     окон.каротаж: Well surveys
SRVC.                                : Service Company
~Curve information
#MNEM.UNIT                   API CODE   CURVE DESCRIPTION
#===.================================:==================
DEPT.M                               : Depth curve
GR  .MKR/H                           : :11 Гамма-активность, мкр./ч -   67.0 
W   .PERC                            : :12 Водонасыщенная пористость, % -  22
CNTC.PRIV                            : :13 Малый зонд приведенный,  -  230.0 
CFTC.PRIV                            : :14 Большой зонд приведенный,  -  219.
#
~Other information
#------------------ REMARKS AREA -----------------------
#=======================================================
# The file is generated by the program GeoTech-EditLog v2000.12
#Number of Curves = 4
~A Log Data Section
# ...
2575.20    7.2564   18.8264    2.2364    4.2391 
2575.40    7.4662   18.5870    2.2209    4.2824 
2575.60    7.3846   17.4832    2.3382    4.5810 
2575.80    7.5582   16.5128    2.3491    4.9009 
2576.00    7.4872   16.7063    2.3127    4.8800 
2576.20    8.3690   17.3263    2.2764    4.6773 
2576.40    8.6995   18.0151    2.2609    4.4266 
2576.60    8.1291   17.4406    2.3200    4.5629 
2576.80    8.1738   16.7673    2.3036    4.6809 
2577.00    8.1545   15.7619    2.3236    4.8727 
2577.20    7.6711   15.1963    2.3082    4.9864 
2577.40    7.0191   15.2747    2.2700    4.8709 
2577.60    7.1930   15.1001    2.2364    4.9782 
2577.80    7.7145   15.4782    2.2136    4.7772 
2578.00    8.3262   15.6718    2.2164    4.8364 
2578.20    9.2699   15.8282    2.2173    4.7455 
2578.40    9.2487   15.6993    2.2372    4.8107 
2578.60    8.5207   15.3006    2.3155    5.0756 
2578.80    7.1072   14.5455    2.4173    5.4618 
2579.00    7.3427   14.4045    2.4327    5.5564 
2579.20    7.9554   14.6681    2.4064    5.4564 
2579.40    8.8016   14.9626    2.3691    5.1938 
2579.60    8.7863   15.0137    2.3300    5.1608 
2579.80    8.5536   15.2191    2.2900    5.0109 
2580.00    8.5183   15.4363    2.2673    5.0300 
2580.20    8.4845   15.7500    2.3000    4.9828 
2580.40    8.2013   15.9638    2.2772    4.8870 
2580.60    8.1766   16.0746    2.2909    4.8654 
2580.80    8.0428   16.1564    2.2873    4.8182 
2581.00    8.2354   16.0645    2.2600    4.7937 
2581.20    8.3598   15.9246    2.2673    4.8373 
2581.40    8.7404   15.7849    2.2745    4.9217 
2581.60    7.8716   15.6281    2.3136    5.0081 
2581.80    7.2300   15.6491    2.3236    5.0600 
2582.00    7.2192   15.6327    2.3400    5.0864 
2582.20    6.7465   15.9045    2.3300    5.0264 
2582.40    6.0659   16.1362    2.3536    5.0002 
2582.60    6.5464   16.0163    2.3709    5.1109 
2582.80    6.1954   15.8237    2.3973    5.2318 
2583.00    6.4855   15.8291    2.4236    5.1037 
2583.20    6.2481   15.5155    2.3891    5.1346 
2583.40    6.9482   15.3257    2.3900    5.1589 
2583.60    7.1044   15.0981    2.3900    5.2519 
2583.80    6.7236   14.8700    2.4309    5.4264 
2584.00    6.9145   14.6837    2.4427    5.4873 
2584.20    7.3081   14.5482    2.4636    5.4372 
2584.40    7.6268   14.0447    2.4564    5.5791 
2584.60    7.1951   13.6671    2.4773    5.6801 
2584.80    6.8655   13.2073    2.4955    5.8800 
2585.00    7.2891   13.3390    2.4527    5.8927 
2585.20    6.7235   13.8054    2.4609    5.8282 
2585.40    7.0397   14.1126    2.4872    5.8272 
2585.60    7.0253   14.3354    2.5073    5.6781 
2585.80    6.7363   14.2564    2.4891    5.6263 
2586.00    6.3246   14.2664    2.4736    5.6436 
2586.20    6.3882   14.2509    2.4773    5.7245 
2586.40    6.4326   14.4653    2.5100    5.6483 
2586.60    6.1711   14.4254    2.5091    5.6591 
2586.80    6.0291   14.5381    2.4964    5.6682 
2587.00    6.3491   14.9855    2.4764    5.4318 
2587.20    5.9046   14.8545    2.4455    5.4200 
2587.40    5.3694   14.9957    2.4436    5.3555 
2587.60    5.7681   14.6890    2.4391    5.3000 
2587.80    5.6855   14.2910    2.4073    5.4482 
2588.00    5.3236   13.8892    2.4409    5.5618 
2588.20    5.3908   13.3328    2.4909    5.8682 
2588.40    6.0564   12.8080    2.5145    6.0160 
2588.60    6.4854   12.2590    2.5809    6.4619 
2588.80    6.4518   12.3899    2.5936    6.5855 
2589.00    5.7155   13.0472    2.6064    6.3573 
2589.20    5.4318   13.4436    2.6100    6.2128 
2589.40    5.1804   13.6019    2.6064    6.0547 
2589.60    4.9781   13.5255    2.5736    6.1263 
2589.80    4.8727   13.6882    2.5564    6.0418 
2590.00    4.8209   14.1372    2.5273    5.8018 
2590.20    4.7073   14.4690    2.4964    5.7119 
2590.40    4.5953   14.9505    2.4764    5.4693 
2590.60    4.8237   15.0236    2.4518    5.4164 
2590.80    5.0308   15.3018    2.4400    5.3855 
2591.00    5.3518   15.4210    2.4645    5.3791 
2591.20    4.8782   15.1445    2.4618    5.4055 
2591.40    4.9974   15.2683    2.4300    5.3126 
2591.60    4.8154   15.0171    2.4391    5.2591 
2591.80    5.0400   14.6537    2.4364    5.5218 
2592.00    4.8518   14.8790    2.4364    5.5200 
2592.20    4.7573   15.2573    2.4300    5.3018 
2592.40    4.8204   15.2585    2.4328    5.2183 
2592.60    5.0773   15.1118    2.3773    5.2218 
2592.80    5.0591   14.6573    2.4164    5.3882 
2593.00    5.4300   14.3700    2.4436    5.5927 
2593.20    5.6582   14.2809    2.4836    5.6218 
2593.40    5.6436   14.1353    2.4664    5.6493 
2593.60    5.8691   14.3229    2.4400    5.6573 
2593.80    5.6973   14.6418    2.4609    5.5664 
2594.00    6.1354   14.4555    2.5173    5.6400 
2594.20    5.9482   14.3636    2.4927    5.7346 
2594.40    5.5981   14.8539    2.4600    5.6253 
2594.60    5.8464   15.6367    2.4800    5.4716 
2594.80    5.4437   16.2863    2.4509    5.2191 
2595.00    5.4072   16.4882    2.4236    5.0945 
2595.20    5.4772   16.6591    2.4264    5.0628 
2595.40    5.4556   16.8736    2.4091    4.9162 
2595.60    5.3845   17.0164    2.3827    4.8509 
2595.80    5.3809   16.5382    2.4064    4.8836 
2596.00    5.1763   16.1318    2.3400    4.9355 
2596.20    5.4445   16.0909    2.3236    4.9118 
2596.40    5.4589   15.7668    2.3545    5.1077 
2596.60    5.7473   15.5273    2.4200    5.2473 
2596.80    5.8863   15.5046    2.4273    5.2327 
2597.00    6.8654   15.1728    2.4291    5.2463 
2597.20    7.7672   15.2545    2.3382    5.0827 
2597.40    7.0431   15.8360    2.2872    4.9093 
2597.60    6.4146   15.5089    2.3373    5.1157 
2597.80    6.2419   15.4300    2.3900    5.2264 
2598.00    6.0218   15.4837    2.4209    5.2345 
2598.20    6.1773   15.1891    2.4464    5.2655 
2598.40    6.0870   14.6947    2.4228    5.4172 
2598.60    6.2217   14.6419    2.4136    5.4582 
2598.80    6.3300   14.7609    2.4100    5.4073 
2599.00    6.0927   14.7618    2.4064    5.3845 
2599.20    6.2182   15.0145    2.3836    5.3737 
2599.40    6.0868   15.3715    2.3872    5.2793 
2599.60    6.2346   15.6619    2.3809    5.2136 
2599.80    6.3546   15.6836    2.4127    5.1182 
2600.00    6.7726   15.8363    2.3418    5.0619 
2600.20    6.7710   16.6199    2.2664    4.7400 
2600.40    6.6566   16.9889    2.2736    4.6566 
2600.60    6.6025   17.0673    2.2719    4.7509 
2600.80    6.1527   16.7056    2.3609    4.8209 
2601.00    6.6546   15.6656    2.4209    5.0854 
2601.20    6.2028   14.6637    2.4564    5.4454 
2601.40    6.1238   14.4534    2.4509    5.5357 
2601.60    5.6908   14.3636    2.4464    5.4591 
2601.80    5.6328   14.0691    2.4291    5.6100 
2602.00    5.5108   14.3854    2.3827    5.4273 
2602.20    5.6136   14.6136    2.4027    5.4518 
2602.40    5.9453   15.0554    2.3755    5.3553 
2602.60    6.4621   16.0083    2.3436    4.9973 
2602.80    6.9919   16.2036    2.3464    4.9600 
2603.00    6.6209   16.5372    2.3627    4.9964 
2603.20    6.4445   17.2445    2.3364    4.7746 
2603.40    6.3277   17.1602    2.3328    4.7309 
2603.60    7.0394   17.0974    2.2900    4.8027 
2603.80    7.0336   17.5690    2.2555    4.5855 
2604.00    6.7200   18.3944    2.1818    4.2628 
2604.20    7.7908   19.2454    2.1136    4.0591 
2604.40    8.3675   19.1999    2.1545    4.0488 
2604.60    8.9168   18.4808    2.2182    4.2891 
2604.80    7.6364   17.5329    2.3109    4.5536 
2605.00    6.7846   16.2447    2.4100    5.0827 
2605.20    6.1909   15.9936    2.4064    5.1518 
2605.40    5.7614   16.6616    2.3400    5.1202 
2605.60    5.2644   18.0679    2.3327    4.8462 
