~Version information
VERS.                            2.00: CWLS LAS  -  VERSION 2.00
WRAP.                              NO: One line per depth step
~Well information
#MNEM.UNIT                    DATA TYPE  INFORMATION
#===.================================:==================
STRT.M                       2520.000: First depth in file
STOP.M                       2803.200: Last depth in file
STEP.M                          0.200: Depth increment
NULL.                       -9999.00 : Null values
DATE.                       : LOG DATE
TIME.                           10:40: LOG TIME
WELL.                             F7: Well name
GRP.                                : Group name
FLD.                   F: Field name
ISS.                    окон.каротаж: Well surveys
SRVC.                                : Service Company
~Curve information
#MNEM.UNIT                   API CODE   CURVE DESCRIPTION
#===.================================:==================
DEPT.M                               : Depth curve
SP  .mB                              : :16 ѕ—, м¬ - 1025.0 см
CILD .м—им/м                          : :14 » , м—м/м - 1961.0 см
LLD  .ќм*м                            : :20 Ѕ , ќм*м - 1768.0 см
GZ3 .ќм*м                        : :9 A2.0M0.5N, ќм*м - 1475.0 см
#
~Other information
#------------------ REMARKS AREA -----------------------
#=======================================================
# The file is generated by the program GeoTech-ShopLog v2005.04
#Number of Curves = 4
~A Log Data Section
# ...
2575.20    736.77    152.80      8.40     24.95 
2575.40    735.94    154.18      9.56     22.98 
2575.60    737.71    154.80     10.34     20.33 
2575.80    740.11    156.72      8.32     17.33 
2576.00    741.00    158.70      7.27     14.58 
2576.20    737.58    160.50      7.07     12.81 
2576.40    734.27    161.30      8.40     11.60 
2576.60    731.84    161.28      7.63     10.60 
2576.80    730.66    162.02      8.52      9.97 
2577.00    731.32    161.70      9.32      9.73 
2577.20    734.58    160.67      9.92      9.78 
2577.40    738.27    159.92      9.45     10.15 
2577.60    741.09    156.88      9.27     10.85 
2577.80    742.64    154.58      8.34     10.92 
2578.00    743.94    153.13      7.47     11.00 
2578.20    745.09    151.75      7.06     11.00 
2578.40    743.52    151.02      7.82     11.37 
2578.60    742.02    151.97     11.01     12.05 
2578.80    741.37    155.12     11.88     12.92 
2579.00    739.84    157.07     11.51     13.95 
2579.20    737.55    160.77      9.71     14.12 
2579.40    735.84    165.28      7.86     13.08 
2579.60    735.69    171.41      7.37     11.98 
2579.80    737.02    179.11      7.10     10.95 
2580.00    736.00    188.16      7.04     10.05 
2580.20    732.45    192.91      6.68      9.45 
2580.40    728.42    197.92      7.14      9.20 
2580.60    726.12    198.42      8.16      9.30 
2580.80    724.87    200.60      8.86      9.30 
2581.00    725.37    198.80      8.23      9.40 
2581.20    726.28    200.04      7.49      9.22 
2581.40    726.97    197.65      7.89      8.93 
2581.60    726.62    197.07      9.02      8.90 
2581.80    725.69    194.58     10.16      8.98 
2582.00    724.72    193.25      9.77      9.07 
2582.20    725.56    190.78     10.45      9.10 
2582.40    725.11    187.83     11.96      9.63 
2582.60    723.49    183.93     13.22     10.15 
2582.80    722.39    181.46     14.24     10.95 
2583.00    720.44    179.08     14.35     12.03 
2583.20    718.45    176.91     14.44     13.13 
2583.40    717.24    174.92     14.57     15.13 
2583.60    718.56    174.07     14.35     17.07 
2583.80    721.29    174.20     13.77     18.52 
2584.00    722.99    171.70     12.46     18.90 
2584.20    720.85    171.85     11.81     19.27 
2584.40    718.86    171.42     11.85     19.58 
2584.60    717.77    169.48     12.35     20.05 
2584.80    716.69    169.88     12.56     20.20 
2585.00    717.04    167.53     12.91     20.22 
2585.20    718.54    167.37     12.80     20.10 
2585.40    721.01    166.02     13.07     19.92 
2585.60    722.17    164.42     13.21     19.90 
2585.80    722.79    162.61     12.63     19.72 
2586.00    723.06    160.88     12.05     19.23 
2586.20    723.94    159.18     12.74     18.65 
2586.40    723.74    157.43     13.76     18.78 
2586.60    721.57    156.35     14.38     19.18 
2586.80    720.00    154.73     14.78     19.63 
2587.00    717.87    152.63     17.13     20.33 
2587.20    715.75    149.50     18.04     21.02 
2587.40    714.42    147.10     17.65     22.45 
2587.60    715.81    143.71     16.30     23.40 
2587.80    718.28    139.97     16.35     24.42 
2588.00    720.12    134.16     15.70     25.05 
2588.20    718.77    130.18     12.54     25.20 
2588.40    715.37    127.18     13.81     24.92 
2588.60    711.63    126.15     15.11     25.17 
2588.80    708.32    125.00     17.36     25.18 
2589.00    705.99    125.29     22.18     26.00 
2589.20    705.42    124.88     24.49     27.87 
2589.40    706.21    127.45     26.00     29.95 
2589.60    706.07    127.58     26.56     31.77 
2589.80    704.92    128.40     26.00     33.27 
2590.00    704.04    130.94     25.24     35.25 
2590.20    704.49    132.22     24.50     37.17 
2590.40    705.06    134.25     23.79     39.62 
2590.60    704.15    137.05     22.96     42.45 
2590.80    703.10    139.61     23.41     45.54 
2591.00    701.85    143.47     23.44     48.59 
2591.20    700.09    144.85     23.85     51.02 
2591.40    698.91    148.72     23.02     52.75 
2591.60    699.07    152.74     22.52     53.45 
2591.80    700.14    155.00     21.54     53.40 
2592.00    700.40    159.17     21.01     52.77 
2592.20    698.97    161.63     20.57     51.41 
2592.40    697.37    164.37     20.04     50.02 
2592.60    696.74    167.40     19.58     48.80 
2592.80    697.67    169.84     18.81     47.78 
2593.00    700.13    171.30     18.09     46.41 
2593.20    702.81    173.77     17.17     45.03 
2593.40    705.54    175.47     16.94     43.23 
2593.60    707.27    177.83     16.55     41.61 
2593.80    707.74    179.45     16.57     40.11 
2594.00    707.76    181.64     16.35     38.51 
2594.20    708.96    184.96     16.21     37.01 
2594.40    708.81    186.88     16.00     35.62 
2594.60    706.97    190.55     15.77     34.11 
2594.80    705.44    190.40     15.80     32.61 
2595.00    704.37    191.65     16.06     31.67 
2595.20    702.39    194.34     16.73     30.87 
2595.40    701.27    194.15     18.02     30.78 
2595.60    701.59    195.57     18.77     31.07 
2595.80    704.36    196.99     18.53     31.65 
2596.00    705.57    198.77     18.63     32.23 
2596.20    705.20    200.57     18.07     32.75 
2596.40    704.34    201.52     17.22     33.43 
2596.60    704.59    204.47     16.43     34.07 
2596.80    706.44    205.03     14.86     34.13 
2597.00    708.58    207.61     11.61     32.55 
2597.20    709.72    211.19      9.52     29.91 
2597.40    711.62    218.14     10.82     27.18 
2597.60    712.31    221.64     12.49     25.97 
2597.80    711.94    228.38     13.58     25.28 
2598.00    711.94    236.75     13.22     24.37 
2598.20    712.59    241.29     11.98     23.15 
2598.40    712.47    247.54     12.17     21.90 
2598.60    711.55    251.35     12.32     20.50 
2598.80    710.36    255.77     12.20     19.31 
2599.00    709.02    258.92     12.28     18.47 
2599.20    707.34    259.45     12.15     17.93 
2599.40    706.91    258.22     12.21     18.07 
2599.60    708.49    252.87     11.99     18.47 
2599.80    712.28    250.01     11.01     18.33 
2600.00    714.56    243.58      9.40     17.95 
2600.20    713.89    238.10      9.47     16.87 
2600.40    712.02    233.18      9.88     16.62 
2600.60    711.87    228.37     11.06     16.60 
2600.80    712.44    223.46     11.04     16.62 
2601.00    712.84    217.82     10.08     15.97 
2601.20    713.09    216.98     10.44     15.17 
2601.40    715.37    215.25     10.88     14.55 
2601.60    717.26    215.88     11.19     13.95 
2601.80    718.72    215.32     11.09     13.70 
2602.00    719.89    217.99     11.24     13.50 
2602.20    721.48    219.36     11.56     13.77 
2602.40    723.26    223.00     11.50     14.25 
2602.60    722.35    227.24     11.22     14.88 
2602.80    721.19    233.48     10.59     15.20 
2603.00    718.23    239.28      9.30     14.77 
2603.20    714.95    239.73      9.07     14.05 
2603.40    713.12    238.93     10.01     13.98 
2603.60    715.01    232.03     10.92     14.07 
2603.80    719.93    223.35     11.16     14.75 
2604.00    726.36    213.36     10.44     15.07 
2604.20    730.31    203.92      9.40     14.95 
2604.40    729.27    197.23      6.65     13.63 
2604.60    725.75    192.61      7.13     11.93 
2604.80    723.00    189.61      9.00     11.15 
2605.00    720.59    187.15     10.30     10.62 
2605.20    720.11    181.62     10.55     10.42 
2605.40    721.39    174.98     10.81     10.58 
2605.60    720.97    163.61     10.91     10.95 
