~Version information
VERS.                            2.00: CWLS LAS  -  VERSION 2.00
WRAP.                              NO: One line per depth step
~Well information
#MNEM.UNIT                    DATA TYPE  INFORMATION
#===.================================:==================
STRT.M                       2520.000: First depth in file
STOP.M                       2803.200: Last depth in file
STEP.M                          0.200: Depth increment
NULL.                       -9999.00 : Null values
DATE.                       : LOG DATE
TIME.                           10:40: LOG TIME
WELL.                             F7: Well name
GRP.                                : Group name
FLD.                   F: Field name
ISS.                    окон.каротаж: Well surveys
SRVC.                                : Service Company
~Curve information
#MNEM.UNIT                   API CODE   CURVE DESCRIPTION
#===.================================:==================
DEPT.M                               : Depth curve
SP  .mB                              : :16 ѕ—, м¬ - 1025.0 см
CILD .м—им/м                          : :14 » , м—м/м - 1961.0 см
LLD  .ќм*м                            : :20 Ѕ , ќм*м - 1768.0 см
GZ3 .ќм*м                        : :9 A2.0M0.5N, ќм*м - 1475.0 см
#
~Other information
#------------------ REMARKS AREA -----------------------
#=======================================================
# The file is generated by the program GeoTech-ShopLog v2005.04
#Number of Curves = 4
~A Log Data Section
2530.20    763.15    138.39      5.95      9.22 
2530.40    759.05    126.93      7.63      9.20 
2530.60    753.76    113.56      8.71      9.92 
2530.80    750.40    101.67      8.35     11.10 
2531.00    747.34     90.40     10.46     13.22 
2531.20    744.87     79.84     12.68     15.44 
2531.40    742.87     68.03     42.34     17.47 
2531.60    738.53     58.54     58.63     18.92 
2531.80    734.77     51.19     65.60     19.92 
2532.00    732.30     48.90     52.76     21.27 
2532.20    731.92     47.08     40.72     23.49 
2532.40    732.52     47.60     43.85     26.92 
2532.60    734.98     48.00     46.39     30.62 
2532.80    737.94     48.74     22.99     33.24 
2533.00    741.56     51.54     16.57     36.12 
2533.20    744.38     53.17     25.15     42.50 
2533.40    747.26     52.73     29.50     51.04 
2533.60    751.23     52.78     17.60     56.94 
2533.80    754.19     54.12     12.77     57.30 
2534.00    755.17     54.85     18.19     55.48 
2534.20    755.36     54.17     21.53     53.96 
2534.40    756.11     53.20     29.95     51.82 
2534.60    755.57     54.42     14.59     47.99 
2534.80    754.72     57.11     12.26     44.18 
2535.00    754.39     58.48     17.76     43.38 
2535.20    755.29     59.19     30.49     45.45 
2535.40    758.19     59.53     41.12     49.67 
2535.60    759.49     62.10     42.18     53.37 
2535.80    757.74     64.86     43.66     51.78 
2548.20    736.49     67.93     20.34     58.05 
2548.40    736.87     65.57     12.73     54.41 
2548.60    737.92     64.27      4.65     48.54 
2548.80    739.98     61.84     36.93     45.58 
2549.00    743.98     54.71    234.55     50.17 
2549.20    748.96     48.19    281.64     55.37 
2549.40    752.57     47.03    164.93     58.88 
2549.60    755.06     51.16     74.29     59.40 
2549.80    756.68     57.59     41.90     54.87 
2550.00    759.31     64.81     13.85     49.54 
2550.20    761.93     72.64     16.44     48.52 
2550.40    761.99     78.09     38.96     49.30 
2550.60    761.70     82.49     23.16     47.50 
2550.80    760.15     89.33     15.04     46.97 
2551.00    757.18     97.91     12.41     47.15 
2551.20    754.32    105.26     12.36     42.93 
2551.40    753.56    112.47     13.44     40.02 
2551.60    753.96    117.81     12.07     41.10 
2551.80    754.11    124.34     10.02     45.96 
2552.00    752.82    130.12     11.63     48.65 
2552.20    749.67    135.21     11.08     43.96 
2552.40    746.97    142.20      8.30     34.63 
2552.60    745.67    150.41      7.54     26.42 
2552.80    747.18    157.35      8.29     20.02 
2553.00    749.09    162.96      7.91     15.38 
2553.20    751.66    167.34      7.55     11.88 
2553.40    752.86    171.18      7.45      9.73 
2553.60    753.04    174.68      9.37      8.68 
2553.80    754.32    176.54      9.53      8.42 
2554.00    755.07    178.08      7.17      8.52 
2554.20    753.65    181.67      6.09      8.98 
2554.40    749.20    183.78      7.36      9.47 
2554.60    746.87    184.20      7.62      9.58 
2554.80    744.85    178.82      9.79      9.85 
2555.00    741.97    172.15     10.13     10.72 
2555.20    741.21    161.53     10.19     13.09 
2555.40    742.22    151.65      9.07     17.10 
2555.60    745.44    139.69      8.42     22.88 
2555.80    749.71    126.40     11.20     27.91 
2556.00    752.11    112.78     54.83     30.92 
2556.20    751.99    104.29     63.97     29.90 
2556.40    752.12    100.47     20.42     25.61 
2556.60    752.11    103.56     10.94     20.59 
2556.80    752.89    108.29     11.04     17.13 
2557.00    755.78    113.88     10.63     15.15 
2557.20    759.70    120.18      9.65     14.33 
2557.40    761.89    125.95     10.07     15.12 
2557.60    761.40    132.93      9.87     16.47 
2557.80    758.33    139.93      9.43     17.28 
2558.00    755.52    147.08      9.16     16.92 
2558.20    754.32    155.76      9.42     15.90 
2558.40    751.89    163.20     10.48     14.40 
2558.60    748.47    169.88      8.38     13.11 
2558.80    743.53    173.24      8.81     11.88 
2559.00    738.47    175.19     10.07     11.60 
2559.20    735.54    173.41     10.61     12.39 
2559.40    735.74    168.18     12.17     14.43 
2559.60    739.90    158.90     12.92     19.09 
2559.80    746.00    149.44      9.67     27.30 
2560.00    750.54    137.00     10.38     35.08 
2560.20    752.44    127.19     34.38     38.47 
2560.40    753.74    119.97     22.92     33.45 
2560.60    754.36    119.20      9.05     24.47 
2560.80    756.63    122.04      8.14     17.24 
2561.00    758.02    126.44      7.19     13.25 
2561.20    760.95    128.89      6.64     10.56 
2561.40    763.21    129.77      8.72      9.62 
2561.60    763.36    128.57      8.84      9.40 
2561.80    761.52    127.66      8.56      9.22 
2562.00    762.22    128.64      7.94      9.45 
2562.20    764.11    128.65      8.65     10.77 
2562.40    764.26    127.82      8.12     12.37 
2562.60    762.94    125.63      8.34     13.62 
2562.80    761.55    125.32      8.59     13.98 
2563.00    757.47    123.68      8.63     14.10 
2563.20    753.27    126.77      8.31     14.10 
2563.40    748.79    130.38      8.05     14.83 
2563.60    748.02    136.36     11.34     15.72 
2563.80    747.17    140.34     20.57     16.72 
2564.00    745.27    146.46     21.46     16.83 
2564.20    743.82    150.19     12.98     16.08 
2564.40    743.89    156.80      9.12     14.90 
2564.60    743.19    159.52      7.26     13.50 
2564.80    744.23    158.87      8.89     12.27 
2565.00    748.36    155.54     10.49     11.92 
2565.20    753.70    149.91      7.66     12.25 
2565.40    758.52    146.20      7.21     13.70 
2565.60    761.08    142.45      7.38     17.56 
2565.80    762.59    139.18      3.47     20.27 
2566.00    764.61    132.54      7.55     19.03 
2566.20    766.34    125.56      9.44     14.54 
2566.40    765.82    120.15      9.40     11.17 
2566.60    764.17    115.60      9.64      9.15 
2566.80    761.33    114.73      9.56      8.00 
2567.00    758.82    115.25      8.47      7.27 
2567.20    756.84    119.12      8.46      7.02 
2567.40    755.29    122.63      8.66      7.17 
2567.60    755.24    126.05      9.62      7.93 
2567.80    755.27    130.19     10.14      9.00 
2568.00    752.07    135.29      9.26     10.74 
2568.20    746.83    141.58      8.06     12.60 
2568.40    742.45    147.44      7.28     12.23 
2568.60    739.54    150.92      8.06     11.47 
2568.80    737.92    150.61      8.74     10.95 
2569.00    737.97    144.65      8.24     10.52 
2569.20    739.99    135.98      8.63     10.40 
2569.40    743.19    124.39     10.53     11.18 
2569.60    744.94    112.28     13.52     12.65 
2569.80    745.42    101.50     16.74     14.34 
2570.00    746.26     91.02     22.70     15.95 
2570.20    748.59     85.43     21.57     17.02 
2570.40    748.87     84.35     13.97     17.93 
2570.60    748.64     87.47     18.94     19.15 
2570.80    747.44     90.10     22.72     21.05 
2571.00    745.64     94.47     17.65     21.95 
2571.20    743.75     99.71     12.23     22.28 
2571.40    743.17    104.99     10.50     23.12 
2571.60    744.38    109.32     14.37     24.39 
2571.80    746.74    109.82     13.21     25.37 
2572.00    745.95    110.22      9.29     23.86 
2572.20    742.40    111.13      9.21     21.46 
2572.40    738.54    109.42     10.63     20.17 
2572.60    735.14    108.10     22.18     20.60 
2572.80    733.29    106.26     37.50     21.92 
2573.00    734.01    105.95     18.04     22.53 
2573.20    735.76    107.10     24.28     23.82 
2573.40    738.04    111.40     54.62     26.78 
2573.60    737.70    115.94     47.57     29.79 
2573.80    737.32    123.20     13.59     30.35 
2574.00    737.64    131.36      9.52     29.01 
2574.20    739.11    137.66     14.01     28.85 
2574.40    738.97    142.55     11.70     29.45 
2574.60    738.22    143.95     10.44     29.13 
2574.80    737.62    148.39      9.66     28.67 
2575.00    737.59    151.16      8.93     27.25 
