~Version information
VERS.                            2.00: CWLS LAS  -  VERSION 2.00
WRAP.                              NO: One line per depth step
~Well information
#MNEM.UNIT                    DATA TYPE  INFORMATION
#===.================================:==================
STRT.M                       1129.000: First depth in file
STOP.M                       2854.200: Last depth in file
STEP.M                          0.100: Depth increment
NULL.                       -9999.00 : Null values
DATE.                        : LOG DATE
TIME.                           15:28: LOG TIME
WELL.                             F9: Well name
GRP.                       : Group name
FLD.                    : Field name
ISS.                 Ò‚Ó‰Ì˚È Í‡ÓÚ‡Ê: Well surveys
SRVC.                                : Service Company
~Curve information
#MNEM.UNIT                   API CODE   CURVE DESCRIPTION
#===.================================:==================
DEPT.M                               : Depth curve
¿2Ã0.5N .ŒÏ*Ï                        : :9 A2.0M0.5N, ŒÏ*Ï - 1475.0 ÒÏ
œ—  .Ï¬                              : :12 œ—, Ï¬ -  372.0 ÒÏ
»   .Ï—ËÏ                            : :14 » , Ï—Ï/Ï - 1961.0 ÒÏ
¡   .ŒÏ*Ï                            : :20 ¡ , ŒÏ*Ï - 1768.0 ÒÏ
√   .√‡ÏÏ                            : :11 √‡ÏÏ‡-‡ÍÚË‚ÌÓÒÚ¸, ÏÍ./˜ -   67.0 
Õ “ .Û.Â.                            : :14 ¡ÓÎ¸¯ÓÈ ÁÓÌ‰ ÔË‚Â‰ÂÌÌ˚È,  -  219.
 ¬  .ÏÏ                              : :20 —. ‰Ë‡ÏÂÚ, ÏÏ -  290.0 ÒÏ
#
~Other information
#------------------ REMARKS AREA -----------------------
#=======================================================
# The file is generated by the program GeoTech-ShopLog v2005.04
#Number of Curves = 7
~A Log Data Section
# ...
2495.80      8.05    570.18    180.42      8.10     11.63      3.35    221.81 
2495.90      8.10    569.96    178.48      8.05     11.94      3.39    221.94 
2496.00      8.31    572.22    176.31      7.85     12.30      3.51    222.15 
2496.10      8.66    576.65    174.74      7.33     11.98      3.48    222.22 
2496.20      8.85    580.39    173.77      6.30     12.11      3.34    222.44 
2496.30      8.95    585.19    172.49      5.03     13.10      3.42    222.70 
2496.40      8.95    589.32    171.61      4.57     13.74      3.53    222.72 
2496.50      8.90    590.31    171.17      4.83     13.12      3.39    222.64 
2496.60      8.85    590.44    171.06      5.31     12.58      3.24    222.42 
2496.70      8.85    591.65    171.73      5.19     12.67      3.19    222.30 
2496.80      9.00    592.00    172.43      5.15     13.08      3.21    222.16 
2496.90      9.20    590.79    173.00      5.00     13.37      3.30    222.08 
2497.00      9.30    589.29    172.67      4.77     13.44      3.34    222.04 
2497.10      9.20    586.54    172.60      5.02     13.47      3.29    222.03 
2497.20      9.00    582.59    173.36      5.68     13.27      3.31    221.89 
2497.30      8.69    577.70    174.39      6.48     12.68      3.32    221.70 
2497.40      8.34    573.21    175.70      6.75     12.19      3.32    221.28 
2497.50      8.20    570.43    177.39      6.82     11.89      3.36    220.79 
2497.60      8.25    567.97    178.60      6.86     11.88      3.44    220.28 
2497.70      8.30    565.27    179.30      7.04     12.21      3.47    220.06 
2497.80      8.25    562.10    179.72      7.05     12.58      3.35    219.94 
2497.90      8.15    559.96    180.49      7.04     13.41      3.29    219.15 
2498.00      8.05    559.16    180.77      7.13     13.77      3.27    218.25 
2498.10      8.00    558.04    181.52      7.12     14.28      3.30    217.82 
2498.20      7.90    557.63    182.77      7.25     14.15      3.34    216.21 
2498.30      7.75    557.30    183.60      7.35     14.19      3.22    215.77 
2498.40      7.70    556.30    184.76      7.30     14.72      3.17    215.52 
2498.50      7.70    555.72    185.69      7.27     14.76      3.30    215.38 
2498.60      7.65    556.25    186.02      7.38     14.60      3.23    215.38 
2498.70      7.65    557.86    185.35      7.54     13.90      3.13    215.40 
2498.80      7.75    559.14    185.26      7.68     13.25      3.21    215.43 
2498.90      7.96    559.58    185.20      7.93     12.96      3.29    215.60 
2499.00      8.20    560.19    183.87      8.12     12.48      3.41    215.80 
2499.10      8.40    560.83    181.95      8.12     11.90      3.53    216.16 
2499.20      8.66    561.75    179.89      8.05     11.44      3.55    216.82 
2499.30      8.96    563.25    177.33      7.92     11.47      3.42    217.22 
2499.40      9.26    565.01    175.07      7.72     11.88      3.29    218.20 
2499.50      9.56    567.37    172.35      7.22     12.25      3.32    218.43 
2499.60      9.75    569.87    168.94      5.95     12.50      3.38    218.62 
2499.70      9.80    572.37    167.04      5.68     11.93      3.38    218.57 
2499.80      9.85    573.46    165.09      6.67     11.38      3.48    218.55 
2499.90      9.90    573.22    163.38      7.78     11.07      3.70    218.46 
2500.00      9.90    573.43    161.97      8.35     10.96      4.06    218.32 
2500.10     10.11    574.97    159.88      8.51     11.19      4.47    218.23 
2500.20     10.61    577.37    157.06      9.46     11.32      5.00    218.18 
2500.30     11.26    579.46    154.84     12.09     11.17      5.56    218.02 
2500.40     11.96    581.15    153.51     13.59     10.43      5.93    217.69 
2500.50     12.82    583.33    152.48     13.91     10.30      5.84    217.55 
2500.60     13.61    585.51    151.93     12.00     10.49      5.32    217.50 
2500.70     14.11    586.53    151.46      8.39     10.62      4.70    217.67 
2500.80     14.35    586.72    151.83      6.25     11.00      4.24    218.14 
2500.90     14.35    587.09    153.50      5.90     11.78      3.88    218.68 
2501.00     13.94    588.10    155.38      5.78     12.17      3.54    218.78 
2501.10     13.18    590.18    158.23      4.90     12.64      3.44    218.87 
2501.20     12.38    593.60    161.58      4.20     13.16      3.47    218.97 
2501.30     11.58    596.15    164.63      4.28     13.82      3.49    219.44 
2501.40     10.73    596.41    167.10      4.89     14.16      3.44    219.46 
2501.50      9.94    594.98    168.75      5.43     13.31      3.43    219.40 
2501.60      9.29    594.08    170.05      5.43     12.83      3.49    219.37 
2501.70      8.90    594.90    170.83      4.90     13.48      3.56    219.35 
2501.80      8.75    596.04    171.00      4.60     13.69      3.62    219.34 
2501.90      8.60    596.63    171.57      4.83     13.20      3.75    219.32 
2502.00      8.50    596.41    171.83      5.46     13.08      3.76    219.29 
2502.10      8.55    596.38    172.56      5.29     13.48      3.68    219.35 
2502.20      8.70    597.81    172.91      4.85     14.02      3.72    219.55 
2502.30      8.85    600.59    172.93      4.57     14.42      3.74    219.60 
2502.40      8.95    602.90    173.73      4.44     14.33      3.68    219.65 
2502.50      9.00    604.66    174.43      4.39     14.47      3.62    219.67 
2502.60      9.16    606.30    175.69      4.31     14.11      3.52    219.74 
2502.70      9.30    607.08    176.56      4.39     13.97      3.48    219.79 
2502.80      9.35    607.32    177.92      4.46     14.25      3.48    220.07 
2502.90      9.30    607.89    179.82      4.30     14.00      3.40    220.21 
2503.00      9.10    608.53    181.07      4.27     13.57      3.29    220.46 
2503.10      8.90    608.62    181.90      4.27     13.66      3.21    220.53 
2503.20      8.64    609.09    182.09      4.10     14.05      3.25    220.86 
2503.30      8.40    608.74    182.06      4.13     14.26      3.31    221.35 
2503.40      8.25    608.60    182.73      4.22     14.58      3.37    221.49 
2503.50      8.04    609.17    183.49      4.17     14.51      3.40    221.73 
2503.60      7.85    608.81    183.76      4.26     14.82      3.41    221.89 
2503.70      7.75    607.80    184.09      4.41     14.47      3.40    222.04 
2503.80      7.60    607.48    184.47      4.71     14.19      3.30    222.10 
2503.90      7.45    607.36    184.94      4.58     14.30      3.31    222.12 
2504.00      7.35    607.08    185.03      4.21     14.52      3.41    221.99 
2504.10      7.20    607.59    185.25      4.10     14.81      3.37    221.41 
2504.20      7.05    608.39    185.33      4.08     15.16      3.26    221.27 
2504.30      6.95    608.98    186.24      4.15     15.79      3.20    221.26 
2504.40      6.85    609.64    187.23      4.12     15.84      3.11    221.21 
2504.50      6.75    610.44    187.46      4.05     15.46      3.15    221.20 
2504.60      6.65    610.77    188.08      4.03     15.39      3.25    221.11 
2504.70      6.55    609.99    188.27      4.05     15.69      3.28    221.01 
2504.80      6.45    609.27    187.47      3.96     15.78      3.23    220.98 
2504.90      6.35    609.38    187.40      3.91     15.84      3.22    220.94 
2505.00      6.35    609.99    187.18      3.95     15.75      3.38    220.91 
2505.10      6.40    610.58    186.68      3.94     15.17      3.57    220.92 
2505.20      6.35    609.94    186.77      3.98     15.34      3.53    221.03 
2505.30      6.30    608.49    186.32      4.09     15.03      3.43    221.22 
2505.40      6.25    607.41    185.50      4.16     14.59      3.40    221.69 
2505.50      6.20    606.66    184.05      4.20     14.23      3.42    221.94 
2505.60      6.15    604.81    182.51      4.55     13.65      3.55    222.08 
2505.70      5.94    602.07    180.51      5.22     12.98      3.64    222.24 
2505.80      5.75    599.63    177.44      5.79     12.98      3.58    222.43 
2505.90      5.70    597.69    174.62      5.62     13.26      3.55    222.55 
