~Version information
VERS.                            2.00: CWLS LAS  -  VERSION 2.00
WRAP.                              NO: One line per depth step
~Well information
#MNEM.UNIT                    DATA TYPE  INFORMATION
#===.================================:==================
STRT.M                       1129.000: First depth in file
STOP.M                       2854.200: Last depth in file
STEP.M                          0.100: Depth increment
NULL.                       -9999.00 : Null values
DATE.                        : LOG DATE
TIME.                           15:28: LOG TIME
WELL.                             F9: Well name
GRP.                       : Group name
FLD.                    : Field name
ISS.                 Ò‚Ó‰Ì˚È Í‡ÓÚ‡Ê: Well surveys
SRVC.                                : Service Company
~Curve information
#MNEM.UNIT                   API CODE   CURVE DESCRIPTION
#===.================================:==================
DEPT.M                               : Depth curve
¿2Ã0.5N .ŒÏ*Ï                        : :9 A2.0M0.5N, ŒÏ*Ï - 1475.0 ÒÏ
œ—  .Ï¬                              : :12 œ—, Ï¬ -  372.0 ÒÏ
»   .Ï—ËÏ                            : :14 » , Ï—Ï/Ï - 1961.0 ÒÏ
¡   .ŒÏ*Ï                            : :20 ¡ , ŒÏ*Ï - 1768.0 ÒÏ
√   .√‡ÏÏ                            : :11 √‡ÏÏ‡-‡ÍÚË‚ÌÓÒÚ¸, ÏÍ./˜ -   67.0 
Õ “ .Û.Â.                            : :14 ¡ÓÎ¸¯ÓÈ ÁÓÌ‰ ÔË‚Â‰ÂÌÌ˚È,  -  219.
 ¬  .ÏÏ                              : :20 —. ‰Ë‡ÏÂÚ, ÏÏ -  290.0 ÒÏ
#
~Other information
#------------------ REMARKS AREA -----------------------
#=======================================================
# The file is generated by the program GeoTech-ShopLog v2005.04
#Number of Curves = 7
~A Log Data Section
# ...
2159.20      2.90    561.76    328.11      3.36      9.93      2.77    216.17 
2159.30      2.82    556.83    328.14      3.59      9.63      2.81    215.64 
2159.40      2.70    552.40    326.03      3.71      9.40      2.81    215.34 
2159.50      2.70    548.47    322.35      3.65      9.34      2.80    215.42 
2159.60      2.70    546.33    316.73      3.63      9.19      2.84    215.74 
2159.70      2.70    546.15    310.81      3.65      9.07      2.90    216.27 
2159.80      2.70    547.34    303.39      3.67      9.51      2.95    216.76 
2159.90      2.74    551.39    295.45      3.99     10.12      3.05    217.06 
2160.00      2.88    556.18    288.12      4.51     10.39      3.20    217.22 
2160.10      3.08    561.37    281.25      3.78     10.39      3.20    217.26 
2160.20      3.28    568.04    274.27      3.05     10.38      3.07    217.33 
2160.30      3.44    573.84    267.80      3.00     10.49      2.94    217.76 
2160.40      3.58    577.35    262.59      3.12     10.88      2.78    218.37 
2160.50      3.74    579.37    258.51      3.34     11.52      2.71    218.64 
2160.60      3.88    580.15    255.10      3.51     11.87      2.67    218.69 
2160.70      4.08    580.42    252.14      3.50     11.96      2.62    218.85 
2160.80      4.16    580.92    248.92      3.38     12.07      2.63    219.36 
2160.90      4.02    581.20    245.74      3.29     11.67      2.69    219.83 
2161.00      3.90    581.47    243.68      3.48     10.99      2.88    220.29 
2161.10      3.82    582.03    242.12      3.72     10.33      3.08    220.81 
2161.20      3.66    582.52    240.92      3.75     10.42      3.20    221.23 
2161.30      3.52    582.48    240.11      3.67     10.74      3.22    221.56 
2161.40      3.36    582.41    239.08      3.56     10.64      3.22    221.70 
2161.50      3.26    582.45    238.25      3.47     10.64      3.24    221.78 
2161.60      3.16    582.07    237.33      3.40     10.84      3.37    221.82 
2161.70      3.10    582.34    236.20      3.40     11.25      3.42    221.78 
2161.80      3.14    582.75    235.33      3.49     11.35      3.22    221.67 
2161.90      3.20    582.59    233.83      3.68     11.61      3.00    221.55 
2162.00      3.24    582.23    232.23      3.76     11.50      2.95    221.51 
2162.10      3.30    581.51    230.91      3.73     11.49      3.04    221.54 
2162.20      3.30    580.34    230.02      3.78     11.64      3.30    221.49 
2162.30      3.34    579.92    229.74      3.82     11.56      3.47    221.00 
2162.40      3.40    580.53    229.90      3.76     10.99      3.49    220.23 
2162.50      3.48    581.34    229.61      3.81     10.93      3.35    219.29 
2162.60      3.64    581.97    229.45      3.81     10.92      3.26    218.60 
2162.70      3.74    582.09    229.40      3.77     11.14      3.28    218.46 
2162.80      3.88    582.38    229.01      3.85     11.65      3.32    218.74 
2162.90      4.04    582.43    229.04      3.94     11.49      3.36    219.19 
2163.00      4.14    582.69    230.12      4.01     11.04      3.40    219.48 
2163.10      4.24    583.21    231.09      4.10     11.01      3.45    219.69 
2163.20      4.26    583.14    232.22      4.07     11.53      3.38    219.83 
2163.30      4.20    582.95    233.63      3.86     11.80      3.40    219.82 
2163.40      4.20    582.79    234.77      3.55     11.80      3.39    219.44 
2163.50      4.16    583.08    237.00      3.50     11.47      3.31    218.93 
2163.60      4.14    583.67    239.38      3.68     11.04      3.21    218.24 
2163.70      4.24    584.33    239.96      3.85     11.24      3.14    217.56 
2163.80      4.30    584.65    240.67      3.74     11.43      3.03    217.27 
2163.90      4.34    584.33    241.75      3.53     11.32      2.96    217.45 
2164.00      4.40    583.72    242.43      3.54     11.28      2.96    217.74 
2164.10      4.40    583.73    243.88      3.67     11.07      2.92    217.83 
2164.20      4.48    583.51    245.57      3.73     10.91      2.92    217.88 
2164.30      4.64    582.88    246.89      3.57     11.30      3.02    218.12 
2164.40      4.70    582.59    247.97      3.57     12.10      3.09    218.49 
2164.50      4.70    583.21    248.89      3.57     12.39      3.14    218.68 
2164.60      4.70    584.02    249.78      3.57     12.08      3.17    218.43 
2164.70      4.66    583.88    251.22      3.57     11.62      3.11    217.54 
2164.80      4.60    583.38    253.06      3.47     11.43      3.06    216.93 
2164.90      4.64    583.04    254.82      3.45     11.37      3.03    216.78 
2165.00      4.66    583.17    256.03      3.32     11.12      3.02    216.48 
2165.10      4.60    582.58    257.86      3.19     10.80      3.11    216.06 
2165.20      4.48    581.52    261.57      3.22     10.63      3.12    215.60 
2165.30      4.26    580.77    265.02      3.13     10.91      3.13    215.24 
2165.40      4.24    580.18    266.38      3.09     11.25      3.16    215.05 
2165.50      4.34    580.27    267.19      3.32     11.33      3.14    214.93 
2165.60      4.44    580.77    268.91      3.63     11.18      3.07    214.89 
2165.70      4.54    581.05    271.56      3.75     11.07      2.99    214.90 
2165.80      4.60    581.10    274.45      3.52     10.47      2.98    215.06 
2165.90      4.52    580.88    278.89      3.32     10.14      3.03    215.66 
2166.00      4.40    580.21    285.33      3.23     10.09      3.09    216.71 
2166.10      4.40    579.85    292.01      3.38     10.28      3.11    217.59 
2166.20      4.44    579.90    299.64      3.70     10.41      3.13    218.11 
2166.30      4.58    580.06    307.83      3.67     10.21      3.10    218.41 
2166.40      4.78    580.09    317.17      3.75     10.28      3.07    218.43 
2166.50      4.94    580.05    328.95      4.46     10.53      3.02    218.30 
2166.60      4.96    579.66    343.30      4.03     10.47      2.94    217.70 
2166.70      4.86    579.62    357.75      3.10     10.56      2.97    216.34 
2166.80      4.72    579.25    374.47      2.79     10.66      2.88    215.28 
2166.90      4.48    577.24    393.16      2.69     10.53      2.79    215.06 
2167.00      4.18    573.72    410.46      2.63     10.56      2.71    215.00 
2167.10      3.92    568.05    428.75      2.75     10.70      2.56    214.47 
2167.20      3.68    560.84    446.04      3.11     10.30      2.63    213.64 
2167.30      3.46    551.01    461.92      3.35      9.87      2.68    212.81 
2167.40      3.36    541.86    476.50      3.58     10.11      2.69    212.15 
2167.50      3.22    534.78    491.75      3.90     10.21      2.66    211.80 
2167.60      2.98    528.94    506.24      3.95      9.75      2.58    211.73 
2167.70      2.76    524.04    519.58      3.81      9.36      2.50    211.82 
2167.80      2.66    520.08    531.32      3.59      9.30      2.46    211.86 
2167.90      2.60    517.89    542.86      3.46      9.22      2.52    211.80 
2168.00      2.52    516.82    553.84      3.32      9.20      2.56    211.68 
2168.10      2.36    516.39    561.42      3.28      9.18      2.53    211.43 
2168.20      2.30    515.70    566.18      3.27      9.16      2.51    211.13 
2168.30      2.26    515.25    570.42      3.28      9.27      2.52    210.83 
2168.40      2.16    515.25    574.43      3.27      9.33      2.56    210.58 
2168.50      2.06    514.66    577.50      3.13      9.43      2.57    210.52 
2168.60      2.00    513.28    579.43      3.05     10.04      2.51    210.66 
2168.70      2.00    511.69    579.76      3.08     10.19      2.44    210.91 
2168.80      2.00    509.86    578.49      3.21      9.90      2.38    211.21 
2168.90      2.00    508.14    575.67      3.46      9.28      2.42    211.41 
2169.00      2.00    506.52    571.24      3.67      9.07      2.46    211.50 
2169.10      2.00    504.56    563.94      3.82      8.76      2.57    211.63 
2169.20      1.96    503.00    555.33      3.73      8.62      2.62    211.72 
2169.30      1.90    502.23    543.62      3.41      8.81      2.54    211.69 
