~Version information
VERS.                            2.00: CWLS LAS  -  VERSION 2.00
WRAP.                              NO: One line per depth step
~Well information
#MNEM.UNIT                    DATA TYPE  INFORMATION
#===.================================:==================
STRT.M                       1129.000: First depth in file
STOP.M                       2854.200: Last depth in file
STEP.M                          0.100: Depth increment
NULL.                       -9999.00 : Null values
DATE.                        : LOG DATE
TIME.                           15:28: LOG TIME
WELL.                             F9: Well name
GRP.                       : Group name
FLD.                    : Field name
ISS.                 Ò‚Ó‰Ì˚È Í‡ÓÚ‡Ê: Well surveys
SRVC.                                : Service Company
~Curve information
#MNEM.UNIT                   API CODE   CURVE DESCRIPTION
#===.================================:==================
DEPT.M                               : Depth curve
¿2Ã0.5N .ŒÏ*Ï                        : :9 A2.0M0.5N, ŒÏ*Ï - 1475.0 ÒÏ
œ—  .Ï¬                              : :12 œ—, Ï¬ -  372.0 ÒÏ
»   .Ï—ËÏ                            : :14 » , Ï—Ï/Ï - 1961.0 ÒÏ
¡   .ŒÏ*Ï                            : :20 ¡ , ŒÏ*Ï - 1768.0 ÒÏ
√   .√‡ÏÏ                            : :11 √‡ÏÏ‡-‡ÍÚË‚ÌÓÒÚ¸, ÏÍ./˜ -   67.0 
Õ “ .Û.Â.                            : :14 ¡ÓÎ¸¯ÓÈ ÁÓÌ‰ ÔË‚Â‰ÂÌÌ˚È,  -  219.
 ¬  .ÏÏ                              : :20 —. ‰Ë‡ÏÂÚ, ÏÏ -  290.0 ÒÏ
#
~Other information
#------------------ REMARKS AREA -----------------------
#=======================================================
# The file is generated by the program GeoTech-ShopLog v2005.04
#Number of Curves = 7
~A Log Data Section
# ...
1241.20      5.40    546.31    179.50      3.64      9.76      1.55    332.67 
1241.30      5.50    545.95    176.30      3.84     10.05      1.65    315.01 
1241.40      5.60    545.76    173.30      4.12      9.78      1.67    296.10 
1241.50      5.90    544.53    169.60      4.52      9.25      1.84    286.87 
1241.60      6.40    542.43    166.50      5.09      9.44      1.91    263.09 
1241.70      6.90    540.28    163.00      5.67      9.92      2.00    245.29 
1241.80      7.60    538.72    160.60      6.08      9.71      2.12    230.82 
1241.90      8.00    537.67    158.70      6.36     10.34      2.19    213.27 
1242.00      8.60    536.86    157.80      6.56     10.23      2.19    211.60 
1242.10      8.90    536.31    157.70      6.74     10.45      2.25    211.74 
1242.20      9.30    536.10    158.10      6.89      9.53      2.31    211.91 
1242.30      9.60    536.98    158.90      6.98      9.58      2.18    213.14 
1242.40      9.90    538.24    161.20      6.91      9.78      2.17    216.12 
1242.50      9.80    540.11    163.00      6.61     10.10      2.20    220.00 
1242.60      9.40    542.81    166.20      5.91     10.45      1.93    226.72 
1242.70      9.10    544.97    168.80      5.14     10.37      1.88    233.47 
1242.80      8.70    546.48    171.90      4.60     10.16      1.77    242.52 
1242.90      8.10    547.44    175.60      4.28     10.03      1.60    253.40 
1243.00      7.50    548.04    178.70      4.02      9.09      1.51    262.50 
1243.10      7.10    548.30    181.20      3.77      9.56      1.47    269.81 
1243.20      6.60    548.59    183.70      3.62      9.60      1.48    279.11 
1243.30      6.10    549.00    184.90      3.55      9.91      1.49    279.40 
1243.40      5.70    549.10    185.70      3.55      9.60      1.51    279.68 
1243.50      5.30    548.95    185.00      3.62      9.22      1.56    279.96 
1243.60      5.00    548.85    186.10      3.77      8.64      1.53    295.19 
1243.70      4.80    548.90    185.40      3.90      9.06      1.59    300.47 
1243.80      4.80    548.85    184.00      4.03      8.77      1.63    297.82 
1243.90      5.00    548.75    183.00      4.21      9.13      1.78    293.76 
1244.00      5.60    547.97    180.90      4.44      8.73      1.75    287.16 
1244.10      6.20    546.52    179.50      4.87      8.27      1.77    278.73 
1244.20      6.70    545.36    177.50      5.52      8.37      1.82    271.47 
1244.30      7.40    543.88    177.20      6.20      7.70      1.68    261.10 
1244.40      7.90    542.80    177.70      6.29      7.50      1.69    246.13 
1244.50      8.10    544.01    179.60      5.09      7.07      1.69    232.81 
1244.60      8.00    545.98    182.00      3.75      7.55      1.79    226.13 
1244.70      7.30    546.89    184.80      3.34      7.49      1.76    226.20 
1244.80      6.50    547.58    186.50      3.40      7.87      1.82    230.61 
1244.90      5.70    548.20    187.70      3.66      8.40      1.77    235.61 
1245.00      5.50    547.86    186.80      4.02      7.84      1.82    240.26 
1245.10      5.70    546.53    185.40      4.36      8.34      1.90    242.03 
1245.20      5.90    545.60    184.20      4.53      8.80      1.96    238.93 
1245.30      6.30    544.34    183.40      4.46      9.16      1.87    234.49 
1245.40      6.70    541.59    183.30      4.57      8.97      1.96    231.42 
1245.50      7.10    539.47    183.70      5.21      8.80      1.99    228.14 
1245.60      7.50    538.80    184.50      5.90      9.41      2.06    224.53 
1245.70      8.10    538.80    186.00      6.23      9.24      2.19    221.30 
1245.80      8.40    539.67    187.60      6.34      9.46      2.12    219.87 
1245.90      8.30    541.28    192.50      6.12      9.61      2.05    221.19 
1246.00      8.20    543.60    196.10      5.42      9.60      1.96    223.37 
1246.10      7.70    545.88    201.70      4.61     10.25      1.94    225.34 
1246.20      7.30    547.23    206.20      4.10     10.47      1.85    230.45 
1246.30      6.60    548.15    213.20      3.82     11.03      1.75    237.49 
1246.40      6.20    548.20    218.70      3.60     10.60      1.65    241.88 
1246.50      5.60    548.29    224.00      3.42     10.66      1.73    238.82 
1246.60      5.40    548.45    229.30      3.33     10.99      1.80    229.30 
1246.70      5.10    548.45    233.80      3.29     11.26      1.84    219.91 
1246.80      5.00    548.60    237.20      3.23     11.66      1.79    214.61 
1246.90      4.60    548.41    239.70      3.17     11.59      1.73    211.82 
1247.00      4.40    548.20    242.60      3.10     12.10      1.77    210.11 
1247.10      4.20    548.25    244.10      2.99     11.89      1.68    209.13 
1247.20      3.90    548.49    245.60      2.87     12.19      1.59    209.11 
1247.30      3.90    548.80    247.10      2.77     11.22      1.62    210.16 
1247.40      3.80    549.28    248.00      2.73     11.13      1.53    212.09 
1247.50      3.60    549.90    247.70      2.73     10.95      1.61    213.86 
1247.60      3.60    550.39    245.00      2.74     10.83      1.61    215.75 
1247.70      3.60    550.70    241.40      2.77     10.08      1.63    217.68 
1247.80      3.80    550.65    236.20      2.88      9.69      1.65    221.09 
1247.90      4.10    550.41    230.40      3.12      9.25      1.70    226.22 
1248.00      4.40    549.86    223.00      3.36      9.74      1.72    231.92 
1248.10      4.60    550.04    215.00      3.52      9.21      1.88    234.93 
1248.20      4.90    550.40    207.90      3.64      9.27      1.97    236.28 
1248.30      5.00    549.72    201.50      3.73      8.17      2.06    238.10 
1248.40      5.10    548.57    196.50      3.82      8.73      2.08    239.03 
1248.50      5.20    546.55    191.70      3.93      8.80      2.12    238.80 
1248.60      5.40    544.32    186.50      4.10      8.35      2.05    237.42 
1248.70      5.70    542.10    182.50      4.43      8.90      2.01    232.98 
1248.80      6.10    539.39    178.40      5.10      8.52      2.01    228.05 
1248.90      6.50    537.57    175.30      5.74      9.02      2.02    224.87 
1249.00      6.90    536.32    172.10      5.99      8.72      2.03    223.05 
1249.10      7.20    535.36    169.50      6.19      8.72      2.04    222.12 
1249.20      7.30    534.90    168.40      6.40      8.79      2.03    221.77 
1249.30      7.20    535.09    167.80      6.67      9.00      2.05    221.53 
1249.40      7.20    535.79    167.70      6.82      8.67      2.07    221.55 
1249.50      7.20    537.27    167.70      6.63      8.79      2.04    222.57 
1249.60      7.20    539.32    169.00      6.33      9.24      1.97    225.84 
1249.70      7.00    541.51    170.00      5.70      9.68      1.94    230.34 
1249.80      6.50    544.30    172.20      4.62      9.93      1.95    234.30 
1249.90      5.80    546.29    174.10      3.71      9.96      1.87    238.40 
1250.00      5.20    547.14    177.00      3.32     10.16      1.90    241.74 
1250.10      4.50    547.45    178.20      3.27     10.31      1.88    239.94 
1250.20      4.10    547.15    179.20      3.35      9.98      1.82    237.58 
1250.30      3.80    547.05    177.50      3.58     10.18      1.89    235.49 
1250.40      3.90    546.71    174.20      3.95     10.52      1.93    232.34 
1250.50      4.10    545.48    171.20      4.45     10.58      2.01    226.25 
1250.60      4.30    544.07    168.40      5.01     10.00      2.14    220.83 
1250.70      4.70    543.21    166.10      5.19      9.95      2.32    218.52 
1250.80      4.80    542.75    164.80      5.02      9.94      2.14    218.19 
1250.90      5.10    541.53    164.10      5.00      9.35      2.17    217.30 
1251.00      5.40    539.48    164.00      5.40      9.67      2.08    214.30 
1251.10      5.70    537.77    164.30      5.72      9.43      2.02    211.73 
1251.20      6.20    536.71    164.50      5.66     10.21      2.22    210.69 
1251.30      6.60    535.87    164.90      5.93      9.84      2.20    210.42 
