~Version information
VERS.                            2.00: CWLS LAS  -  VERSION 2.00
WRAP.                              NO: One line per depth step
~Well information
#MNEM.UNIT                    DATA TYPE  INFORMATION
#===.================================:==================
STRT.M                       1129.000: First depth in file
STOP.M                       2854.200: Last depth in file
STEP.M                          0.100: Depth increment
NULL.                       -9999.00 : Null values
DATE.                        : LOG DATE
TIME.                           15:28: LOG TIME
WELL.                             F9: Well name
GRP.                       : Group name
FLD.                    : Field name
ISS.                 Ò‚Ó‰Ì˚È Í‡ÓÚ‡Ê: Well surveys
SRVC.                                : Service Company
~Curve information
#MNEM.UNIT                   API CODE   CURVE DESCRIPTION
#===.================================:==================
DEPT.M                               : Depth curve
¿2Ã0.5N .ŒÏ*Ï                        : :9 A2.0M0.5N, ŒÏ*Ï - 1475.0 ÒÏ
œ—  .Ï¬                              : :12 œ—, Ï¬ -  372.0 ÒÏ
»   .Ï—ËÏ                            : :14 » , Ï—Ï/Ï - 1961.0 ÒÏ
¡   .ŒÏ*Ï                            : :20 ¡ , ŒÏ*Ï - 1768.0 ÒÏ
√   .√‡ÏÏ                            : :11 √‡ÏÏ‡-‡ÍÚË‚ÌÓÒÚ¸, ÏÍ./˜ -   67.0 
Õ “ .Û.Â.                            : :14 ¡ÓÎ¸¯ÓÈ ÁÓÌ‰ ÔË‚Â‰ÂÌÌ˚È,  -  219.
 ¬  .ÏÏ                              : :20 —. ‰Ë‡ÏÂÚ, ÏÏ -  290.0 ÒÏ
#
~Other information
#------------------ REMARKS AREA -----------------------
#=======================================================
# The file is generated by the program GeoTech-ShopLog v2005.04
#Number of Curves = 7
~A Log Data Section
# ...
1475.80      5.75    545.55    208.86      5.30      9.36      2.39    223.88 
1475.90      5.80    541.33    207.46      5.61      9.25      2.35    217.35 
1476.00      5.85    542.79    206.36      5.74      9.55      2.40    216.39 
1476.10      5.85    545.81    206.24      4.95      8.75      2.33    216.64 
1476.20      5.70    549.98    206.58      4.00      8.85      2.22    217.34 
1476.30      5.50    553.88    207.90      3.50      9.38      2.26    218.92 
1476.40      5.25    556.34    209.54      3.49      9.48      2.25    221.84 
1476.50      5.05    557.17    210.82      3.73      9.52      2.19    227.05 
1476.60      5.05    557.23    211.00      4.11      9.93      2.23    233.65 
1476.70      5.20    556.95    209.37      4.62     10.01      2.23    240.31 
1476.80      5.35    556.88    208.16      4.84     10.41      2.27    244.78 
1476.90      5.45    557.64    208.30      4.38     10.65      2.17    243.36 
1477.00      5.50    558.92    209.52      3.84     11.10      2.08    236.01 
1477.10      5.45    560.06    210.50      3.58     11.36      1.92    229.79 
1477.20      5.35    560.87    211.24      3.49     11.17      1.78    230.27 
1477.30      5.20    561.72    212.97      3.47     10.48      1.74    235.96 
1477.40      5.05    561.66    213.36      3.39     10.53      1.76    241.62 
1477.50      5.05    560.60    213.36      3.39     10.90      1.86    245.61 
1477.60      5.00    560.17    212.82      3.50     11.15      1.88    249.64 
1477.70      4.85    560.59    211.52      3.61     11.06      1.89    250.66 
1477.80      4.80    560.77    211.06      3.60     10.44      1.93    248.91 
1477.90      4.70    560.27    210.86      3.50     10.35      1.99    249.06 
1478.00      4.55    560.66    211.18      3.48      9.76      2.05    250.40 
1478.10      4.50    560.88    211.02      3.51      9.89      2.09    251.70 
1478.20      4.45    560.61    210.46      3.47      9.77      2.02    254.17 
1478.30      4.50    560.84    209.05      3.47      9.96      2.05    257.49 
1478.40      4.70    560.60    207.30      3.80     10.27      2.13    255.63 
1478.50      4.90    559.36    205.98      4.29     10.13      2.28    249.39 
1478.60      5.05    557.66    204.72      4.88      9.96      2.40    242.20 
1478.70      5.10    556.39    203.66      5.11     10.40      2.38    238.05 
1478.80      5.10    555.13    203.30      4.71      9.82      2.36    229.88 
1478.90      5.05    553.14    203.30      4.22      9.66      2.37    223.61 
1479.00      5.00    549.47    203.24      4.38      9.38      2.35    221.29 
1479.10      4.95    545.21    203.80      4.95      9.24      2.40    220.50 
1479.20      4.95    540.15    203.84      5.21      8.55      2.38    221.08 
1479.30      4.95    536.08    202.64      5.43      9.02      2.40    220.16 
1479.40      4.90    533.19    201.82      5.61      9.09      2.41    217.00 
1479.50      4.90    531.39    200.98      5.72      9.20      2.39    214.92 
1479.60      4.95    530.63    199.66      5.77      8.93      2.43    214.05 
1479.70      5.05    530.87    198.32      5.88      9.18      2.49    214.58 
1479.80      5.20    532.09    196.72      5.88      9.53      2.45    215.12 
1479.90      5.45    534.54    196.00      5.48      9.87      2.33    215.35 
1480.00      5.65    538.92    195.10      4.72      9.97      2.27    215.54 
1480.10      5.75    543.97    194.98      4.44     10.79      2.23    215.96 
1480.20      5.80    548.80    194.34      4.28     10.79      2.20    216.67 
1480.30      5.85    552.90    194.06      4.11     10.61      2.07    217.81 
1480.40      5.80    555.37    194.54      3.79     11.02      2.02    219.77 
1480.50      5.60    556.85    194.70      3.59     11.48      2.04    222.47 
1480.60      5.40    556.95    194.70      3.93     11.06      1.99    226.04 
1480.70      5.25    556.19    194.64      4.26     10.67      2.08    229.44 
1480.80      5.25    554.60    194.12      4.33     10.38      2.19    231.30 
1480.90      5.40    552.63    193.44      4.88     10.43      2.28    228.20 
1481.00      5.60    550.34    192.07      5.61     10.25      2.40    220.92 
1481.10      5.80    548.26    191.24      6.02      9.74      2.35    214.31 
1481.20      5.85    547.39    192.10      5.97      9.55      2.38    212.98 
1481.30      5.70    547.72    192.82      4.91      9.84      2.38    212.87 
1481.40      5.50    549.34    195.71      3.99      9.80      2.30    214.35 
1481.50      5.25    550.12    198.38      3.73      9.70      2.22    215.87 
1481.60      5.00    547.38    199.26      4.51      8.55      2.22    218.20 
1481.70      4.75    541.56    200.04      5.56      8.05      2.33    219.09 
1481.80      4.55    534.84    199.74      6.08      7.44      2.38    216.71 
1481.90      4.55    529.55    199.54      6.27      7.25      2.45    212.69 
1482.00      4.60    525.96    199.34      6.33      7.18      2.51    211.13 
1482.10      4.55    522.73    199.04      6.27      7.46      2.52    211.15 
1482.20      4.50    520.70    199.24      6.23      7.47      2.47    211.88 
1482.30      4.55    519.43    199.46      6.30      7.40      2.52    212.59 
1482.40      4.60    518.97    200.75      6.25      7.80      2.59    213.62 
1482.50      4.70    518.58    201.90      5.87      7.31      2.73    214.22 
1482.60      4.85    519.16    202.64      5.61      7.56      2.72    214.40 
1482.70      5.00    520.70    203.00      5.53      7.79      2.70    214.28 
1482.80      5.31    523.78    203.30      5.51      8.14      2.55    213.98 
1482.90      5.76    526.83    204.22      5.42      8.33      2.47    214.01 
1483.00      6.36    529.96    205.54      5.44      8.51      2.41    215.15 
1483.10      7.06    534.62    207.47      5.56      8.68      2.17    217.60 
1483.20      7.66    540.81    209.71      5.25      8.84      1.95    221.08 
1483.30      7.90    546.48    213.65      4.65      8.59      1.74    225.89 
1483.40      7.80    551.17    217.55      3.79      8.91      1.69    233.38 
1483.50      7.39    554.84    222.56      3.22      9.29      1.67    239.84 
1483.60      6.69    557.39    227.55      3.04      9.83      1.64    244.81 
1483.70      5.94    558.62    231.53      2.98      9.92      1.71    251.78 
1483.80      5.34    559.00    234.65      3.20     10.11      1.74    256.06 
1483.90      5.00    559.04    236.89      3.61     10.21      1.77    256.42 
1484.00      4.80    559.21    238.77      3.62     10.14      1.82    255.05 
1484.10      4.70    559.29    240.16      3.39     10.38      1.77    257.81 
1484.20      4.70    558.86    241.09      3.34     10.44      1.75    262.06 
1484.30      4.70    558.19    241.91      3.30     10.49      1.72    266.31 
1484.40      4.70    557.52    242.70      3.25     10.22      1.70    276.39 
1484.50      4.60    558.13    245.00      3.25      9.82      1.70    285.91 
1484.60      4.50    558.54    246.70      3.33      9.88      1.74    288.42 
1484.70      4.50    559.17    249.00      3.41     10.32      1.76    285.81 
1484.80      4.50    560.11    250.10      3.33     10.38      1.74    287.72 
1484.90      4.40    560.54    253.30      3.16     10.33      1.71    289.57 
1485.00      4.30    560.11    252.40      3.12     10.45      1.67    289.63 
1485.10      4.20    560.65    254.30      3.19     10.68      1.77    289.41 
1485.20      4.00    561.21    254.20      3.22     10.68      1.81    289.19 
1485.30      4.10    562.77    254.40      3.20     11.17      1.80    288.97 
1485.40      4.10    562.94    255.60      3.14     11.58      1.86    284.23 
1485.50      4.20    562.74    256.00      3.17     10.87      1.94    274.95 
1485.60      4.30    562.46    253.10      3.28     10.09      1.99    259.41 
1485.70      4.40    561.99    252.00      3.23      9.37      2.02    246.11 
1485.80      4.50    561.98    252.60      3.03      9.31      1.96    242.24 
1485.90      4.50    561.67    253.90      2.90      8.88      1.85    244.07 
