~Version information
VERS.                            2.00: CWLS LAS  -  VERSION 2.00
WRAP.                              NO: One line per depth step
~Well information
#MNEM.UNIT                    DATA TYPE  INFORMATION
#===.================================:==================
STRT.M                       1129.000: First depth in file
STOP.M                       2854.200: Last depth in file
STEP.M                          0.100: Depth increment
NULL.                       -9999.00 : Null values
DATE.                        : LOG DATE
TIME.                           15:28: LOG TIME
WELL.                             F9: Well name
GRP.                       : Group name
FLD.                    : Field name
ISS.                 Ò‚Ó‰Ì˚È Í‡ÓÚ‡Ê: Well surveys
SRVC.                                : Service Company
~Curve information
#MNEM.UNIT                   API CODE   CURVE DESCRIPTION
#===.================================:==================
DEPT.M                               : Depth curve
¿2Ã0.5N .ŒÏ*Ï                        : :9 A2.0M0.5N, ŒÏ*Ï - 1475.0 ÒÏ
œ—  .Ï¬                              : :12 œ—, Ï¬ -  372.0 ÒÏ
»   .Ï—ËÏ                            : :14 » , Ï—Ï/Ï - 1961.0 ÒÏ
¡   .ŒÏ*Ï                            : :20 ¡ , ŒÏ*Ï - 1768.0 ÒÏ
√   .√‡ÏÏ                            : :11 √‡ÏÏ‡-‡ÍÚË‚ÌÓÒÚ¸, ÏÍ./˜ -   67.0 
Õ “ .Û.Â.                            : :14 ¡ÓÎ¸¯ÓÈ ÁÓÌ‰ ÔË‚Â‰ÂÌÌ˚È,  -  219.
 ¬  .ÏÏ                              : :20 —. ‰Ë‡ÏÂÚ, ÏÏ -  290.0 ÒÏ
#
~Other information
#------------------ REMARKS AREA -----------------------
#=======================================================
# The file is generated by the program GeoTech-ShopLog v2005.04
#Number of Curves = 7
~A Log Data Section
# ...
1700.20      5.77    569.00    193.17      4.41     11.13      2.57    242.06 
1700.30      5.77    568.66    193.38      4.78     11.21      2.60    239.34 
1700.40      5.87    568.21    194.22      5.08     11.07      2.64    237.04 
1700.50      5.97    567.81    194.65      5.24     10.86      2.62    236.89 
1700.60      6.07    567.79    195.82      5.28     10.69      2.57    236.45 
1700.70      6.10    567.66    197.40      5.34     10.38      2.53    235.78 
1700.80      6.03    567.30    199.60      5.30     10.32      2.42    236.48 
1700.90      5.93    567.06    202.37      4.66     10.50      2.33    238.17 
1701.00      5.77    567.09    206.17      3.82     10.72      2.26    239.95 
1701.10      5.57    567.64    208.10      3.72     10.81      2.22    241.19 
1701.20      5.50    567.90    209.30      4.44     11.07      2.20    240.61 
1701.30      5.57    567.51    210.43      4.81     11.20      2.28    238.61 
1701.40      5.73    567.49    210.77      4.87     11.15      2.30    236.65 
1701.50      5.87    568.24    211.02      4.48     10.97      2.30    235.49 
1701.60      5.97    568.41    211.62      3.98     10.64      2.29    234.26 
1701.70      6.07    568.30    212.62      3.67     11.19      2.31    232.58 
1701.80      6.17    568.40    212.82      3.55     11.21      2.26    231.45 
1701.90      6.13    568.21    213.10      3.51     11.34      2.23    230.93 
1702.00      6.03    567.61    213.13      3.66     11.44      2.13    231.73 
1702.10      5.87    566.86    212.50      3.89     11.58      2.21    232.80 
1702.20      5.67    565.72    211.48      3.86     11.76      2.26    233.33 
1702.30      5.40    564.32    211.27      3.70     11.44      2.21    233.13 
1702.40      5.23    563.31    210.33      3.63     11.65      2.25    232.58 
1702.50      5.07    562.85    209.03      3.94     11.61      2.29    229.63 
1702.60      4.93    562.70    207.28      4.49     11.59      2.22    223.84 
1702.70      4.97    561.63    204.55      5.07     11.24      2.28    219.10 
1702.80      5.20    558.89    201.78      6.13     11.13      2.36    216.34 
1702.90      5.37    556.32    198.03      7.26     11.21      2.39    215.91 
1703.00      5.53    555.26    196.63      7.23     10.84      2.41    216.26 
1703.10      5.60    555.63    196.20      6.44     10.68      2.34    216.85 
1703.20      5.53    558.10    196.03      5.70     10.73      2.32    217.29 
1703.30      5.37    561.51    196.90      5.09     10.70      2.30    217.59 
1703.40      5.30    564.17    198.02      4.77     11.07      2.27    217.72 
1703.50      5.23    565.69    199.35      4.83     11.00      2.23    218.00 
1703.60      5.20    566.63    200.82      4.81     11.06      2.17    218.62 
1703.70      5.20    568.03    201.95      4.71     11.75      2.20    219.65 
1703.80      5.13    569.39    202.20      4.71     11.94      2.28    220.99 
1703.90      5.17    569.90    203.32      4.67     11.96      2.26    222.69 
1704.00      5.27    570.00    204.97      4.66     11.86      2.30    224.42 
1704.10      5.37    570.20    205.85      4.69     11.78      2.29    225.96 
1704.20      5.53    570.49    207.05      4.81     11.92      2.29    228.46 
1704.30      5.67    570.36    208.60      4.91     11.74      2.29    231.45 
1704.40      5.90    569.46    210.57      4.76     11.21      2.28    233.79 
1704.50      6.13    568.66    212.60      4.28     11.25      2.14    237.47 
1704.60      6.27    568.25    214.30      4.08     11.28      2.07    242.48 
1704.70      6.23    567.91    215.67      4.04     11.62      2.02    246.80 
1704.80      5.93    566.97    217.35      3.77     11.90      2.01    250.98 
1704.90      5.60    566.30    218.40      3.75     12.00      1.92    255.56 
1705.00      5.30    566.16    218.90      3.86     12.33      1.87    257.49 
1705.10      5.00    566.24    219.07      3.80     12.60      1.86    257.21 
1705.20      4.90    566.50    218.65      3.51     12.46      1.85    255.00 
1705.30      4.90    566.59    217.75      3.35     12.44      1.84    249.80 
1705.40      4.90    566.65    216.38      3.51     11.57      1.82    244.40 
1705.50      4.90    566.69    214.95      3.62     11.07      1.83    239.79 
1705.60      4.70    567.09    212.58      3.42     10.59      1.90    235.20 
1705.70      4.53    567.40    209.88      3.26     10.56      1.90    233.73 
1705.80      4.37    567.89    206.43      3.23     10.59      1.94    233.52 
1705.90      4.17    568.20    204.60      3.31     10.16      2.00    232.71 
1706.00      4.03    568.15    201.90      3.50     10.39      2.00    231.82 
1706.10      4.07    568.30    198.33      3.80     10.55      1.99    230.99 
1706.20      4.30    567.87    193.65      4.26     10.95      1.99    229.74 
1706.30      4.67    567.15    189.02      4.72     11.09      2.03    228.76 
1706.40      5.33    566.85    184.23      5.29     10.89      1.96    228.69 
1706.50      6.00    566.02    180.45      6.20     10.59      1.93    228.61 
1706.60      6.47    564.62    178.18      6.68     10.44      1.95    228.22 
1706.70      6.60    563.46    176.05      6.11     10.57      2.05    226.89 
1706.80      6.47    562.46    175.20      5.83     10.62      2.24    224.23 
1706.90      6.13    560.97    174.73      5.89     10.80      2.34    221.45 
1707.00      5.60    559.95    174.60      5.79     10.82      2.39    220.56 
1707.10      5.20    559.27    174.38      5.24     10.94      2.48    220.77 
1707.20      4.83    557.53    173.48      4.36     11.23      2.53    221.29 
1707.30      4.63    553.50    172.38      4.58     11.06      2.44    221.82 
1707.40      4.53    550.00    170.53      5.44     11.21      2.44    221.97 
1707.50      4.50    545.10    167.53      6.39     11.17      2.55    220.23 
1707.60      4.70    542.40    165.35      7.43     10.74      2.58    217.35 
1707.70      4.93    541.50    162.88      8.15     10.40      2.73    215.94 
1707.80      5.40    542.10    161.00      8.50      9.87      2.80    215.33 
1707.90      5.93    543.90    159.18      8.35      9.86      2.84    215.14 
1708.00      6.50    546.70    158.70      8.38      9.81      2.91    215.41 
1708.10      6.97    548.00    158.85      8.14      9.70      2.98    216.17 
1708.20      7.50    549.80    159.20      8.09      9.43      3.00    217.04 
1708.30      7.90    550.30    159.98      8.93      9.27      3.07    217.63 
1708.40      8.20    550.30    161.47      9.49      9.45      3.06    217.91 
1708.50      8.23    550.50    163.70      9.16      9.85      3.02    217.95 
1708.60      8.00    550.50    166.10      7.87     10.17      2.88    218.05 
1708.70      7.57    551.30    169.10      6.94     10.42      2.82    218.32 
1708.80      7.07    552.50    171.62      6.23     10.65      2.76    218.66 
1708.90      6.63    552.40    174.67      6.08     10.65      2.67    218.98 
1709.00      6.23    552.80    176.62      6.70     10.89      2.52    219.50 
1709.10      5.83    554.60    178.65      6.60     11.17      2.34    220.61 
1709.20      5.43    557.30    180.70      5.17     11.10      2.26    222.13 
1709.30      5.17    559.60    182.47      4.33     11.42      2.24    223.81 
1709.40      4.97    563.00    183.80      4.33     11.71      2.21    224.93 
1709.50      4.77    565.60    185.45      4.46     11.94      2.20    225.01 
1709.60      4.77    566.00    185.75      4.53     11.82      2.15    224.80 
1709.70      5.13    566.10    186.00      4.51     12.09      2.13    225.75 
1709.80      5.70    565.70    185.50      4.32     11.92      2.14    227.49 
1709.90      6.17    566.60    185.23      4.23     11.83      2.14    228.82 
1710.00      6.37    567.40    184.90      4.34     11.37      2.17    229.18 
1710.10      6.40    567.20    184.28      4.65     11.64      2.24    228.51 
1710.20      6.33    567.20    183.58      5.05     11.91      2.36    226.49 
1710.30      5.83    566.60    182.65      5.23     11.78      2.47    223.79 
