~Version information
VERS.                            2.00: CWLS LAS  -  VERSION 2.00
WRAP.                              NO: One line per depth step
~Well information
#MNEM.UNIT                    DATA TYPE  INFORMATION
#===.================================:==================
STRT.M                       1129.000: First depth in file
STOP.M                       2854.200: Last depth in file
STEP.M                          0.100: Depth increment
NULL.                       -9999.00 : Null values
DATE.                        : LOG DATE
TIME.                           15:28: LOG TIME
WELL.                             F9: Well name
GRP.                       : Group name
FLD.                    : Field name
ISS.                 Ò‚Ó‰Ì˚È Í‡ÓÚ‡Ê: Well surveys
SRVC.                                : Service Company
~Curve information
#MNEM.UNIT                   API CODE   CURVE DESCRIPTION
#===.================================:==================
DEPT.M                               : Depth curve
¿2Ã0.5N .ŒÏ*Ï                        : :9 A2.0M0.5N, ŒÏ*Ï - 1475.0 ÒÏ
œ—  .Ï¬                              : :12 œ—, Ï¬ -  372.0 ÒÏ
»   .Ï—ËÏ                            : :14 » , Ï—Ï/Ï - 1961.0 ÒÏ
¡   .ŒÏ*Ï                            : :20 ¡ , ŒÏ*Ï - 1768.0 ÒÏ
√   .√‡ÏÏ                            : :11 √‡ÏÏ‡-‡ÍÚË‚ÌÓÒÚ¸, ÏÍ./˜ -   67.0 
Õ “ .Û.Â.                            : :14 ¡ÓÎ¸¯ÓÈ ÁÓÌ‰ ÔË‚Â‰ÂÌÌ˚È,  -  219.
 ¬  .ÏÏ                              : :20 —. ‰Ë‡ÏÂÚ, ÏÏ -  290.0 ÒÏ
#
~Other information
#------------------ REMARKS AREA -----------------------
#=======================================================
# The file is generated by the program GeoTech-ShopLog v2005.04
#Number of Curves = 7
~A Log Data Section
# ...
2618.20      5.65    622.55    220.76      3.49     15.59      3.13    221.18 
2618.30      5.60    622.90    220.64      3.38     16.22      3.21    221.07 
2618.40      5.65    623.92    220.01      3.35     15.85      3.35    221.00 
2618.50      5.80    624.64    219.34      3.51     14.98      3.32    220.84 
2618.60      6.06    624.33    218.08      3.80     14.47      3.38    220.79 
2618.70      6.51    623.68    216.31      4.00     14.56      3.50    220.70 
2618.80      7.11    622.35    214.00      4.60     14.19      3.51    220.68 
2618.90      7.56    621.81    211.41      5.05     13.41      3.53    220.65 
2619.00      7.75    622.45    208.29      4.14     13.88      3.52    220.72 
2619.10      7.70    622.38    205.25      3.65     14.53      3.35    220.82 
2619.20      7.29    622.04    202.32      3.53     14.85      3.19    220.90 
2619.30      6.74    622.51    200.65      3.69     14.97      3.20    220.98 
2619.40      6.40    622.63    200.74      4.23     14.51      3.30    220.99 
2619.50      6.25    621.93    201.06      5.19     13.61      3.42    220.91 
2619.60      6.15    620.66    201.33      5.61     13.50      3.52    220.90 
2619.70      6.05    620.31    200.70      4.63     14.04      3.55    220.89 
2619.80      5.95    621.06    199.18      4.11     14.57      3.53    220.89 
2619.90      5.80    621.24    196.72      3.82     15.10      3.37    220.88 
2620.00      5.60    621.30    194.94      3.76     14.78      3.23    220.86 
2620.10      5.34    621.34    195.12      3.80     14.65      3.22    220.86 
2620.20      5.20    621.04    196.99      3.89     14.05      3.28    220.87 
2620.30      5.15    621.16    197.24      4.27     13.53      3.35    220.79 
2620.40      5.15    621.34    197.35      4.62     13.32      3.46    220.72 
2620.50      5.20    621.14    197.33      4.76     13.10      3.54    220.72 
2620.60      5.15    620.63    194.94      4.47     13.79      3.62    220.74 
2620.70      5.10    620.61    192.47      3.90     14.90      3.50    220.75 
2620.80      5.15    620.61    191.07      3.75     14.71      3.36    220.69 
2620.90      5.15    620.30    190.83      3.87     14.31      3.38    220.51 
2621.00      5.20    619.08    192.03      3.96     14.52      3.34    220.49 
2621.10      5.40    619.17    192.57      4.18     13.69      3.36    220.48 
2621.20      5.71    620.47    192.23      4.90     12.50      3.49    220.47 
2621.30      6.00    619.94    191.98      6.17     12.07      3.73    220.50 
2621.40      6.26    619.31    190.81      6.63     12.51      3.85    220.49 
2621.50      6.45    619.31    188.79      5.74     13.06      3.76    220.47 
2621.60      6.55    619.31    187.32      4.42     13.96      3.67    220.43 
2621.70      6.70    619.31    187.01      4.01     13.99      3.56    220.41 
2621.80      6.80    619.31    187.91      4.22     13.83      3.46    220.41 
2621.90      6.85    619.31    189.99      4.42     14.12      3.32    220.43 
2622.00      6.90    619.31    192.94      4.31     14.53      3.29    220.54 
2622.10      6.90    619.31    195.91      3.73     14.81      3.30    220.60 
2622.20      6.85    619.31    198.42      3.60     15.15      3.33    220.66 
2622.30      6.70    620.00    201.07      3.72     15.06      3.32    220.67 
2622.40      6.55    619.60    203.39      3.94     14.43      3.24    220.68 
2622.50      6.40    618.44    205.41      3.94     14.18      3.29    220.69 
2622.60      6.30    618.30    206.82      3.76     14.54      3.26    220.67 
2622.70      6.35    618.61    207.83      3.80     14.71      3.19    220.66 
2622.80      6.35    618.27    208.93      4.00     14.60      3.16    220.69 
2622.90      6.30    617.75    209.46      4.08     14.85      3.23    220.69 
2623.00      6.35    618.22    209.50      3.83     15.43      3.21    220.68 
2623.10      6.35    618.18    209.50      3.81     15.67      3.19    220.68 
2623.20      6.25    617.38    209.67      3.85     15.63      3.17    220.68 
2623.30      6.25    618.91    210.15      3.81     15.60      3.13    220.68 
2623.40      6.30    619.81    209.94      3.80     15.42      3.09    220.75 
2623.50      6.20    619.87    209.31      3.68     15.70      3.21    220.82 
2623.60      6.10    620.63    208.93      3.72     15.67      3.28    220.85 
2623.70      6.05    620.63    208.80      3.74     16.00      3.25    220.88 
2623.80      5.95    620.63    208.74      3.69     15.52      3.34    220.79 
2623.90      5.85    620.28    208.13      3.68     15.44      3.47    220.70 
2624.00      5.75    620.30    207.30      3.81     14.41      3.54    220.59 
2624.10      5.70    620.63    206.19      4.43     13.49      3.55    220.58 
2624.20      5.70    620.63    204.39      5.82     12.76      3.72    220.59 
2624.30      5.75    618.04    202.06      6.17     13.42      3.76    220.62 
2624.40      5.90    618.24    199.68      4.83     14.46      3.56    220.67 
2624.50      5.95    620.63    196.80      3.78     15.27      3.40    220.68 
2624.60      5.95    619.86    194.13      3.58     14.79      3.36    220.69 
2624.70      5.95    619.56    193.83      3.71     14.48      3.51    220.70 
2624.80      5.90    620.30    193.90      4.56     14.15      3.60    220.72 
2624.90      5.90    619.86    193.37      5.55     14.13      3.59    220.73 
2625.00      5.85    619.92    192.74      4.43     14.64      3.41    220.70 
2625.10      5.75    620.17    189.92      3.70     15.02      3.29    220.58 
2625.20      5.70    620.21    186.95      3.66     14.75      3.19    220.45 
2625.30      5.60    620.07    184.78      3.78     13.98      3.31    220.41 
2625.40      5.45    620.11    182.94      4.12     13.07      3.54    220.34 
2625.50      5.45    618.98    181.67      4.68     12.45      3.60    220.21 
2625.60      5.55    619.10    180.16      4.65     11.93      3.66    220.12 
2625.70      5.76    620.63    177.56      5.09     11.32      3.95    219.94 
2625.80      6.06    620.63    175.28      6.23     11.10      4.01    219.84 
2625.90      6.30    617.05    171.73      6.81     11.03      4.13    219.74 
2626.00      6.56    617.32    167.93      6.90     11.51      4.19    219.71 
2626.10      7.12    620.63    165.32      5.72     12.65      4.23    219.67 
2626.20      7.92    620.80    163.44      4.59     13.37      4.48    219.60 
2626.30      8.82    620.74    163.32      4.92     12.82      4.74    219.57 
2626.40      9.92    620.76    163.70      7.28     12.23      4.76    219.62 
2626.50     10.97    620.96    164.91     10.57     12.57      4.65    219.70 
2626.60     11.50    621.13    166.38      9.79     13.50      4.27    219.72 
2626.70     11.24    621.29    167.43      5.90     14.69      3.86    219.73 
2626.80     10.43    621.48    168.48      3.95     15.12      3.56    219.75 
2626.90      9.48    621.46    170.05      3.73     14.89      3.45    219.76 
2627.00      8.32    620.85    173.26      3.91     14.75      3.41    219.82 
2627.10      7.34    620.29    178.40      4.26     15.43      3.35    219.84 
2627.20      6.84    619.84    184.23      4.07     15.71      3.26    219.83 
2627.30      6.49    619.81    189.06      3.78     15.19      3.25    219.83 
2627.40      6.14    620.20    192.35      3.83     14.91      3.17    219.87 
2627.50      5.84    620.87    194.19      4.01     14.51      3.22    219.92 
2627.60      5.60    621.61    194.99      3.93     14.80      3.16    220.03 
2627.70      5.50    622.16    196.00      3.96     15.20      3.10    220.28 
2627.80      5.45    622.14    196.60      3.99     15.03      3.14    220.31 
2627.90      5.40    621.64    196.31      3.88     14.89      3.28    220.32 
2628.00      5.45    621.40    196.50      3.88     14.40      3.47    220.30 
2628.10      5.71    621.50    197.32      3.95     13.84      3.63    220.29 
2628.20      6.00    621.28    197.30      4.25     13.35      3.90    220.53 
2628.30      6.26    620.11    197.23      5.50     12.94      4.13    220.61 
