~Version information
VERS.                            2.00: CWLS LAS  -  VERSION 2.00
WRAP.                              NO: One line per depth step
~Well information
#MNEM.UNIT                    DATA TYPE  INFORMATION
#===.================================:==================
STRT.M                       1129.000: First depth in file
STOP.M                       2854.200: Last depth in file
STEP.M                          0.100: Depth increment
NULL.                       -9999.00 : Null values
DATE.                        : LOG DATE
TIME.                           15:28: LOG TIME
WELL.                             F9: Well name
GRP.                       : Group name
FLD.                    : Field name
ISS.                 Ò‚Ó‰Ì˚È Í‡ÓÚ‡Ê: Well surveys
SRVC.                                : Service Company
~Curve information
#MNEM.UNIT                   API CODE   CURVE DESCRIPTION
#===.================================:==================
DEPT.M                               : Depth curve
¿2Ã0.5N .ŒÏ*Ï                        : :9 A2.0M0.5N, ŒÏ*Ï - 1475.0 ÒÏ
œ—  .Ï¬                              : :12 œ—, Ï¬ -  372.0 ÒÏ
»   .Ï—ËÏ                            : :14 » , Ï—Ï/Ï - 1961.0 ÒÏ
¡   .ŒÏ*Ï                            : :20 ¡ , ŒÏ*Ï - 1768.0 ÒÏ
√   .√‡ÏÏ                            : :11 √‡ÏÏ‡-‡ÍÚË‚ÌÓÒÚ¸, ÏÍ./˜ -   67.0 
Õ “ .Û.Â.                            : :14 ¡ÓÎ¸¯ÓÈ ÁÓÌ‰ ÔË‚Â‰ÂÌÌ˚È,  -  219.
 ¬  .ÏÏ                              : :20 —. ‰Ë‡ÏÂÚ, ÏÏ -  290.0 ÒÏ
#
~Other information
#------------------ REMARKS AREA -----------------------
#=======================================================
# The file is generated by the program GeoTech-ShopLog v2005.04
#Number of Curves = 7
~A Log Data Section
# ...
1353.40      7.40    553.84    116.03      6.00     11.08      2.30    214.83 
1353.50      7.30    553.68    113.03      6.06     10.54      2.31    214.24 
1353.60      7.30    553.92    109.91      6.22     10.57      2.41    213.73 
1353.70      7.30    553.29    106.23      6.42     11.16      2.43    213.62 
1353.80      7.30    551.58    103.79      6.76     11.22      2.48    213.61 
1353.90      7.50    549.13     99.93      7.26     11.03      2.53    213.60 
1354.00      7.80    547.14     97.58      7.75     10.43      2.65    213.59 
1354.10      8.20    546.40     94.31      8.10     10.14      2.65    213.50 
1354.20      8.80    545.94     91.97      8.27      9.67      2.78    213.50 
1354.30     10.10    545.76     89.30      8.97      9.61      2.99    213.73 
1354.40     11.90    546.33     86.94     11.23      9.62      3.43    214.06 
1354.50     14.10    548.07     84.94     16.10      8.75      3.92    214.52 
1354.60     16.20    550.33     83.66     22.56      8.19      4.26    214.94 
1354.70     18.00    552.18     82.71     25.54      7.85      4.55    214.85 
1354.80     19.10    552.90     82.94     22.62      7.61      4.61    214.71 
1354.90     19.60    552.96     84.06     18.78      8.18      4.49    214.68 
1355.00     19.40    552.71     85.42     16.31      8.31      4.16    214.60 
1355.10     18.60    550.39     87.20     13.94      8.38      3.70    214.40 
1355.20     17.40    548.33     88.85     11.21      8.97      3.38    214.11 
1355.30     15.50    546.01     90.85      9.43      8.75      3.13    213.65 
1355.40     13.50    543.85     92.86      8.88      8.83      2.83    213.43 
1355.50     11.60    542.86     94.85      8.69      9.29      2.57    213.11 
1355.60     10.10    542.21     96.04      8.65     10.20      2.54    212.80 
1355.70      8.90    540.26     97.11      8.79     10.34      2.49    212.83 
1355.80      8.00    539.94     98.01      8.96     10.27      2.50    212.96 
1355.90      7.50    539.16     98.89      9.12     10.13      2.58    213.05 
1356.00      7.40    538.58     99.55      9.30      9.49      2.50    212.99 
1356.10      7.20    538.40     99.97      9.17      9.11      2.40    212.71 
1356.20      7.40    538.02    100.59      8.89      8.81      2.47    212.17 
1356.30      7.50    538.02    101.29      8.90      8.56      2.46    211.66 
1356.40      7.80    537.56    101.90      9.14      9.03      2.40    211.35 
1356.50      8.30    537.16    101.89      9.32      8.71      2.42    211.36 
1356.60      9.10    537.90    101.80      9.34      8.44      2.24    211.70 
1356.70      9.90    538.26    101.78      9.28      8.41      2.28    211.93 
1356.80     11.20    538.29    101.66      8.98      9.13      2.34    211.97 
1356.90     12.40    539.12    102.14      8.68      9.00      2.32    211.86 
1357.00     13.40    539.66    102.42      8.49      8.55      2.38    211.61 
1357.10     14.30    539.86    102.61      8.53      8.89      2.46    211.25 
1357.20     15.00    539.43    102.68      8.85      9.56      2.37    210.83 
1357.30     15.50    538.32    102.51      9.11      9.71      2.33    210.62 
1357.40     15.90    537.92    102.55      9.18      9.67      2.38    210.55 
1357.50     16.00    537.56    102.16      9.15      9.18      2.46    210.53 
1357.60     16.00    537.36    101.90      9.10      8.89      2.35    210.56 
1357.70     15.80    537.14    101.90      9.17      8.94      2.49    210.66 
1357.80     15.70    536.90    101.90      9.21      8.94      2.45    210.74 
1357.90     15.30    536.86    101.90      9.23      8.83      2.42    210.71 
1358.00     15.10    536.58    101.90      9.30      8.58      2.43    210.56 
1358.10     14.80    536.16    101.90      9.36      8.56      2.30    210.51 
1358.20     14.50    536.34    101.90      9.35      8.71      2.39    210.69 
1358.30     14.30    535.98    101.91      9.33      9.01      2.40    210.87 
1358.40     14.10    535.48    102.01      9.29      8.57      2.39    211.04 
1358.50     13.90    535.48    102.12      9.26      8.39      2.37    211.18 
1358.60     13.80    535.86    102.34      9.30      8.56      2.29    211.24 
1358.70     13.60    535.92    102.54      9.33      8.27      2.29    211.14 
1358.80     13.50    535.36    102.12      9.30      8.37      2.29    211.09 
1358.90     13.40    536.10    102.35      9.28      8.05      2.35    211.06 
1359.00     13.20    536.50    102.72      9.25      8.40      2.38    211.07 
1359.10     13.00    536.29    102.90      9.30      8.92      2.33    211.10 
1359.20     12.90    535.75    102.86      9.41      8.89      2.38    211.15 
1359.30     12.70    536.76    102.64      9.44      8.61      2.46    211.20 
1359.40     12.60    536.96    102.84      9.38      8.17      2.41    211.24 
1359.50     12.50    536.76    102.46      9.27      8.30      2.41    211.27 
1359.60     12.40    536.46    102.90      9.03      8.80      2.50    211.31 
1359.70     12.30    535.80    102.88      8.64      9.09      2.35    211.44 
1359.80     12.30    535.50    102.70      8.43      8.74      2.25    211.58 
1359.90     12.10    535.76    102.71      8.61      8.50      2.32    211.82 
1360.00     12.10    535.14    102.81      9.00      8.84      2.37    212.11 
1360.10     12.00    534.86    102.89      9.22      9.05      2.32    212.27 
1360.20     11.90    534.62    102.71      9.29      9.11      2.34    212.12 
1360.30     11.90    534.07    102.04      9.39      9.23      2.49    211.91 
1360.40     11.90    533.12    101.56      9.49      9.03      2.44    211.92 
1360.50     12.00    532.66    101.21      9.54      8.81      2.34    211.99 
1360.60     11.80    532.24    100.55      9.56      8.93      2.26    212.18 
1360.70     11.70    532.66    100.15      9.54      8.65      2.26    212.53 
1360.80     11.70    532.29     99.69      9.48      8.53      2.11    212.80 
1360.90     11.60    532.96     98.85      9.37      8.57      2.27    212.90 
1361.00     11.50    532.96     98.48      9.25      8.13      2.40    212.51 
1361.10     11.50    533.70     98.20      9.27      8.46      2.46    211.93 
1361.20     11.60    534.16     97.44      9.35      8.11      2.41    211.56 
1361.30     11.70    534.38     96.94      9.38      8.23      2.38    211.51 
1361.40     12.00    534.46     96.52      9.39      8.00      2.31    211.60 
1361.50     12.40    535.16     96.71      9.41      7.38      2.37    211.73 
1361.60     13.00    535.44     96.82      9.44      7.30      2.35    211.82 
1361.70     13.70    535.54     96.96      9.46      7.95      2.20    211.90 
1361.80     14.90    535.20     96.72      9.54      8.20      2.21    212.09 
1361.90     16.60    534.76     96.86      9.78      8.22      2.23    212.42 
1362.00     18.80    534.78     96.56     10.36      7.96      2.44    212.66 
1362.10     21.10    535.42     96.35     11.48      7.94      2.50    212.70 
1362.20     23.00    535.33     96.82     12.34      7.79      2.59    212.28 
1362.30     23.70    535.99     97.82     11.77      7.65      2.66    212.06 
1362.40     23.30    535.30     98.85     10.67      7.65      2.55    212.07 
1362.50     21.20    535.68    100.05      9.90      8.03      2.56    212.10 
1362.60     18.50    535.93    101.29      9.45      8.86      2.56    212.15 
1362.70     16.00    537.22    102.70      9.11      9.32      2.50    212.21 
1362.80     14.00    537.42    103.56      9.03      9.24      2.37    212.31 
1362.90     12.70    538.04    104.84      9.11      9.45      2.41    212.46 
1363.00     11.60    538.74    105.95      9.03      9.32      2.33    212.61 
1363.10     11.00    539.36    107.09      8.14      9.72      2.39    212.73 
1363.20     10.50    539.87    107.72      7.33      9.86      2.36    212.83 
1363.30     10.20    540.80    107.95      7.22      9.81      2.42    213.01 
1363.40      9.90    540.54    108.40      7.33      9.76      2.24    213.11 
1363.50      9.70    541.20    109.06      7.58     10.24      2.12    213.11 
