~Version information
VERS.                            2.00: CWLS LAS  -  VERSION 2.00
WRAP.                              NO: One line per depth step
~Well information
#MNEM.UNIT                    DATA TYPE  INFORMATION
#===.================================:==================
STRT.M                       1129.000: First depth in file
STOP.M                       2854.200: Last depth in file
STEP.M                          0.100: Depth increment
NULL.                       -9999.00 : Null values
DATE.                        : LOG DATE
TIME.                           15:28: LOG TIME
WELL.                             F9: Well name
GRP.                       : Group name
FLD.                    : Field name
ISS.                 Ò‚Ó‰Ì˚È Í‡ÓÚ‡Ê: Well surveys
SRVC.                                : Service Company
~Curve information
#MNEM.UNIT                   API CODE   CURVE DESCRIPTION
#===.================================:==================
DEPT.M                               : Depth curve
¿2Ã0.5N .ŒÏ*Ï                        : :9 A2.0M0.5N, ŒÏ*Ï - 1475.0 ÒÏ
œ—  .Ï¬                              : :12 œ—, Ï¬ -  372.0 ÒÏ
»   .Ï—ËÏ                            : :14 » , Ï—Ï/Ï - 1961.0 ÒÏ
¡   .ŒÏ*Ï                            : :20 ¡ , ŒÏ*Ï - 1768.0 ÒÏ
√   .√‡ÏÏ                            : :11 √‡ÏÏ‡-‡ÍÚË‚ÌÓÒÚ¸, ÏÍ./˜ -   67.0 
Õ “ .Û.Â.                            : :14 ¡ÓÎ¸¯ÓÈ ÁÓÌ‰ ÔË‚Â‰ÂÌÌ˚È,  -  219.
 ¬  .ÏÏ                              : :20 —. ‰Ë‡ÏÂÚ, ÏÏ -  290.0 ÒÏ
#
~Other information
#------------------ REMARKS AREA -----------------------
#=======================================================
# The file is generated by the program GeoTech-ShopLog v2005.04
#Number of Curves = 7
~A Log Data Section
# ...
1924.60      3.30    565.06    247.40      3.54     10.98      2.63    219.31 
1924.70      3.20    565.86    246.90      3.52     10.84      2.52    219.46 
1924.80      3.20    565.07    245.80      3.62     10.68      2.52    219.12 
1924.90      3.30    564.53    244.00      3.92     10.48      2.67    218.51 
1925.00      3.30    564.57    244.40      4.02     10.38      2.57    217.70 
1925.10      3.50    564.86    243.10      3.79     10.31      2.60    216.95 
1925.20      3.50    564.67    243.70      3.90      9.33      2.56    216.61 
1925.30      3.70    564.43    243.10      4.50      9.84      2.56    216.56 
1925.40      3.90    565.72    242.10      4.42     10.67      2.62    216.83 
1925.50      3.90    569.24    242.10      3.86     10.80      2.68    217.54 
1925.60      4.00    571.36    240.90      3.66     10.85      2.80    217.93 
1925.70      4.00    571.50    241.80      3.67     10.68      2.75    217.79 
1925.80      3.80    570.87    242.30      3.70     10.61      2.74    217.84 
1925.90      3.80    570.20    242.90      3.93     10.07      2.64    218.04 
1926.00      3.90    569.74    243.10      4.10      9.99      2.63    218.24 
1926.10      3.90    569.14    242.20      3.90      9.75      2.58    218.71 
1926.20      3.90    568.11    243.10      3.78      9.65      2.61    219.18 
1926.30      4.00    567.37    244.90      3.89      9.86      2.56    219.58 
1926.40      3.90    567.86    245.00      3.81     10.48      2.66    219.76 
1926.50      3.90    569.19    245.50      3.69     10.55      2.58    219.76 
1926.60      3.90    569.90    246.60      3.68     10.30      2.60    219.78 
1926.70      4.00    570.00    248.40      3.72     10.42      2.70    220.13 
1926.80      4.00    569.47    248.90      3.76     10.62      2.87    220.56 
1926.90      4.00    568.21    250.70      3.74     10.68      2.80    221.03 
1927.00      4.10    564.79    253.90      3.70     10.33      2.70    221.48 
1927.10      4.10    560.20    257.90      3.67     10.73      2.66    221.68 
1927.20      4.00    553.45    258.90      3.79      9.72      2.71    221.52 
1927.30      3.90    545.12    262.00      4.50      9.79      2.67    220.81 
1927.40      3.70    537.25    262.80      5.61      9.73      2.76    219.67 
1927.50      3.60    532.98    262.40      6.54      9.51      2.59    218.53 
1927.60      3.60    532.56    262.10      7.00      9.30      2.73    217.74 
1927.70      3.60    535.11    260.30      6.98      9.08      2.71    217.53 
1927.80      3.70    539.94    259.20      6.57      9.16      2.88    217.51 
1927.90      3.90    546.09    257.00      5.87      9.01      2.92    217.45 
1928.00      4.10    552.53    257.10      5.17      9.40      2.85    217.33 
1928.10      4.30    558.80    254.60      4.90      9.16      2.76    217.49 
1928.20      4.60    564.86    254.70      4.64     10.25      2.67    217.86 
1928.30      4.80    569.54    255.60      4.01     10.75      2.49    217.93 
1928.40      5.20    572.35    254.70      3.53     11.03      2.44    217.86 
1928.50      5.30    574.09    255.60      3.25     11.34      2.26    218.24 
1928.60      5.40    573.81    256.20      3.12     11.18      2.46    218.94 
1928.70      5.30    572.87    256.90      3.19     11.26      2.46    219.34 
1928.80      5.20    571.41    257.50      3.21     11.15      2.56    219.26 
1928.90      5.00    570.14    255.30      3.52     10.64      2.40    218.65 
1929.00      4.90    569.87    255.20      3.98     10.23      2.48    218.57 
1929.10      4.80    570.63    254.30      4.18     10.33      2.58    218.74 
1929.20      4.50    571.66    254.40      4.13     10.41      2.58    218.72 
1929.30      4.40    571.93    253.80      3.88     10.66      2.48    218.87 
1929.40      4.30    572.03    255.80      3.71     10.47      2.48    219.00 
1929.50      4.20    572.17    256.40      3.68     10.38      2.40    219.14 
1929.60      4.20    572.13    256.60      3.55     10.81      2.34    219.35 
1929.70      4.20    571.64    257.70      3.37     10.72      2.35    219.87 
1929.80      4.10    570.61    259.70      3.44     10.85      2.50    220.74 
1929.90      4.00    569.41    260.60      3.67     11.12      2.48    221.49 
1930.00      4.00    567.94    260.60      3.85     11.00      2.37    221.65 
1930.10      3.80    565.35    261.70      3.77     10.67      2.37    221.38 
1930.20      3.80    562.05    262.10      3.52     10.17      2.40    220.78 
1930.30      3.60    558.52    263.80      3.50     10.32      2.43    220.50 
1930.40      3.60    556.31    263.60      4.01      9.61      2.51    220.08 
1930.50      3.70    557.52    262.10      5.42      9.34      2.59    218.81 
1930.60      3.70    561.31    261.30      6.37      9.75      2.78    217.42 
1930.70      3.80    565.64    261.20      5.42     10.60      2.77    216.78 
1930.80      3.80    568.09    262.60      4.12     11.24      2.62    218.13 
1930.90      3.80    568.20    262.30      3.62     11.26      2.50    220.15 
1931.00      4.00    567.93    263.50      3.48     11.11      2.41    221.35 
1931.10      4.10    568.63    269.00      3.55     10.78      2.52    221.76 
1931.20      4.20    568.47    270.70      3.75     10.43      2.50    221.74 
1931.30      4.40    567.27    275.90      3.90     10.31      2.68    221.31 
1931.40      4.50    565.88    281.70      3.92     10.23      2.59    220.61 
1931.50      4.50    563.68    290.80      3.96     10.31      2.49    220.13 
1931.60      4.60    559.96    297.70      4.07      9.25      2.45    219.73 
1931.70      4.50    555.73    306.80      3.94      9.52      2.61    219.20 
1931.80      4.60    549.81    315.20      3.72      9.07      2.73    218.64 
1931.90      4.50    543.67    326.30      4.01      9.32      2.82    217.85 
1932.00      4.40    537.54    335.80      4.63      9.00      2.80    216.69 
1932.10      4.20    529.92    345.00      4.82      8.77      2.96    216.07 
1932.20      4.00    519.31    356.10      4.42      8.69      2.77    216.14 
1932.30      3.50    509.75    365.10      4.45      8.11      2.81    216.52 
1932.40      3.10    503.20    373.10      5.29      7.93      2.96    216.80 
1932.50      2.70    498.86    377.20      5.96      7.71      2.98    217.15 
1932.60      2.50    495.29    381.80      6.02      7.25      2.76    217.74 
1932.70      2.30    492.98    383.50      5.93      7.24      2.85    218.39 
1932.80      2.20    492.07    382.90      5.81      6.79      2.91    218.91 
1932.90      2.20    491.77    382.00      5.74      7.33      2.93    219.68 
1933.00      2.10    492.56    376.10      5.95      7.82      2.93    220.28 
1933.10      2.10    493.92    374.30      6.23      7.42      2.81    220.18 
1933.20      2.10    495.52    368.90      6.36      7.97      2.98    219.50 
1933.30      2.20    498.02    359.10      6.36      7.67      2.96    218.69 
1933.40      2.30    501.84    352.00      6.27      7.25      3.04    217.87 
1933.50      2.50    505.74    344.60      6.02      7.28      2.90    216.77 
1933.60      2.60    508.65    334.50      5.41      6.99      2.84    216.05 
1933.70      2.90    509.96    324.60      5.23      7.67      2.72    215.80 
1933.80      3.00    508.75    317.40      6.29      8.14      2.78    215.40 
1933.90      3.30    506.22    306.70      7.27      8.04      2.89    214.91 
1934.00      3.40    503.85    298.00      7.50      8.46      2.91    214.53 
1934.10      3.50    502.37    289.60      7.60      7.88      2.89    214.30 
1934.20      3.60    501.80    279.90      7.74      7.03      2.82    213.89 
1934.30      3.70    501.50    262.60      7.83      7.50      2.97    213.10 
1934.40      3.90    501.60    255.70      7.96      7.38      3.14    212.67 
1934.50      4.30    502.56    250.70      8.31      6.93      3.43    213.05 
1934.60      4.70    504.12    246.90      9.46      6.95      3.84    213.80 
1934.70      5.30    506.15    245.50     12.13      6.44      4.52    215.12 
