~Version information
VERS.                            2.00: CWLS LAS  -  VERSION 2.00
WRAP.                              NO: One line per depth step
~Well information
#MNEM.UNIT                    DATA TYPE  INFORMATION
#===.================================:==================
STRT.M                       1129.000: First depth in file
STOP.M                       2854.200: Last depth in file
STEP.M                          0.100: Depth increment
NULL.                       -9999.00 : Null values
DATE.                        : LOG DATE
TIME.                           15:28: LOG TIME
WELL.                             F9: Well name
GRP.                       : Group name
FLD.                    : Field name
ISS.                 Ò‚Ó‰Ì˚È Í‡ÓÚ‡Ê: Well surveys
SRVC.                                : Service Company
~Curve information
#MNEM.UNIT                   API CODE   CURVE DESCRIPTION
#===.================================:==================
DEPT.M                               : Depth curve
¿2Ã0.5N .ŒÏ*Ï                        : :9 A2.0M0.5N, ŒÏ*Ï - 1475.0 ÒÏ
œ—  .Ï¬                              : :12 œ—, Ï¬ -  372.0 ÒÏ
»   .Ï—ËÏ                            : :14 » , Ï—Ï/Ï - 1961.0 ÒÏ
¡   .ŒÏ*Ï                            : :20 ¡ , ŒÏ*Ï - 1768.0 ÒÏ
√   .√‡ÏÏ                            : :11 √‡ÏÏ‡-‡ÍÚË‚ÌÓÒÚ¸, ÏÍ./˜ -   67.0 
Õ “ .Û.Â.                            : :14 ¡ÓÎ¸¯ÓÈ ÁÓÌ‰ ÔË‚Â‰ÂÌÌ˚È,  -  219.
 ¬  .ÏÏ                              : :20 —. ‰Ë‡ÏÂÚ, ÏÏ -  290.0 ÒÏ
#
~Other information
#------------------ REMARKS AREA -----------------------
#=======================================================
# The file is generated by the program GeoTech-ShopLog v2005.04
#Number of Curves = 7
~A Log Data Section
# ...
1812.40      5.44    539.73    245.56      5.42     11.19      2.63    216.45 
1812.50      5.54    537.05    243.45      7.55     11.71      2.60    215.06 
1812.60      5.60    533.02    242.89      8.20     10.67      2.73    214.19 
1812.70      5.64    529.67    243.14      8.37     10.28      2.70    213.69 
1812.80      5.70    527.14    243.86      8.80      9.67      2.74    213.15 
1812.90      5.66    524.70    245.66      9.56      9.63      2.70    212.58 
1813.00      5.56    521.86    248.94      9.73      9.22      2.83    212.32 
1813.10      5.46    519.68    253.69      9.73      9.28      2.72    212.21 
1813.20      5.36    517.27    260.43      9.90      9.27      2.63    212.13 
1813.30      5.26    515.04    267.45     10.24      9.13      2.50    212.12 
1813.40      5.16    513.11    274.05     10.09      9.04      2.65    212.16 
1813.50      5.02    511.01    288.82      9.34      8.88      2.69    212.32 
1813.60      4.82    508.47    304.98      8.41      8.63      2.73    212.58 
1813.70      4.66    505.97    313.65      8.01      8.45      2.71    212.98 
1813.80      4.49    503.10    322.39      7.88      8.37      2.71    213.71 
1813.90      4.22    500.40    329.90      7.82      7.49      2.75    214.21 
1814.00      3.99    497.77    336.35      7.83      7.12      2.85    214.68 
1814.10      3.72    495.47    341.65      7.84      6.75      2.88    215.48 
1814.20      3.52    494.60    346.20      7.77      6.95      2.87    216.02 
1814.30      3.40    494.02    351.27      7.76      7.20      2.82    216.99 
1814.40      3.36    493.87    354.92      7.77      6.88      2.82    217.99 
1814.50      3.30    493.63    356.93      7.75      6.79      2.81    218.63 
1814.60      3.34    493.84    358.87      7.60      6.94      2.87    218.50 
1814.70      3.48    494.20    360.14      7.62      6.94      2.82    217.33 
1814.80      3.68    494.44    360.49      7.86      6.85      2.97    216.04 
1814.90      3.84    494.09    361.49      7.86      7.23      2.98    215.99 
1815.00      3.94    493.15    362.03      7.48      6.74      3.00    216.57 
1815.10      4.00    492.19    360.95      6.94      6.68      2.86    216.66 
1815.20      4.00    491.70    360.11      6.55      6.45      2.86    216.46 
1815.30      3.96    491.60    359.07      6.42      6.26      2.90    216.25 
1815.40      3.86    491.19    355.74      6.38      6.32      2.98    216.12 
1815.50      3.76    491.88    350.65      6.54      6.20      3.01    216.10 
1815.60      3.66    492.50    345.17      6.84      6.44      2.92    215.89 
1815.70      3.56    493.82    338.04      7.16      6.63      2.94    215.55 
1815.80      3.50    495.28    328.49      7.34      6.87      2.97    215.32 
1815.90      3.46    497.74    318.23      7.67      6.88      3.00    215.16 
1816.00      3.44    500.60    306.94      8.06      7.33      2.97    215.50 
1816.10      3.54    503.74    295.07      8.34      7.53      2.90    216.24 
1816.20      3.64    508.19    283.11      8.42      7.89      2.84    217.05 
1816.30      3.78    514.82    271.19      8.51      8.56      2.95    217.84 
1816.40      3.98    523.58    259.73      8.34      9.40      2.91    218.99 
1816.50      4.21    533.12    248.47      6.43      9.91      2.61    220.49 
1816.60      4.44    543.80    239.79      4.60     10.49      2.47    222.08 
1816.70      4.54    552.89    233.58      3.50     11.69      2.32    222.40 
1816.80      4.56    558.35    228.74      3.55     11.82      2.22    221.61 
1816.90      4.42    561.80    224.98      4.06     11.30      2.12    220.67 
1817.00      4.26    564.70    222.74      4.28     11.36      2.16    220.70 
1817.10      4.16    565.67    220.76      4.39     11.21      2.26    220.75 
1817.20      4.10    565.50    219.58      4.58     11.45      2.33    220.95 
1817.30      4.14    564.86    218.78      4.90     11.55      2.33    221.55 
1817.40      4.24    565.21    218.12      4.85     11.17      2.29    221.91 
1817.50      4.34    566.04    218.13      4.57     10.86      2.31    222.03 
1817.60      4.44    565.55    218.68      5.12     10.94      2.31    222.12 
1817.70      4.54    565.00    219.09      6.28     10.88      2.39    222.44 
1817.80      4.60    564.42    219.39      6.69     10.94      2.42    222.10 
1817.90      4.60    566.51    220.57      5.72     11.60      2.24    221.50 
1818.00      4.52    569.09    223.27      4.53     11.75      2.28    223.95 
1818.10      4.25    570.68    227.27      3.51     11.54      2.21    228.34 
1818.20      3.85    571.64    232.94      3.13     11.63      2.19    232.28 
1818.30      3.45    572.04    237.80      2.90     11.83      2.19    234.37 
1818.40      3.16    572.78    240.40      2.85     11.68      2.26    233.99 
1818.50      3.10    573.58    242.63      3.01     11.53      2.28    233.67 
1818.60      3.14    573.53    245.35      3.23     11.29      2.37    233.25 
1818.70      3.28    572.86    247.49      3.42     11.65      2.44    232.15 
1818.80      3.51    572.06    247.88      3.67     11.40      2.44    230.92 
1818.90      3.74    570.31    248.48      3.93     11.46      2.50    230.23 
1819.00      3.95    567.70    250.09      3.85     11.56      2.43    229.38 
1819.10      4.20    563.27    253.03      3.63     11.37      2.39    227.25 
1819.20      4.16    556.72    255.85      3.59     10.91      2.50    224.41 
1819.30      4.10    548.49    257.99      4.23     10.61      2.59    221.92 
1819.40      4.14    540.27    258.90      5.25     10.37      2.59    221.47 
1819.50      4.20    532.47    260.01      6.46      9.50      2.69    221.72 
1819.60      4.20    526.20    261.99      7.07      9.44      2.78    222.57 
1819.70      4.16    521.62    262.85      7.33      8.68      2.76    224.06 
1819.80      4.06    519.89    262.39      7.43      8.28      2.69    225.43 
1819.90      4.04    520.04    260.97      7.60      7.91      2.65    225.93 
1820.00      4.10    521.63    258.15      7.83      7.94      2.54    226.32 
1820.10      4.14    525.08    254.89      7.95      8.64      2.44    226.53 
1820.20      4.24    530.20    251.15      7.99      9.31      2.45    226.63 
1820.30      4.30    537.57    246.50      7.94      9.33      2.33    226.95 
1820.40      4.26    547.60    242.69      7.09     10.13      2.32    228.16 
1820.50      4.12    555.99    240.01      4.46     10.56      2.34    229.64 
1820.60      3.92    560.81    238.18      3.22     11.81      2.37    232.11 
1820.70      3.80    564.64    235.43      3.32     12.03      2.33    233.15 
1820.80      3.91    566.71    232.58      3.76     12.19      2.39    230.76 
1820.90      4.21    567.37    229.46      4.23     12.34      2.37    227.41 
1821.00      4.51    568.25    226.46      4.61     11.80      2.41    225.36 
1821.10      4.78    569.89    224.95      4.44     11.68      2.41    224.58 
1821.20      4.94    570.70    223.69      4.27     12.29      2.32    224.30 
1821.30      5.04    571.55    223.15      4.13     12.85      2.23    224.40 
1821.40      5.10    571.90    223.62      3.86     12.47      2.11    225.52 
1821.50      5.10    571.83    224.15      3.76     12.47      2.05    225.70 
1821.60      5.14    572.21    224.02      3.50     12.07      2.13    225.32 
1821.70      5.16    572.94    223.15      3.60     11.89      2.29    225.60 
1821.80      5.02    573.00    220.97      5.72     11.08      2.29    225.73 
1821.90      4.82    572.29    218.28      4.58     10.34      2.34    227.99 
1822.00      4.51    571.12    217.01      3.53     10.64      2.44    232.15 
1822.10      4.05    570.77    216.35      3.23     10.82      2.16    237.05 
1822.20      3.61    570.94    215.33      3.12     10.90      2.13    238.30 
1822.30      3.15    571.27    215.36      3.17     10.50      2.00    235.56 
1822.40      2.90    571.33    215.44      3.27     10.74      1.96    231.77 
1822.50      2.94    571.78    214.39      3.50     10.77      1.90    228.86 
