~Version information
VERS.                            2.00: CWLS LAS  -  VERSION 2.00
WRAP.                              NO: One line per depth step
~Well information
#MNEM.UNIT                    DATA TYPE  INFORMATION
#===.================================:==================
STRT.M                       1129.000: First depth in file
STOP.M                       2854.200: Last depth in file
STEP.M                          0.100: Depth increment
NULL.                       -9999.00 : Null values
DATE.                        : LOG DATE
TIME.                           15:28: LOG TIME
WELL.                             F9: Well name
GRP.                       : Group name
FLD.                    : Field name
ISS.                 Ò‚Ó‰Ì˚È Í‡ÓÚ‡Ê: Well surveys
SRVC.                                : Service Company
~Curve information
#MNEM.UNIT                   API CODE   CURVE DESCRIPTION
#===.================================:==================
DEPT.M                               : Depth curve
¿2Ã0.5N .ŒÏ*Ï                        : :9 A2.0M0.5N, ŒÏ*Ï - 1475.0 ÒÏ
œ—  .Ï¬                              : :12 œ—, Ï¬ -  372.0 ÒÏ
»   .Ï—ËÏ                            : :14 » , Ï—Ï/Ï - 1961.0 ÒÏ
¡   .ŒÏ*Ï                            : :20 ¡ , ŒÏ*Ï - 1768.0 ÒÏ
√   .√‡ÏÏ                            : :11 √‡ÏÏ‡-‡ÍÚË‚ÌÓÒÚ¸, ÏÍ./˜ -   67.0 
Õ “ .Û.Â.                            : :14 ¡ÓÎ¸¯ÓÈ ÁÓÌ‰ ÔË‚Â‰ÂÌÌ˚È,  -  219.
 ¬  .ÏÏ                              : :20 —. ‰Ë‡ÏÂÚ, ÏÏ -  290.0 ÒÏ
#
~Other information
#------------------ REMARKS AREA -----------------------
#=======================================================
# The file is generated by the program GeoTech-ShopLog v2005.04
#Number of Curves = 7
~A Log Data Section
# ...
2842.60     34.03    619.26    145.10     12.55     12.24      2.22    221.62 
2842.70     38.81    620.05    149.70      9.15     14.32      2.76    221.19 
2842.80     42.42    619.94    154.30      8.40     15.29      3.13    221.42 
2842.90     42.62    620.04    160.10      7.78     15.76      3.34    221.27 
2843.00     39.13    619.51    166.20      7.51     15.54      3.46    221.22 
2843.10     33.06    619.46    170.30      7.15     14.61      3.48    221.09 
2843.20     27.04    619.45    173.40      6.97     14.01      3.50    221.01 
2843.30     20.81    619.31    176.10      6.78     13.98      3.60    221.02 
2843.40     16.68    619.34    178.40      6.62     13.82      3.54    221.34 
2843.50     13.55    618.86    178.00      6.54     13.35      3.68    221.65 
2843.60     11.31    619.09    177.20      6.55     13.09      3.60    221.67 
2843.70      9.62    619.34    175.60      6.63     12.67      3.53    221.93 
2843.80      8.36    618.97    172.20      6.67     12.43      3.69    221.87 
2843.90      7.48    619.36    167.50      6.59     12.44      3.77    221.85 
2844.00      6.77    619.38    162.40      6.61     12.51      3.61    221.75 
2844.10      6.29    619.12    155.00      6.63     12.20      3.65    221.51 
2844.20      6.05    618.78    149.70      6.60     12.32      3.51    221.47 
2844.30      6.31    618.52    141.70      6.63     13.50      3.28    221.70 
2844.40      6.87    617.91    134.40      6.91     14.36      3.01    222.26 
2844.50      8.06    617.06    126.70      7.80     14.07      2.70    222.87 
2844.60      9.81    617.24    117.00      9.76     13.50      2.05    223.44 
2844.70     12.03    617.29    109.20     15.06     13.08      1.72    224.17 
2844.80     15.19    616.82    100.60     32.82     11.08      1.48    225.13 
2844.90     18.55    617.22     94.60     73.79      9.02      1.38    226.01 
2845.00     21.93    616.91     90.00    115.33      7.94      1.45    226.45 
2845.10     25.01    617.02     86.60    126.38      7.52      1.46    226.06 
2845.20     28.11    617.24     85.60    112.66      7.18      1.52    225.23 
2845.30     31.71    616.62     85.80    101.71      7.43      1.51    224.79 
2845.40     35.78    617.21     87.70     87.96      7.40      1.61    224.00 
2845.50     39.56    617.35     90.60     71.11      8.07      1.75    223.72 
2845.60     42.77    617.16     93.80     55.22      9.20      1.92    223.51 
2845.70     45.26    616.91     98.50     34.75     10.47      2.14    223.40 
2845.80     44.70    616.33    104.30     17.19     12.82      2.44    223.31 
2845.90     38.91    617.16    109.70     10.21     14.53      2.55    223.42 
2846.00     28.74    616.96    116.80      8.47     15.55      2.56    223.57 
2846.10     23.24    616.50    122.60      9.14     16.29      2.50    223.78 
2846.20     22.16    617.26    128.50     11.14     16.46      2.61    224.00 
2846.30     21.19    617.09    132.30      9.85     15.79      2.74    223.65 
2846.40     17.78    616.65    137.40      7.61     15.56      3.18    223.39 
2846.50     19.50    617.04    141.90      6.95     16.08      3.30    223.15 
2846.60     21.43    616.78    145.70      6.89     16.51      3.26    222.61 
2846.70     21.47    617.43    149.50      6.96     17.07      3.16    222.29 
2846.80     21.43    617.27    152.00      6.94     17.35      3.07    222.40 
2846.90     21.50    616.83    153.90      6.90     17.66      3.05    222.76 
2847.00     21.50    616.78    154.90      7.18     17.21      3.16    222.90 
2847.10     21.53    617.04    155.90      7.28     15.79      3.31    222.53 
2847.20     21.60    617.65    157.40      6.84     15.76      3.50    222.20 
2847.30     21.60    616.33    158.30      6.49     15.21      3.66    222.14 
2847.40     21.60    616.39    158.50      6.48     15.12      3.79    222.22 
2847.50     21.60    616.48    159.20      6.68     15.79      3.54    222.36 
2847.60     21.60    616.44    160.00      6.90     15.41      3.35    222.37 
2847.70     21.60    616.65    160.20      7.12     15.97      3.29    222.36 
2847.80     21.63    616.30    159.90      7.20     16.00      3.32    222.35 
2847.90     21.65    615.96    160.00      7.24     16.21      3.11    222.18 
2848.00     21.53    616.11    160.30      7.23     16.88      2.88    222.20 
2848.10     21.60    616.52    160.40      7.21     16.78      2.93    222.34 
2848.20     21.60    617.11    159.70      7.22     17.46      2.78    222.37 
2848.30     21.63    617.22    160.00      7.27     18.62      2.69    222.38 
2848.40     21.70    616.74    159.10      7.56     18.99      2.91    222.32 
2848.50     21.70    616.34    159.30      7.11     18.52      2.99    222.26 
2848.60     21.70    616.71    158.80      7.29     18.90      2.98    222.34 
2848.70     21.73    616.91    159.60      5.66     17.76      3.28    222.38 
2848.80     21.91    616.64    159.50      6.69     16.81      3.71    222.52 
2848.90     22.25    616.19    160.10      5.91     15.95      4.01    223.03 
2849.00     22.43    616.28    160.40      7.04     15.86      3.95    223.27 
2849.10     22.50    616.21    161.40     11.30     16.47      4.00    223.32 
2849.20     22.50    616.43    160.20      7.03     15.94      3.95    223.13 
2849.30     22.53    616.46    158.90      6.00     15.51      3.97    223.05 
2849.40     22.57    616.48    156.60      6.07     16.44      3.88    223.13 
2849.50     22.50    616.63    154.80      6.06     17.77      3.72    223.12 
2849.60     22.50    617.08    153.70      6.07     17.63      3.81    222.90 
2849.70     22.50    615.97    152.00      6.09     18.26      3.86    222.07 
2849.80     22.53    615.72    151.40      6.06     17.88      4.10    221.50 
2849.90     22.57    616.26    151.40      6.07     17.23      4.21    220.99 
2850.00     22.50    616.52    150.20      6.03     15.48      4.33    220.52 
2850.10     22.50    616.84    150.70      6.06     13.99      4.75    220.55 
2850.20     22.47    616.55    150.00      6.06     12.58      5.00    220.91 
2850.30     22.43    617.02    150.40      6.04     11.52      5.06    221.69 
2850.40     22.50    617.03    152.60      6.04     12.04      5.04    222.14 
2850.50     22.53    617.59    161.80      6.02     12.81      4.78    222.41 
2850.60     22.60    616.91    171.70      6.04     14.33      4.48    222.63 
2850.70     22.60    616.99    178.90      6.03     15.29      4.08    222.74 
2850.80     22.60    617.41    183.50      6.04     15.51      3.75    222.90 
2850.90     22.57    617.25    185.10      6.04     16.41      3.74    223.00 
2851.00     22.50    617.09    185.50      6.03     17.21      3.65    223.15 
2851.10     22.53    617.18    185.80      6.04     16.92      3.65    223.21 
2851.20     22.57    616.87    185.80      6.01     15.62      3.83    223.20 
2851.30     22.50    616.27    186.20      6.03     15.85      3.69    222.90 
2851.40     22.53    616.10    186.10      6.01     15.99      3.67    222.29 
2851.50     22.57    616.67    186.90      6.04     16.04      3.72    222.03 
2851.60     22.55    616.04    185.80      6.04     16.09      3.78    221.79 
2851.70     22.67    615.75    187.20      6.07     15.68      3.69    221.59 
2851.80     22.60  -9999.00    186.60      6.14     15.14      3.80    221.21 
2851.90     22.60  -9999.00    186.40      6.14     15.38      3.71    220.96 
2852.00     22.60  -9999.00    186.40      6.15     15.85      3.62    220.97 
2852.10     22.63  -9999.00    186.40      6.12     15.83      3.59    220.84 
2852.20     22.65  -9999.00    186.30      6.14     16.64      3.65    220.79 
2852.30     22.50  -9999.00    185.60      6.14     16.32      3.55    220.88 
2852.40     22.53  -9999.00    186.40      6.10     16.07      3.60    220.89 
2852.50     22.57  -9999.00    186.30      6.14     15.75      3.68    220.72 
2852.60     22.55  -9999.00    185.60      6.12     15.91      3.55    220.04 
2852.70     22.67  -9999.00    187.10      6.13     16.49      3.48    219.57 
