~Version information
VERS.                            2.00: CWLS LAS  -  VERSION 2.00
WRAP.                              NO: One line per depth step
~Well information
#MNEM.UNIT                    DATA TYPE  INFORMATION
#===.================================:==================
STRT.M                       1129.000: First depth in file
STOP.M                       2854.200: Last depth in file
STEP.M                          0.100: Depth increment
NULL.                       -9999.00 : Null values
DATE.                        : LOG DATE
TIME.                           15:28: LOG TIME
WELL.                             F9: Well name
GRP.                       : Group name
FLD.                    : Field name
ISS.                 Ò‚Ó‰Ì˚È Í‡ÓÚ‡Ê: Well surveys
SRVC.                                : Service Company
~Curve information
#MNEM.UNIT                   API CODE   CURVE DESCRIPTION
#===.================================:==================
DEPT.M                               : Depth curve
¿2Ã0.5N .ŒÏ*Ï                        : :9 A2.0M0.5N, ŒÏ*Ï - 1475.0 ÒÏ
œ—  .Ï¬                              : :12 œ—, Ï¬ -  372.0 ÒÏ
»   .Ï—ËÏ                            : :14 » , Ï—Ï/Ï - 1961.0 ÒÏ
¡   .ŒÏ*Ï                            : :20 ¡ , ŒÏ*Ï - 1768.0 ÒÏ
√   .√‡ÏÏ                            : :11 √‡ÏÏ‡-‡ÍÚË‚ÌÓÒÚ¸, ÏÍ./˜ -   67.0 
Õ “ .Û.Â.                            : :14 ¡ÓÎ¸¯ÓÈ ÁÓÌ‰ ÔË‚Â‰ÂÌÌ˚È,  -  219.
 ¬  .ÏÏ                              : :20 —. ‰Ë‡ÏÂÚ, ÏÏ -  290.0 ÒÏ
#
~Other information
#------------------ REMARKS AREA -----------------------
#=======================================================
# The file is generated by the program GeoTech-ShopLog v2005.04
#Number of Curves = 7
~A Log Data Section
# ...
1588.00      4.70    505.10    240.85      7.70      7.20      2.59    212.99 
1588.10      4.70    505.24    238.61      7.70      7.67      2.62    212.98 
1588.20      4.70    504.66    237.58      7.84      7.51      2.67    212.98 
1588.30      4.66    503.94    236.67      7.89      7.58      2.83    213.02 
1588.40      4.64    505.16    235.19      8.01      7.53      2.89    213.09 
1588.50      4.70    505.34    233.88      8.11      7.59      2.87    213.05 
1588.60      4.70    505.38    231.85      8.17      7.62      2.83    212.86 
1588.70      4.74    505.32    229.87      8.18      7.85      2.85    212.51 
1588.80      4.84    505.38    227.80      8.18      7.81      2.77    212.12 
1588.90      4.94    505.80    224.91      8.24      7.66      2.79    211.91 
1589.00      5.09    506.86    222.91      8.25      7.54      2.90    211.74 
1589.10      5.29    507.18    220.92      8.24      7.54      2.86    211.62 
1589.20      5.53    506.80    218.37      8.30      7.32      2.79    211.55 
1589.30      5.88    506.78    216.46      8.52      7.24      2.81    211.52 
1589.40      6.23    507.92    215.06      8.64      7.60      2.77    211.65 
1589.50      6.53    507.96    214.13      8.67      7.66      2.67    211.83 
1589.60      6.74    507.74    213.58      8.71      7.77      2.63    211.96 
1589.70      6.84    506.90    213.78      8.64      7.78      2.71    212.08 
1589.80      6.81    506.78    213.99      8.49      8.07      2.76    212.21 
1589.90      6.66    506.08    214.49      8.69      8.05      2.72    212.34 
1590.00      6.42    505.82    215.79      9.03      8.08      2.62    212.27 
1590.10      6.11    504.68    217.41      8.81      7.94      2.62    211.83 
1590.20      5.87    504.56    219.95      8.72      7.37      2.60    211.31 
1590.30      5.52    504.84    223.05      8.55      7.34      2.63    211.09 
1590.40      5.17    504.42    226.73      8.50      7.39      2.71    211.22 
1590.50      4.96    504.94    229.76      8.46      7.49      2.65    211.58 
1590.60      4.81    504.86    231.76      8.42      7.22      2.61    212.21 
1590.70      4.66    505.52    233.87      7.88      7.38      2.67    213.01 
1590.80      4.56    506.34    235.86      7.91      7.08      2.62    213.96 
1590.90      4.50    506.74    237.60      7.87      7.00      2.59    214.54 
1591.00      4.50    507.36    238.29      7.76      7.18      2.63    214.49 
1591.10      4.50    507.98    238.57      7.62      7.34      2.65    214.42 
1591.20      4.54    509.14    239.59      7.54      8.02      2.59    214.70 
1591.30      4.64    510.60    239.46      7.40      8.03      2.58    215.08 
1591.40      4.74    512.26    238.00      7.14      8.25      2.60    215.48 
1591.50      4.84    513.96    236.50      6.79      8.31      2.60    215.90 
1591.60      5.03    515.34    235.22      6.47      8.00      2.63    216.06 
1591.70      5.29    517.04    234.70      5.55      8.15      2.70    216.28 
1591.80      5.44    517.48    234.65      5.51      8.27      2.73    216.48 
1591.90      5.54    516.54    234.55      6.50      8.39      2.67    216.56 
1592.00      5.60    514.62    234.92      6.79      8.48      2.74    216.31 
1592.10      5.60    512.60    235.72      6.94      8.35      2.79    215.58 
1592.20      5.60    511.80    236.15      7.05      7.78      2.73    214.87 
1592.30      5.60    511.94    236.25      7.22      7.60      2.73    214.18 
1592.40      5.60    512.56    238.42      7.08      7.53      2.69    213.29 
1592.50      5.56    513.18    241.10      6.50      7.66      2.66    212.40 
1592.60      5.50    513.30    243.18      6.66      7.95      2.67    211.54 
1592.70      5.41    512.42    245.20      7.25      8.32      2.74    210.72 
1592.80      5.26    510.92    246.48      7.51      8.43      2.78    210.40 
1592.90      5.16    509.72    247.85      7.65      8.22      2.80    210.12 
1593.00      5.01    509.10    250.14      7.66      8.47      2.73    209.73 
1593.10      4.86    508.20    251.82      7.66      7.98      2.79    209.46 
1593.20      4.80    507.20    251.14      7.64      7.92      2.83    209.50 
1593.30      4.76    506.52    251.47      7.55      8.22      2.77    209.47 
1593.40      4.66    505.76    252.92      7.56      8.24      2.75    209.21 
1593.50      4.56    505.28    253.62      7.24      8.06      2.71    209.10 
1593.60      4.46    504.96    254.48      7.00      7.78      2.62    209.41 
1593.70      4.36    504.34    255.16      6.84      7.74      2.65    210.05 
1593.80      4.26    503.88    255.57      6.79      7.32      2.69    211.04 
1593.90      4.16    503.24    255.43      6.62      7.23      2.71    212.07 
1594.00      4.14    503.34    254.99      6.52      7.07      2.72    213.07 
1594.10      4.20    503.64    254.42      6.73      7.33      2.78    213.39 
1594.20      4.29    503.94    254.16      6.98      7.52      2.69    213.69 
1594.30      4.40    504.24    254.35      7.17      8.12      2.66    213.66 
1594.40      4.40    504.57    254.13      7.17      8.01      2.72    213.25 
1594.50      4.40    505.20    252.89      7.08      7.69      2.73    212.79 
1594.60      4.44    506.05    252.53      7.09      8.15      2.81    212.67 
1594.70      4.54    506.41    254.06      6.99      8.21      2.65    212.79 
1594.80      4.64    506.56    255.11      6.95      8.15      2.52    212.85 
1594.90      4.70    507.00    255.84      6.88      8.08      2.50    212.55 
1595.00      4.70    506.94    255.98      6.90      7.96      2.54    212.24 
1595.10      4.70    506.52    255.60      7.01      8.00      2.58    212.30 
1595.20      4.61    506.69    255.28      7.04      7.76      2.69    212.48 
1595.30      4.50    506.59    255.16      7.00      7.88      2.71    212.52 
1595.40      4.46    506.42    255.19      6.93      7.88      2.62    212.21 
1595.50      4.36    505.72    255.26      6.96      7.27      2.62    212.14 
1595.60      4.30    504.99    255.35      7.06      6.79      2.57    212.18 
1595.70      4.30    504.23    255.35      7.22      6.86      2.57    212.06 
1595.80      4.26    505.20    255.77      7.25      7.10      2.66    211.88 
1595.90      4.20    505.22    255.09      7.24      7.04      2.76    211.88 
1596.00      4.20    505.47    254.36      7.28      7.18      2.76    211.87 
1596.10      4.16    506.02    254.87      7.45      7.50      2.68    211.87 
1596.20      4.14    506.23    255.52      7.54      7.64      2.70    211.89 
1596.30      4.20    506.50    254.90      7.52      8.08      2.71    211.90 
1596.40      4.20    506.56    254.52      7.51      7.44      2.74    211.79 
1596.50      4.24    507.02    255.54      7.45      7.60      2.80    211.68 
1596.60      4.30    507.23    255.25      7.38      7.49      2.60    211.76 
1596.70      4.30    507.37    254.13      7.43      7.07      2.54    212.03 
1596.80      4.26    506.40    253.27      7.37      7.76      2.59    212.44 
1596.90      4.20    506.38    252.53      7.36      7.76      2.69    212.72 
1597.00      4.16    506.20    251.50      7.15      7.24      2.68    212.96 
1597.10      4.10    506.19    249.47      7.01      6.86      2.66    212.81 
1597.20      4.06    506.00    247.61      7.01      6.84      2.74    212.39 
1597.30      3.96    505.15    245.25      7.09      6.71      2.73    211.99 
1597.40      3.94    504.77    240.78      7.08      6.82      2.77    211.72 
1597.50      4.00    504.70    235.54      7.06      7.19      2.77    211.56 
1597.60      4.00    506.25    231.29      7.13      7.84      2.71    211.38 
1597.70      4.04    506.71    226.09      7.21      8.17      2.67    211.22 
1597.80      4.14    507.81    221.35      7.30      7.81      2.70    211.11 
1597.90      4.24    509.71    217.78      7.27      7.30      2.68    211.09 
1598.00      4.34    512.30    213.56      7.01      7.60      2.66    211.17 
1598.10      4.40    514.37    209.11      6.45      7.89      2.61    211.32 
