~Version information
VERS.                            2.00: CWLS LAS  -  VERSION 2.00
WRAP.                              NO: One line per depth step
~Well information
#MNEM.UNIT                    DATA TYPE  INFORMATION
#===.================================:==================
STRT.M                       1129.000: First depth in file
STOP.M                       2854.200: Last depth in file
STEP.M                          0.100: Depth increment
NULL.                       -9999.00 : Null values
DATE.                        : LOG DATE
TIME.                           15:28: LOG TIME
WELL.                             F9: Well name
GRP.                       : Group name
FLD.                    : Field name
ISS.                 Ò‚Ó‰Ì˚È Í‡ÓÚ‡Ê: Well surveys
SRVC.                                : Service Company
~Curve information
#MNEM.UNIT                   API CODE   CURVE DESCRIPTION
#===.================================:==================
DEPT.M                               : Depth curve
¿2Ã0.5N .ŒÏ*Ï                        : :9 A2.0M0.5N, ŒÏ*Ï - 1475.0 ÒÏ
œ—  .Ï¬                              : :12 œ—, Ï¬ -  372.0 ÒÏ
»   .Ï—ËÏ                            : :14 » , Ï—Ï/Ï - 1961.0 ÒÏ
¡   .ŒÏ*Ï                            : :20 ¡ , ŒÏ*Ï - 1768.0 ÒÏ
√   .√‡ÏÏ                            : :11 √‡ÏÏ‡-‡ÍÚË‚ÌÓÒÚ¸, ÏÍ./˜ -   67.0 
Õ “ .Û.Â.                            : :14 ¡ÓÎ¸¯ÓÈ ÁÓÌ‰ ÔË‚Â‰ÂÌÌ˚È,  -  219.
 ¬  .ÏÏ                              : :20 —. ‰Ë‡ÏÂÚ, ÏÏ -  290.0 ÒÏ
#
~Other information
#------------------ REMARKS AREA -----------------------
#=======================================================
# The file is generated by the program GeoTech-ShopLog v2005.04
#Number of Curves = 7
~A Log Data Section
# ...
2271.40      3.38    585.00    263.07      3.10     12.13      2.45    220.76 
2271.50      3.40    585.90    258.52      3.23     11.84      2.46    220.33 
2271.60      3.48    586.00    253.79      3.22     11.71      2.54    220.69 
2271.70      3.50    586.10    248.54      3.14     11.99      2.54    221.59 
2271.80      3.50    584.90    244.70      3.19     12.19      2.65    222.06 
2271.90      3.50    585.00    241.80      3.41     12.40      2.80    221.84 
2272.00      3.58    584.20    239.51      3.66     12.36      2.96    220.95 
2272.10      3.52    583.20    238.34      3.76     11.97      3.17    220.18 
2272.20      3.50    581.20    238.11      3.87     11.60      3.27    219.93 
2272.30      3.50    579.10    237.93      4.06     11.48      3.37    219.55 
2272.40      3.50    577.60    237.56      4.17     11.59      3.42    218.97 
2272.50      3.58    576.20    238.53      4.30     11.26      3.53    218.38 
2272.60      3.68    576.80    238.70      4.37     11.42      3.63    218.16 
2272.70      3.78    579.30    238.53      4.32     12.08      3.62    218.45 
2272.80      3.88    582.00    240.14      4.20     12.53      3.57    218.88 
2272.90      3.90    583.00    243.23      4.03     13.01      3.43    219.03 
2273.00      4.06    583.80    245.59      3.93     12.87      3.26    218.75 
2273.10      4.18    582.70    247.10      3.84     12.58      3.18    218.42 
2273.20      4.28    582.10    250.83      3.76     12.43      3.10    218.25 
2273.30      4.22    579.60    253.98      3.69     11.86      3.10    218.24 
2273.40      4.20    576.30    256.37      3.68     11.63      3.11    218.26 
2273.50      4.04    569.80    258.07      3.93     11.51      3.00    217.76 
2273.60      3.84    562.10    258.73      4.44     11.24      2.96    216.91 
2273.70      3.80    555.80    258.80      4.76     11.19      3.10    216.14 
2273.80      3.88    552.20    258.80      4.76     10.86      3.20    215.44 
2273.90      3.82    551.70    257.94      4.95     10.75      3.24    214.99 
2274.00      3.72    552.90    256.34      4.85     11.16      3.32    215.06 
2274.10      3.54    558.20    252.41      4.23     11.40      3.37    216.02 
2274.20      3.58    564.90    249.56      3.83     11.92      3.41    217.83 
2274.30      3.60    569.30    245.50      4.01     12.17      3.39    220.00 
2274.40      3.52    573.00    242.58      4.09     12.38      3.41    221.63 
2274.50      3.58    576.10    241.26      3.84     12.44      3.42    222.56 
2274.60      3.76    578.40    238.70      3.70     13.02      3.36    223.25 
2274.70      3.80    578.60    238.21      3.70     13.73      3.28    223.48 
2274.80      3.88    576.20    238.54      3.80     13.54      3.17    223.14 
2274.90      3.90    572.90    239.97      4.00     13.56      3.09    222.56 
2275.00      3.98    568.50    240.97      4.33     13.06      3.15    221.74 
2275.10      4.08    563.80    241.53      4.83     11.91      3.13    220.34 
2275.20      4.18    558.80    241.86      5.29     11.68      3.18    218.15 
2275.30      4.36    555.80    242.42      5.39     11.97      3.31    215.73 
2275.40      4.48    553.60    247.65      5.37     12.22      3.35    214.54 
2275.50      4.50    552.90    251.08      5.05     12.49      3.44    214.31 
2275.60      4.42    553.80    252.36      4.33     12.57      3.51    214.10 
2275.70      4.48    554.90    254.22      4.12     12.11      3.51    213.85 
2275.80      4.34    552.90    256.74      4.84     11.64      3.52    213.87 
2275.90      4.38    545.90    257.53      6.52     11.27      3.52    214.03 
2276.00      4.48    537.70    258.20      8.25     11.04      3.57    213.81 
2276.10      4.50    530.90    259.16      8.18     11.00      3.55    213.27 
2276.20      4.58    525.60    260.76      7.18     11.16      3.46    212.53 
2276.30      4.60    521.00    259.19      7.02     11.23      3.37    211.63 
2276.40      4.44    520.00    259.42      6.79     10.69      3.13    211.01 
2276.50      4.24    519.60    257.53      6.27     10.98      3.07    210.73 
2276.60      4.12    519.20    255.57      5.90     11.48      3.09    210.74 
2276.70      3.94    519.30    252.55      5.78     11.67      2.97    210.91 
2276.80      3.82    519.20    248.23      5.70     11.65      2.94    211.23 
2276.90      3.72    520.70    243.14      5.97     11.27      2.91    211.84 
2277.00      3.54    521.90    236.22      6.38     10.83      2.89    212.39 
2277.10      3.58    524.10    229.02      6.45     10.51      2.86    212.87 
2277.20      3.52    527.40    222.84      5.94     10.53      2.94    213.56 
2277.30      3.58    533.00    215.46      5.10     10.74      3.09    214.59 
2277.40      3.76    538.20    208.48      4.77     10.61      3.28    215.80 
2277.50      3.96    542.90    203.04      4.92     10.78      3.42    216.91 
2277.60      4.23    545.30    197.92      5.07     11.10      3.52    217.70 
2277.70      4.38    544.10    193.84      5.52     10.95      3.54    217.93 
2277.80      4.63    541.40    190.89      6.36     11.27      3.44    217.60 
2277.90      4.86    538.80    189.30      6.74     11.11      3.45    216.89 
2278.00      4.98    536.80    188.24      6.30     10.60      3.49    215.83 
2278.10      5.16    536.20    188.87      6.01     10.33      3.52    214.67 
2278.20      5.36    535.20    189.60      6.48     10.41      3.53    213.99 
2278.30      5.56    533.90    189.61      7.38     10.54      3.58    213.46 
2278.40      5.83    534.10    190.63      7.96     10.24      3.72    212.61 
2278.50      6.06    534.70    192.77      8.10      9.91      3.73    211.66 
2278.60      6.18    536.70    195.50      7.91      9.88      3.62    211.19 
2278.70      6.20    541.30    198.74      6.95      9.94      3.51    211.40 
2278.80      6.12    545.30    202.39      5.75     10.22      3.49    212.00 
2278.90      5.79    549.70    205.39      5.37     10.58      3.47    213.19 
2279.00      5.47    553.90    206.92      5.76     11.11      3.46    214.44 
2279.10      5.24    560.50    210.10      5.52     11.67      3.44    214.96 
2279.20      4.97    566.90    213.52      4.54     11.48      3.46    215.97 
2279.30      4.67    569.00    215.89      4.08     11.11      3.50    217.75 
2279.40      4.60    567.70    218.26      4.27     11.28      3.46    218.83 
2279.50      4.37    567.70    219.97      4.52     11.32      3.44    218.87 
2279.60      4.30    568.20    221.57      4.54     11.16      3.42    218.52 
2279.70      4.22    568.50    221.89      4.55     11.42      3.42    217.89 
2279.80      4.28    567.80    222.76      4.91     11.37      3.41    216.78 
2279.90      4.46    566.30    224.36      5.48     10.90      3.24    215.73 
2280.00      4.66    567.70    225.97      5.50     10.58      3.02    215.52 
2280.10      4.78    570.60    227.75      4.47     10.83      2.90    216.33 
2280.20      4.88    576.60    229.55      3.56     11.55      2.81    217.99 
2280.30      4.90    582.30    231.18      3.33     12.17      2.60    219.78 
2280.40      4.82    585.50    232.26      3.34     12.45      2.40    221.35 
2280.50      4.64    586.40    231.97      3.37     12.44      2.28    222.61 
2280.60      4.52    586.70    231.64      3.45     12.30      2.19    224.12 
2280.70      4.58    587.00    231.17      3.60     12.22      2.10    226.27 
2280.80      4.68    587.30    230.84      3.72     12.20      2.17    227.94 
2280.90      4.86    588.00    231.32      3.82     11.81      2.24    228.78 
2281.00      4.90    588.50    230.97      3.78     11.57      2.36    230.13 
2281.10      4.98    588.60    231.50      3.69     11.98      2.34    231.80 
2281.20      5.00    589.30    232.98      3.75     12.09      2.42    231.56 
2281.30      4.92    589.50    233.11      3.79     11.71      2.55    228.69 
2281.40      4.90    590.40    234.99      3.75     11.73      2.66    225.44 
2281.50      4.74    590.70    235.90      3.70     11.68      2.78    224.22 
