~Version information
VERS.                            2.00: CWLS LAS  -  VERSION 2.00
WRAP.                              NO: One line per depth step
~Well information
#MNEM.UNIT                    DATA TYPE  INFORMATION
#===.================================:==================
STRT.M                       1129.000: First depth in file
STOP.M                       2854.200: Last depth in file
STEP.M                          0.100: Depth increment
NULL.                       -9999.00 : Null values
DATE.                        : LOG DATE
TIME.                           15:28: LOG TIME
WELL.                             F9: Well name
GRP.                       : Group name
FLD.                    : Field name
ISS.                 Ò‚Ó‰Ì˚È Í‡ÓÚ‡Ê: Well surveys
SRVC.                                : Service Company
~Curve information
#MNEM.UNIT                   API CODE   CURVE DESCRIPTION
#===.================================:==================
DEPT.M                               : Depth curve
¿2Ã0.5N .ŒÏ*Ï                        : :9 A2.0M0.5N, ŒÏ*Ï - 1475.0 ÒÏ
œ—  .Ï¬                              : :12 œ—, Ï¬ -  372.0 ÒÏ
»   .Ï—ËÏ                            : :14 » , Ï—Ï/Ï - 1961.0 ÒÏ
¡   .ŒÏ*Ï                            : :20 ¡ , ŒÏ*Ï - 1768.0 ÒÏ
√   .√‡ÏÏ                            : :11 √‡ÏÏ‡-‡ÍÚË‚ÌÓÒÚ¸, ÏÍ./˜ -   67.0 
Õ “ .Û.Â.                            : :14 ¡ÓÎ¸¯ÓÈ ÁÓÌ‰ ÔË‚Â‰ÂÌÌ˚È,  -  219.
 ¬  .ÏÏ                              : :20 —. ‰Ë‡ÏÂÚ, ÏÏ -  290.0 ÒÏ
#
~Other information
#------------------ REMARKS AREA -----------------------
#=======================================================
# The file is generated by the program GeoTech-ShopLog v2005.04
#Number of Curves = 7
~A Log Data Section
# ...
2383.60      7.82    567.78    190.72      5.22     12.21      3.51    219.37 
2383.70      7.88    572.80    191.78      5.01     12.67      3.44    219.41 
2383.80      7.78    577.32    191.91      4.14     12.73      3.33    219.60 
2383.90      7.70    579.62    192.41      4.01     12.91      3.30    219.85 
2384.00      7.64    580.21    192.17      4.41     13.27      3.29    219.90 
2384.10      7.34    579.27    193.42      4.54     12.76      3.37    219.84 
2384.20      7.08    578.96    193.50      4.50     12.36      3.47    219.68 
2384.30      6.96    578.10    193.73      4.29     12.10      3.41    218.75 
2384.40      6.76    576.44    194.38      4.08     11.79      3.52    217.98 
2384.50      6.58    572.97    194.42      4.28     11.08      3.61    217.68 
2384.60      6.48    568.77    195.99      4.64     11.23      3.54    217.51 
2384.70      6.42    564.49    196.90      4.55     11.11      3.51    217.00 
2384.80      6.54    559.79    198.08      4.39     10.94      3.54    216.71 
2384.90      6.76    553.03    198.91      4.97     10.62      3.72    215.15 
2385.00      7.02    545.28    199.74      6.13      9.37      3.86    214.05 
2385.10      7.16    539.23    200.85      6.77      9.19      3.96    213.73 
2385.20      7.48    537.32    203.23      6.44      9.81      4.16    213.61 
2385.30      7.94    538.08    204.48      5.92     10.24      4.20    213.52 
2385.40      8.58    540.34    205.82      6.31     10.37      4.18    213.50 
2385.50      8.90    544.20    204.39      7.79     10.11      4.15    213.56 
2385.60      8.88    548.48    202.49      8.09      9.73      3.99    213.80 
2385.70      8.78    552.81    201.75      5.97     10.18      3.74    213.96 
2385.80      8.60    555.05    201.92      4.67     10.31      3.59    214.03 
2385.90      8.12    554.86    203.25      4.53     10.35      3.48    214.37 
2386.00      7.74    552.91    204.29      4.69     10.93      3.50    214.45 
2386.10      7.50    550.73    205.11      4.94     11.39      3.57    214.59 
2386.20      7.50    549.70    205.59      5.32     11.12      3.74    214.86 
2386.30      7.56    551.49    204.65      5.62     11.40      3.78    215.16 
2386.40      7.80    556.19    203.61      5.73     12.29      3.76    215.29 
2386.50      7.76    563.79    203.07      5.51     13.03      3.56    215.60 
2386.60      7.54    571.74    203.28      4.54     13.49      3.56    216.16 
2386.70      7.24    578.21    203.06      3.74     14.13      3.47    216.51 
2386.80      6.90    582.15    202.76      3.56     13.35      3.46    217.17 
2386.90      6.44    582.96    203.11      3.68     13.53      3.48    217.40 
2387.00      6.20    582.31    202.20      3.89     13.30      3.47    217.58 
2387.10      6.22    581.41    201.06      3.94     13.33      3.48    217.49 
2387.20      6.34    578.74    200.53      4.04     13.12      3.39    217.40 
2387.30      6.56    575.00    200.07      4.17     12.31      3.43    217.30 
2387.40      6.84    570.47    199.02      4.36     12.07      3.52    217.42 
2387.50      7.06    566.09    197.96      4.74     12.18      3.57    217.48 
2387.60      7.34    565.04    197.31      5.16     11.75      3.71    217.56 
2387.70      7.54    567.85    196.84      4.95     11.54      3.64    217.82 
2387.80      7.74    570.50    197.28      4.53     11.84      3.48    218.18 
2387.90      7.90    572.73    196.99      4.61     11.96      3.45    219.08 
2388.00      7.90    574.50    196.25      4.70     12.51      3.40    220.65 
2388.10      7.90    575.77    196.15      4.69     12.82      3.30    222.87 
2388.20      7.90    577.46    196.58      4.61     12.58      3.18    225.60 
2388.30      7.96    577.60    197.73      4.28     12.67      3.09    229.04 
2388.40      8.22    575.10    198.57      4.12     12.15      3.09    230.00 
2388.50      8.28    572.43    198.41      4.78     12.07      3.07    232.00 
2388.60      8.14    571.79    197.01      5.98     12.32      2.99    236.64 
2388.70      7.80    574.34    196.36      5.91     12.46      2.71    237.85 
2388.80      7.20    577.71    195.36      4.55     12.65      2.40    239.50 
2388.90      6.22    581.22    196.36      3.69     12.55      2.07    244.83 
2389.00      5.36    583.02    198.06      3.58     12.73      2.03    248.59 
2389.10      4.76    583.66    198.85      3.57     12.31      2.09    255.15 
2389.20      4.64    584.41    199.42      3.39     12.54      2.20    257.51 
2389.30      4.82    584.56    198.20      3.32     12.98      2.43    256.36 
2389.40      4.98    585.22    196.74      3.46     12.72      2.67    255.86 
2389.50      5.44    585.07    194.62      3.77     12.56      2.98    255.37 
2389.60      6.16    585.31    191.87      4.16     12.22      3.34    252.29 
2389.70      6.92    583.58    187.88      4.54     11.78      3.72    238.96 
2389.80      7.50    582.00    182.83      5.18     11.46      3.83    231.99 
2389.90      7.94    582.91    179.37      5.79     11.68      3.83    230.01 
2390.00      8.12    583.46    178.67      5.90     11.44      3.77    229.76 
2390.10      8.18    583.39    178.92      5.40     11.44      3.71    230.31 
2390.20      8.08    582.96    179.73      4.87     11.49      3.57    231.36 
2390.30      8.02    582.83    183.08      4.85     11.14      3.57    232.69 
2390.40      8.12    581.69    186.60      5.15     11.05      3.62    233.80 
2390.50      8.22    579.87    189.74      5.12     10.89      3.48    235.42 
2390.60      8.32    578.73    193.80      4.98     10.64      3.34    237.49 
2390.70      8.38    579.95    195.97      5.03     11.04      3.00    242.01 
2390.80      8.26    581.42    200.78      5.00     11.59      2.81    244.26 
2390.90      8.00    582.79    204.74      4.44     12.66      2.49    248.15 
2391.00      7.42    584.00    209.59      3.82     13.43      2.11    255.08 
2391.10      6.50    584.76    215.75      3.42     12.65      1.94    260.78 
2391.20      5.54    584.51    222.00      3.18     12.17      1.95    264.77 
2391.30      4.82    583.84    226.76      3.06     12.04      1.96    268.69 
2391.40      4.42    584.55    230.76      3.06     12.31      2.07    269.98 
2391.50      4.10    584.84    232.58      3.17     12.24      2.33    270.51 
2391.60      4.16    584.55    233.64      3.27     12.04      2.59    266.64 
2391.70      4.44    584.38    234.12      3.36     11.80      2.73    262.21 
2391.80      4.68    584.77    233.83      3.46     11.90      2.90    257.04 
2391.90      5.12    584.28    232.58      3.59     12.38      3.03    238.52 
2392.00      5.70    582.70    232.41      3.72     12.17      3.17    232.14 
2392.10      6.18    580.76    232.63      3.86     12.39      3.30    226.32 
2392.20      6.54    578.62    235.02      3.99     12.58      3.39    223.21 
2392.30      6.72    575.21    237.84      4.07     11.57      3.44    221.73 
2392.40      6.80    570.23    241.92      3.90     11.21      3.40    220.75 
2392.50      6.80    563.97    248.32      3.74     11.15      3.34    220.58 
2392.60      6.80    555.92    253.60      4.01     10.73      3.26    220.40 
2392.70      6.80    546.89    261.39      4.34     10.50      3.35    219.99 
2392.80      6.78    540.02    267.92      4.31     10.06      3.37    219.50 
2392.90      6.68    532.35    274.62      4.19      9.82      3.31    219.24 
2393.00      6.58    525.85    281.04      4.30      9.60      3.34    219.17 
2393.10      6.50    520.43    285.45      4.72      9.65      3.24    219.14 
2393.20      6.48    518.16    289.70      5.03      9.99      3.24    219.17 
2393.30      6.34    517.27    293.77      5.10     10.14      3.22    219.33 
2393.40      6.08    516.14    295.35      5.20     10.48      3.25    219.80 
2393.50      5.96    515.33    296.71      5.27     10.49      3.28    221.47 
2393.60      5.82    516.24    297.31      5.21      9.99      3.22    223.20 
2393.70      5.90    519.53    296.70      5.23      9.73      3.13    225.63 
