~Version information
VERS.                            2.00: CWLS LAS  -  VERSION 2.00
WRAP.                              NO: One line per depth step
~Well information
#MNEM.UNIT                    DATA TYPE  INFORMATION
#===.================================:==================
STRT.M                       1129.000: First depth in file
STOP.M                       2854.200: Last depth in file
STEP.M                          0.100: Depth increment
NULL.                       -9999.00 : Null values
DATE.                        : LOG DATE
TIME.                           15:28: LOG TIME
WELL.                             F9: Well name
GRP.                       : Group name
FLD.                    : Field name
ISS.                 Ò‚Ó‰Ì˚È Í‡ÓÚ‡Ê: Well surveys
SRVC.                                : Service Company
~Curve information
#MNEM.UNIT                   API CODE   CURVE DESCRIPTION
#===.================================:==================
DEPT.M                               : Depth curve
¿2Ã0.5N .ŒÏ*Ï                        : :9 A2.0M0.5N, ŒÏ*Ï - 1475.0 ÒÏ
œ—  .Ï¬                              : :12 œ—, Ï¬ -  372.0 ÒÏ
»   .Ï—ËÏ                            : :14 » , Ï—Ï/Ï - 1961.0 ÒÏ
¡   .ŒÏ*Ï                            : :20 ¡ , ŒÏ*Ï - 1768.0 ÒÏ
√   .√‡ÏÏ                            : :11 √‡ÏÏ‡-‡ÍÚË‚ÌÓÒÚ¸, ÏÍ./˜ -   67.0 
Õ “ .Û.Â.                            : :14 ¡ÓÎ¸¯ÓÈ ÁÓÌ‰ ÔË‚Â‰ÂÌÌ˚È,  -  219.
 ¬  .ÏÏ                              : :20 —. ‰Ë‡ÏÂÚ, ÏÏ -  290.0 ÒÏ
#
~Other information
#------------------ REMARKS AREA -----------------------
#=======================================================
# The file is generated by the program GeoTech-ShopLog v2005.04
#Number of Curves = 7
~A Log Data Section
# ...
2047.00      3.76    567.04    264.63      3.41      9.84      3.06    218.63 
2047.10      3.80    568.01    265.95      3.44     10.24      3.05    218.82 
2047.20      3.74    567.44    266.44      3.56     10.39      3.05    218.76 
2047.30      3.76    565.29    266.99      3.90     10.09      3.22    218.33 
2047.40      3.80    561.04    268.12      4.25      9.97      3.45    217.15 
2047.50      3.80    556.78    268.43      4.41      9.91      3.52    215.32 
2047.60      3.80    553.21    268.75      4.82      9.58      3.47    214.12 
2047.70      3.86    549.65    269.82      5.18      9.54      3.40    213.63 
2047.80      3.90    546.43    269.78      5.26      9.47      3.43    213.49 
2047.90      3.84    544.25    269.81      4.97      9.36      3.58    213.51 
2048.00      3.80    543.42    270.61      4.45      9.42      3.67    214.13 
2048.10      3.74    544.75    271.82      4.31      9.24      3.62    215.13 
2048.20      3.70    546.12    272.76      4.41      9.13      3.42    216.65 
2048.30      3.57    547.47    275.05      4.41      9.04      3.41    217.47 
2048.40      3.50    548.79    275.97      4.12      9.18      3.43    217.61 
2048.50      3.56    550.62    277.27      3.83      9.29      3.39    217.66 
2048.60      3.60    551.33    278.08      3.95      9.56      3.36    217.69 
2048.70      3.72    550.49    280.31      4.29     10.00      3.42    217.52 
2048.80      3.74    550.05    281.48      4.52      9.87      3.48    217.15 
2048.90      3.76    549.85    283.44      4.26      9.77      3.37    216.30 
2049.00      3.80    549.72    286.53      4.13      9.99      3.33    215.32 
2049.10      3.80    545.88    288.91      4.23     10.35      3.24    215.00 
2049.20      3.68    542.10    290.35      4.45     10.77      3.15    215.45 
2049.30      3.54    539.70    293.18      4.67     10.45      3.06    215.62 
2049.40      3.56    539.58    296.32      5.22     10.02      2.96    215.42 
2049.50      3.72    540.85    297.91      5.57      9.70      2.92    215.01 
2049.60      3.80    543.88    299.76      5.25      9.59      2.84    215.40 
2049.70      3.80    549.97    301.61      4.84      9.75      2.85    216.78 
2049.80      3.80    555.59    303.31      4.05      9.70      2.84    217.98 
2049.90      3.80    559.71    305.22      3.20      9.99      2.72    219.47 
2050.00      3.74    559.45    307.79      2.86     10.61      2.63    220.38 
2050.10      3.64    555.58    308.10      3.18     10.79      2.69    221.19 
2050.20      3.54    549.82    307.97      3.77     10.61      2.75    221.25 
2050.30      3.44    545.71    307.43      4.46     10.42      2.74    219.29 
2050.40      3.40    543.45    305.64      5.24     10.09      2.79    214.53 
2050.50      3.34    544.84    302.01      5.26      9.51      2.84    211.96 
2050.60      3.30    549.54    298.24      4.77      8.98      2.80    211.67 
2050.70      3.30    555.71    293.49      4.13      9.38      2.85    212.82 
2050.80      3.24    563.53    289.43      3.48     10.25      2.89    214.40 
2050.90      3.33    569.16    284.98      3.30     10.43      2.85    216.27 
2051.00      3.40    572.67    281.75      3.30     10.46      2.79    219.68 
2051.10      3.40    574.63    278.93      2.90     10.56      2.65    222.66 
2051.20      3.40    575.69    276.25      2.48     11.08      2.42    224.84 
2051.30      3.40    576.98    273.16      2.51     11.45      2.18    227.05 
2051.40      3.40    577.84    270.01      2.84     11.64      2.05    228.84 
2051.50      3.46    578.38    266.62      3.12     11.96      2.14    228.14 
2051.60      3.44    578.42    262.97      3.27     11.93      2.30    225.85 
2051.70      3.46    577.87    258.99      3.25     11.68      2.43    224.01 
2051.80      3.63    577.55    257.02      3.10     11.72      2.56    223.31 
2051.90      3.89    577.73    254.15      3.11     11.89      2.69    223.62 
2052.00      4.13    578.34    252.60      3.69     11.73      2.75    223.95 
2052.10      4.26    578.35    251.90      4.52     11.46      2.83    223.10 
2052.20      4.30    578.91    252.13      4.41     11.49      3.11    221.35 
2052.30      4.17    579.18    253.86      3.87     11.83      3.26    219.90 
2052.40      4.04    578.97    256.62      3.72     12.19      3.04    219.99 
2052.50      3.87    579.59    259.55      3.71     12.02      2.94    220.70 
2052.60      3.74    579.49    262.89      3.65     11.48      2.94    221.15 
2052.70      3.70    579.17    268.87      3.69     11.19      3.02    221.36 
2052.80      3.57    579.02    274.02      3.73     11.33      3.04    221.57 
2052.90      3.44    578.47    279.26      3.62     11.19      2.94    221.24 
2053.00      3.34    578.15    285.78      3.50     11.23      2.89    220.83 
2053.10      3.24    577.33    291.92      3.17     11.10      2.74    220.63 
2053.20      3.20    577.10    299.21      2.89     11.31      2.49    220.41 
2053.30      3.20    575.95    307.89      2.82     11.57      2.41    220.41 
2053.40      3.14    573.93    313.47      2.93     11.13      2.42    220.76 
2053.50      3.04    571.34    321.00      3.07     11.33      2.43    219.83 
2053.60      3.06    568.02    327.72      3.32     11.62      2.49    217.73 
2053.70      3.16    560.94    332.31      3.72     11.05      2.61    215.43 
2053.80      3.20    552.97    335.63      3.97     10.24      2.70    213.89 
2053.90      3.20    546.00    340.67      4.25      9.82      2.73    212.97 
2054.00      3.20    539.58    344.10      4.74      9.96      2.76    212.18 
2054.10      3.14    535.04    343.80      5.19      9.94      2.86    211.53 
2054.20      3.10    532.12    344.11      5.37      9.54      2.89    211.11 
2054.30      3.10    530.58    343.19      5.21      8.91      2.88    210.70 
2054.40      3.10    530.76    340.37      5.05      8.68      2.92    210.86 
2054.50      3.16    531.51    335.86      5.05      8.80      2.93    211.34 
2054.60      3.14    532.93    330.56      5.19      8.73      2.91    212.14 
2054.70      3.16    534.90    325.74      5.35      8.94      2.87    212.88 
2054.80      3.26    537.54    317.09      5.40      9.18      2.88    213.38 
2054.90      3.36    541.32    310.56      5.14      9.29      2.94    213.42 
2055.00      3.46    546.58    306.84      4.43      9.35      2.95    213.27 
2055.10      3.50    553.64    303.41      3.56      9.57      2.98    213.32 
2055.20      3.63    561.51    300.13      3.02      9.85      3.02    213.61 
2055.30      3.70    568.59    299.13      2.91     10.26      3.02    214.21 
2055.40      3.76    572.64    297.76      2.91     11.01      2.97    214.86 
2055.50      3.80    575.08    295.50      2.94     11.48      2.86    215.38 
2055.60      3.86    576.29    293.59      3.03     11.49      2.72    216.05 
2055.70      3.84    576.65    291.54      2.98     11.36      2.59    217.40 
2055.80      3.61    576.32    290.69      2.70     11.21      2.43    219.91 
2055.90      3.31    576.05    289.47      2.52     11.26      2.31    223.12 
2056.00      2.95    575.69    287.73      2.53     11.18      2.25    225.80 
2056.10      2.67    575.45    287.27      2.72     11.03      2.22    226.82 
2056.20      2.60    575.55    286.31      3.02     11.43      2.22    225.94 
2056.30      2.60    575.83    283.27      3.13     11.41      2.29    224.88 
2056.40      2.66    576.20    279.37      3.07     10.93      2.43    223.32 
2056.50      2.70    576.07    277.56      3.04     10.63      2.47    221.35 
2056.60      2.70    576.08    275.10      3.08     10.49      2.43    219.84 
2056.70      2.70    575.11    271.29      3.16     10.48      2.41    217.90 
2056.80      2.76    574.27    268.47      3.25     10.26      2.44    216.49 
2056.90      2.86    573.42    266.24      3.60     10.49      2.59    216.00 
2057.00      2.96    572.28    263.97      3.99     10.67      2.80    215.71 
2057.10      3.06    571.54    261.03      4.00     10.23      2.91    215.47 
