~Version information
VERS.                            2.00: CWLS LAS  -  VERSION 2.00
WRAP.                              NO: One line per depth step
~Well information
#MNEM.UNIT                    DATA TYPE  INFORMATION
#===.================================:==================
STRT.M                       1129.000: First depth in file
STOP.M                       2854.200: Last depth in file
STEP.M                          0.100: Depth increment
NULL.                       -9999.00 : Null values
DATE.                        : LOG DATE
TIME.                           15:28: LOG TIME
WELL.                             F9: Well name
GRP.                       : Group name
FLD.                    : Field name
ISS.                 Ò‚Ó‰Ì˚È Í‡ÓÚ‡Ê: Well surveys
SRVC.                                : Service Company
~Curve information
#MNEM.UNIT                   API CODE   CURVE DESCRIPTION
#===.================================:==================
DEPT.M                               : Depth curve
¿2Ã0.5N .ŒÏ*Ï                        : :9 A2.0M0.5N, ŒÏ*Ï - 1475.0 ÒÏ
œ—  .Ï¬                              : :12 œ—, Ï¬ -  372.0 ÒÏ
»   .Ï—ËÏ                            : :14 » , Ï—Ï/Ï - 1961.0 ÒÏ
¡   .ŒÏ*Ï                            : :20 ¡ , ŒÏ*Ï - 1768.0 ÒÏ
√   .√‡ÏÏ                            : :11 √‡ÏÏ‡-‡ÍÚË‚ÌÓÒÚ¸, ÏÍ./˜ -   67.0 
Õ “ .Û.Â.                            : :14 ¡ÓÎ¸¯ÓÈ ÁÓÌ‰ ÔË‚Â‰ÂÌÌ˚È,  -  219.
 ¬  .ÏÏ                              : :20 —. ‰Ë‡ÏÂÚ, ÏÏ -  290.0 ÒÏ
#
~Other information
#------------------ REMARKS AREA -----------------------
#=======================================================
# The file is generated by the program GeoTech-ShopLog v2005.04
#Number of Curves = 7
~A Log Data Section
# ...
2730.40     24.53    616.00     67.80     20.28     32.50      2.56    217.70 
2730.50     26.13    615.47     67.10     19.45     32.55      2.69    217.39 
2730.60     27.65    614.95     67.70     12.29     33.59      2.57    217.19 
2730.70     28.87    614.65     68.20      9.16     31.72      2.57    217.02 
2730.80     29.84    614.51     69.20     15.07     31.89      2.50    216.96 
2730.90     30.74    614.65     71.00     23.22     31.35      2.48    217.05 
2731.00     31.62    614.62     72.40     27.03     32.43      2.48    217.19 
2731.10     32.74    615.29     73.00     23.98     34.14      2.44    217.38 
2731.20     34.93    615.84     72.80     24.92     38.78      2.58    217.67 
2731.30     37.66    616.13     72.80     33.51     41.66      2.57    218.05 
2731.40     40.32    616.13     73.00     34.42     42.71      2.64    218.49 
2731.50     42.67    616.21     73.70     30.41     42.71      2.65    218.80 
2731.60     45.12    616.70     76.40     23.13     41.65      2.87    218.96 
2731.70     47.12    617.43     78.40     18.66     38.65      2.77    219.06 
2731.80     48.11    617.41     85.80     15.26     38.99      2.88    219.19 
2731.90     48.27    617.44     90.30     13.01     37.32      2.83    219.27 
2732.00     47.50    617.68     95.80     11.27     34.49      2.81    219.32 
2732.10     45.89    617.45    101.00      9.91     28.11      2.86    219.31 
2732.20     43.69    617.26    106.00      9.31     23.54      2.91    219.14 
2732.30     40.90    617.28    111.40      9.48     21.71      3.00    218.91 
2732.40     38.63    616.97    118.50     10.28     20.50      3.04    218.76 
2732.50     36.42    616.32    125.10     12.62     19.33      3.08    218.66 
2732.60     35.35    615.16    131.30     17.67     14.97      3.27    218.57 
2732.70     35.39    613.31    136.80     21.50     13.15      3.62    218.58 
2732.80     36.36    612.03    144.50     21.58     12.21      3.93    218.83 
2732.90     38.32    610.58    153.70     21.52     11.92      4.42    219.20 
2733.00     40.95    609.31    161.70     19.56     12.21      4.21    219.53 
2733.10     43.73    608.05    172.90     16.26     14.17      4.12    219.87 
2733.20     47.31    606.76    182.30     12.22     16.44      3.90    220.12 
2733.30     49.80    605.76    193.40      9.89     19.30      3.71    220.47 
2733.40     50.20    604.58    201.60      7.67     21.92      3.54    220.87 
2733.50     47.94    602.53    209.80      5.39     24.01      3.52    221.30 
2733.60     43.04    600.03    219.40      3.44     22.26      3.96    221.74 
2733.70     36.47    598.80    230.50      2.88     21.16      4.30    221.76 
2733.80     29.12    597.23    238.10      2.57     20.36      4.41    221.57 
2733.90     21.01    595.38    243.50      2.13     21.36      4.42    221.43 
2734.00     15.27    592.98    246.00      2.15     24.86      4.19    221.31 
2734.10     11.69    591.57    241.30      2.46     25.97      4.54    221.07 
2734.20     10.03    589.82    229.20      3.53     21.81      4.48    220.68 
2734.30      9.35    588.03    213.60      7.31     16.07      4.81    220.17 
2734.40      9.71    586.58    190.90     13.76     12.18      5.14    219.08 
2734.50     10.54    585.39    171.20     16.80     10.74      5.36    217.63 
2734.60     11.36    584.46    153.90     14.10     10.31      5.67    216.26 
2734.70     12.02    583.57    139.50     13.97      9.75      5.52    214.83 
2734.80     12.71    583.00    128.10     16.92     10.34      5.11    213.87 
2734.90     13.16    582.87    119.50     20.48      9.48      5.02    213.97 
2735.00     13.71    583.75    114.20     20.29      9.57      4.94    214.87 
2735.10     14.14    584.60    108.40     16.06     10.00      5.16    215.88 
2735.20     14.58    585.49    105.00     15.10     10.27      5.06    216.72 
2735.30     14.85    586.45    102.20     18.22     10.03      5.15    217.83 
2735.40     15.00    588.02    100.90     21.04      9.72      5.37    218.89 
2735.50     14.97    588.88     99.50     18.40     10.01      5.55    219.19 
2735.60     14.87    590.08     99.50     15.74     10.04      5.73    219.13 
2735.70     14.72    591.30     99.30     13.59     10.26      5.68    219.05 
2735.80     14.31    593.24    100.50     11.76     10.40      5.34    219.00 
2735.90     13.64    594.71    101.00     12.05     10.15      5.23    218.87 
2736.00     12.98    596.03    102.50     11.41     10.51      5.17    218.77 
2736.10     12.21    597.32    103.20     10.71     10.13      5.29    218.84 
2736.20     11.59    599.09    104.70      9.99     10.54      4.93    218.89 
2736.30     11.30    600.82    105.90      8.92     10.93      4.98    218.68 
2736.40     11.43    602.51    106.10      8.25     11.04      4.92    218.25 
2736.50     12.23    603.88    106.70      7.79     11.13      5.07    218.00 
2736.60     13.97    605.48    107.30      7.58     11.20      4.85    218.05 
2736.70     16.09    607.47    108.00      8.84     10.83      4.52    218.44 
2736.80     18.08    608.35    107.60      9.42     10.78      4.33    218.90 
2736.90     19.42    609.28    108.70      7.88     11.64      4.28    219.12 
2737.00     20.41    610.50    109.50      6.95     12.27      4.06    219.24 
2737.10     20.67    611.34    110.20      6.84     12.64      4.13    219.13 
2737.20     20.55    611.93    112.20      7.02     12.25      3.82    218.84 
2737.30     20.32    612.84    114.20      7.18     12.21      3.93    218.57 
2737.40     19.99    613.29    116.60      7.19     12.94      3.96    218.33 
2737.50     19.62    613.76    119.60      7.19     12.41      4.01    217.97 
2737.60     19.29    613.89    121.80      7.07     12.13      4.39    217.69 
2737.70     18.95    614.11    123.30      7.29     12.09      4.84    217.45 
2737.80     18.77    614.41    124.30      9.74     11.57      5.47    217.21 
2737.90     18.83    614.82    124.80     19.36      9.95      6.57    217.28 
2738.00     19.47    615.49    124.90     31.53      8.77      8.13    217.63 
2738.10     20.58    615.96    123.20     42.31      8.21      9.01    218.23 
2738.20     22.08    616.01    121.00     46.12      7.45      9.59    218.96 
2738.30     23.81    615.96    121.30     43.50      7.62      9.83    219.70 
2738.40     25.22    616.17    121.90     36.11      7.74      8.90    220.89 
2738.50     26.07    616.56    123.60     24.22      8.35      7.52    222.39 
2738.60     25.70    616.85    124.40     10.84      9.93      5.92    223.31 
2738.70     24.47    617.19    129.00      6.22     11.71      4.84    224.04 
2738.80     22.60    616.64    133.20      5.27     12.98      3.83    225.45 
2738.90     20.08    616.85    138.10      5.06     14.14      3.41    227.24 
2739.00     17.86    616.69    140.90      5.07     14.64      3.45    229.06 
2739.10     16.13    616.21    142.00      5.25     14.58      3.21    231.73 
2739.20     15.18    613.89    143.50      5.37     14.34      3.23    234.04 
2739.30     14.46    612.59    143.40      5.47     13.72      3.32    231.89 
2739.40     14.05    612.92    142.10      5.62     14.09      3.14    226.55 
2739.50     13.95    610.35    142.30      5.69     14.19      3.33    222.61 
2739.60     14.18    609.73    143.30      5.79     13.66      3.51    221.14 
2739.70     14.56    608.42    142.80      5.96     12.83      3.64    221.01 
2739.80     15.32    607.21    144.40      5.98     12.41      3.77    220.97 
2739.90     16.63    605.56    146.20      7.53     12.55      3.87    220.93 
2740.00     18.39    605.66    146.50     10.64     12.44      3.98    220.62 
2740.10     20.51    605.66    145.60     13.68     12.08      4.29    220.24 
2740.20     22.46    605.47    146.00     14.52     11.10      4.70    220.47 
2740.30     24.32    605.56    146.60     13.03     10.81      4.71    220.93 
2740.40     25.28    605.89    147.50     11.97     10.88      4.69    221.25 
2740.50     25.28    606.13    149.10      9.21     10.89      4.53    221.61 
