~Version information
VERS.                            2.00: CWLS LAS  -  VERSION 2.00
WRAP.                              NO: One line per depth step
~Well information
#MNEM.UNIT                    DATA TYPE  INFORMATION
#===.================================:==================
STRT.M                       1129.000: First depth in file
STOP.M                       2854.200: Last depth in file
STEP.M                          0.100: Depth increment
NULL.                       -9999.00 : Null values
DATE.                        : LOG DATE
TIME.                           15:28: LOG TIME
WELL.                             F9: Well name
GRP.                       : Group name
FLD.                    : Field name
ISS.                 Ò‚Ó‰Ì˚È Í‡ÓÚ‡Ê: Well surveys
SRVC.                                : Service Company
~Curve information
#MNEM.UNIT                   API CODE   CURVE DESCRIPTION
#===.================================:==================
DEPT.M                               : Depth curve
¿2Ã0.5N .ŒÏ*Ï                        : :9 A2.0M0.5N, ŒÏ*Ï - 1475.0 ÒÏ
œ—  .Ï¬                              : :12 œ—, Ï¬ -  372.0 ÒÏ
»   .Ï—ËÏ                            : :14 » , Ï—Ï/Ï - 1961.0 ÒÏ
¡   .ŒÏ*Ï                            : :20 ¡ , ŒÏ*Ï - 1768.0 ÒÏ
√   .√‡ÏÏ                            : :11 √‡ÏÏ‡-‡ÍÚË‚ÌÓÒÚ¸, ÏÍ./˜ -   67.0 
Õ “ .Û.Â.                            : :14 ¡ÓÎ¸¯ÓÈ ÁÓÌ‰ ÔË‚Â‰ÂÌÌ˚È,  -  219.
 ¬  .ÏÏ                              : :20 —. ‰Ë‡ÏÂÚ, ÏÏ -  290.0 ÒÏ
#
~Other information
#------------------ REMARKS AREA -----------------------
#=======================================================
# The file is generated by the program GeoTech-ShopLog v2005.04
#Number of Curves = 7
~A Log Data Section
1129.00      0.10  -9999.00    143.80      5.77      7.12      1.81    238.68 
1129.10      0.20  -9999.00    147.50      5.96      7.12      1.94    239.55 
1129.20      0.10  -9999.00    151.00      5.98      7.10      1.95    243.79 
1129.30      0.20    532.73    154.80      5.96      7.23      1.94    249.10 
1129.40      0.20    534.17    159.10      5.58      7.71      1.95    259.70 
1129.50      0.20    536.21    167.20      4.75      7.84      1.96    269.93 
1129.60      0.20    538.47    173.20      4.07      7.59      1.81    285.67 
1129.70      0.20    540.18    178.20      3.84      7.96      1.70    301.59 
1129.80      0.30    541.04    182.00      3.82      8.13      1.73    316.72 
1129.90      0.30    542.41    185.00      3.82      8.60      1.67    322.48 
1130.00      0.30    543.70    188.30      3.84      8.71      1.71    326.08 
1130.10      0.30    544.67    190.20      3.90      8.80      1.64    326.51 
1130.20      0.50    546.42    191.30      3.97      8.77      1.74    325.40 
1130.30      0.70    547.93    191.90      4.03      8.62      1.75    323.93 
1130.40      1.20    548.02    191.90      4.09      8.27      1.74    321.18 
1130.50      2.00    547.21    191.00      4.15      8.31      1.81    320.17 
1130.60      3.50    546.18    190.90      4.31      8.54      1.87    320.30 
1130.70      4.40    543.51    189.90      4.52      8.60      1.90    321.60 
1130.80      5.30    541.94    188.20      4.63      8.43      1.91    324.49 
1130.90      5.90    541.57    187.60      4.60      8.36      1.91    328.41 
1131.00      6.20    540.02    187.60      4.51      8.02      1.91    331.62 
1131.10      6.40    538.47    186.80      4.35      8.17      1.77    336.82 
1131.20      6.30    537.41    186.80      4.20      8.13      1.73    340.56 
1131.30      6.30    536.23    186.60      4.10      8.27      1.70    342.40 
1131.40      6.30    534.82    186.30      3.94      8.71      1.68    344.02 
1131.50      6.20    533.38    185.90      3.81      8.92      1.60    343.23 
1131.60      6.00    532.50    184.70      3.83      8.55      1.57    341.04 
1131.70      5.90    533.04    183.10      3.88      8.25      1.60    337.48 
1131.80      5.80    533.35    180.50      3.87      8.41      1.62    335.33 
1131.90      5.60    532.18    178.20      3.87      8.44      1.64    333.51 
1132.00      5.50    529.89    173.90      3.95      8.46      1.63    328.95 
1132.10      5.50    528.12    168.80      4.16      8.01      1.59    324.47 
1132.20      5.60    528.28    165.10      4.41      7.44      1.72    320.94 
1132.30      5.70    529.19    159.60      4.69      7.49      1.83    315.90 
1132.40      6.00    528.67    154.70      5.04      7.44      1.97    306.52 
1132.50      6.30    528.34    150.60      5.44      7.82      2.01    292.10 
1132.60      6.70    528.07    146.60      5.81      7.91      2.22    279.09 
1132.70      6.90    526.91    143.90      6.04      8.13      2.24    264.42 
1132.80      7.20    526.50    142.20      6.17      7.99      2.17    261.57 
1132.90      7.20    526.11    140.10      6.12      8.25      2.24    259.78 
1133.00      7.40    524.78    139.30      5.96      8.43      2.24    256.63 
1133.10      7.50    523.27    139.20      5.86      8.43      2.38    254.37 
1133.20      7.60    521.97    139.20      5.84      8.10      2.44    250.60 
1133.30      7.60    520.38    138.20      5.94      8.10      2.52    240.95 
1133.40      7.70    520.18    137.90      6.12      8.01      2.43    233.84 
1133.50      7.60    520.90    137.80      6.19      8.24      2.46    226.02 
1133.60      7.60    521.38    138.10      6.05      8.46      2.40    223.35 
1133.70      7.50    522.29    138.40      5.88      8.24      2.30    222.46 
1133.80      7.50    522.55    138.80      5.85      8.12      2.30    221.76 
1133.90      7.50    522.01    139.10      6.07      7.71      2.31    221.31 
1134.00      7.40    521.55    139.60      6.42      7.05      2.41    220.92 
1134.10      7.40    521.40    140.20      6.41      8.33      2.31    220.27 
1134.20      7.40    521.20    141.30      6.12      8.09      2.20    220.16 
1134.30      7.40    521.58    143.40      6.09      7.84      2.28    220.47 
1134.40      7.40    522.20    144.80      6.04      8.66      2.29    220.88 
1134.50      7.50    521.82    146.70      5.79      9.02      2.32    221.17 
1134.60      7.60    521.35    147.50      5.65      8.59      2.39    221.83 
1134.70      7.70    521.74    148.80      5.62      8.92      2.32    222.78 
1134.80      7.60    521.76    150.20      5.62      8.65      2.32    223.69 
1134.90      7.70    521.30    151.40      5.55      8.59      2.36    224.07 
1135.00      7.70    521.25    152.40      5.36      8.98      2.37    225.58 
1135.10      7.70    521.35    153.10      5.21      8.18      2.26    226.67 
1135.20      7.70    520.38    153.60      5.29      8.22      2.24    227.29 
1135.30      7.70    518.57    154.50      5.39      8.83      2.38    226.90 
1135.40      7.60    517.99    154.70      5.27      9.10      2.32    225.77 
1135.50      7.60    518.73    154.30      5.09      8.90      2.35    226.24 
1135.60      7.50    518.91    153.50      4.92      9.57      2.45    227.69 
1135.70      7.40    518.35    153.80      4.69      9.41      2.30    228.48 
1135.80      7.30    517.67    153.00      4.68      8.72      2.15    228.81 
1135.90      7.10    517.10    151.60      4.82      8.89      2.13    229.27 
1136.00      7.10    516.95    149.40      4.79      9.18      2.10    229.00 
1136.10      7.20    516.90    146.30      4.91      9.89      2.17    229.30 
1136.20      7.30    517.68    143.60      5.34      9.94      2.22    229.64 
1136.30      7.30    518.88    141.00      5.70      8.84      2.29    229.77 
1136.40      7.30    519.55    138.20      5.80      8.86      2.28    231.26 
1136.50      7.40    519.75    135.20      5.76      8.73      2.31    232.48 
1136.60      7.50    519.75    132.70      5.77      7.92      2.29    232.03 
1136.70      7.40    519.55    130.60      5.84      7.99      2.39    230.40 
1136.80      7.50    518.82    128.20      5.94      7.81      2.39    227.34 
1136.90      7.60    518.15    125.80      6.10      8.03      2.37    223.76 
1137.00      7.70    517.95    123.40      6.31      7.55      2.47    222.16 
1137.10      7.80    516.93    121.20      6.45      7.62      2.64    220.15 
1137.20      8.00    515.37    119.80      6.63      8.07      2.61    217.82 
1137.30      8.00    513.83    118.60      6.98      8.00      2.57    216.02 
1137.40      8.10    512.03    116.20      7.21      7.40      2.63    214.88 
1137.50      8.30    511.05    114.60      7.35      7.25      2.60    214.04 
1137.60      8.40    510.90    113.60      7.50      7.27      2.58    213.64 
1137.70      8.60    510.85    111.60      7.46      6.96      2.55    213.69 
1137.80      8.70    511.38    110.70      7.30      7.16      2.61    213.99 
1137.90      8.80    512.19    110.20      7.27      7.34      2.70    214.34 
1138.00      8.70    512.55    108.70      7.34      7.95      2.68    214.90 
1138.10      8.80    512.75    108.40      7.40      7.80      2.68    215.47 
1138.20      8.90    512.80    107.80      7.46      7.64      2.57    215.73 
1138.30      9.10    512.85    107.20      7.51      7.66      2.34    216.07 
1138.40      9.20    512.66    106.80      7.50      7.82      2.32    216.34 
1138.50      9.30    512.25    105.90      7.43      8.10      2.34    216.40 
1138.60      9.50    512.15    105.20      7.41      8.07      2.32    216.34 
1138.70      9.70    512.05    104.10      7.64      7.69      2.25    216.05 
1138.80     10.00    512.34    104.00      7.99      8.12      2.11    215.93 
1138.90     10.20    512.89    104.20      8.12      8.98      2.06    215.64 
1139.00     10.30    513.05    104.60      7.98      9.36      2.16    214.84 
1139.10     10.30    513.05    104.80      7.78      9.72      2.17    214.46 
